Time,Latitude,Longitude,Altitude,Angle of Attack,Angle of Sideslip,X-Acceleration,Y-Acceleration,Z-Acceleration,Thrust,True Velocity,Ground Velocity,Pitch,Roll,Yaw,Dynamic Pressure,cp,parachute_deploy_gain,Wind Speed,Mach,omega_x,omega_y,omega_z,Cmq,Angle of Attack(total),Angle of Attack(gust),True Velocity(gust),Acceleration
0.0,31.222216000000007,131.010392,3.000000004412624,0.0,0.0,0.0,0.0,0.0,2.2828121974499247,0.0,0.0,71.99999999612658,-1.0292491154817412e-14,119.99999999354436,0.0,15.288,0,0.0,0.0,0.0,0.0,0.0,-0.0,0.0,90.0,0.0,0.0
0.01,31.22221599999862,131.01039200000284,3.0000009727369523,0.0,0.0,0.0,0.0,0.0,34.24218696174923,5.916279387578309e-11,5.734623670548936e-11,71.99999999613168,-5.86671995824671e-13,119.9999999935449,2.1432944861733093e-21,15.288,0,0.0,1.7386402909615473e-13,-3.4220131069073734e-19,7.115076756936125e-19,5.488773498207866e-19,-1.1574302492039043e-31,0.0,89.99999999962336,5.916279387578309e-11,0.0
0.02,31.22221599999738,131.01039200000537,3.0000018317022668,0.0,0.0,0.0,0.0,0.0,25.871876237766408,1.2265415415436536e-10,1.1895038237325684e-10,71.9999999961369,-1.1836364828043265e-12,119.99999999354544,9.211895886571454e-21,15.288,0,0.0,3.6044858651615574e-13,-6.979551485375437e-19,1.4162390878091906e-18,1.0909784360635388e-18,-4.776231873571785e-31,0.0,89.99999999921916,1.2265415415436536e-10,0.0
0.03,31.22221599921969,131.01039200159065,3.0001883335529382,18.80143492628821,-0.0001350810307892,10.931161642028636,-1.75114298675875e-05,3.026590975169265,180.34219359854663,0.0798232026864394,0.0478175828508887,71.99999999765336,-5.341802909786072e-12,119.99999999436793,0.0039016003969354,15.288,0,0.0,0.0002345795854893,3.788270153300133e-17,-7.771883375645477e-10,1.1422790048099072e-11,1.7057759223764537e-13,18.80143492675591,89.51882325913425,0.079801984207741,11.342422482672777
0.04,31.222215995131297,131.01039200995308,3.001692634342189,9.19442604083399,-4.49173898918486e-05,52.29595764159784,6.445392950801871e-06,3.026413589912948,548.6359724538078,0.3504174083926908,0.1601447499964056,72.00000000319055,-3.111420077280171e-11,119.99999999870242,0.0751892535633216,15.288,0,0.0,0.0010297854387864,2.0082066977226968e-15,-1.520937588847922e-08,2.5623342884322286e-11,1.4654248781413086e-11,9.19442604094277,87.798916624545,0.3504103527855857,52.383455068075136
0.05,31.222215983575865,131.01039203366796,3.0074067499493786,5.158590039700252,1.707592688632746e-06,76.26884281015512,5.843947534199429e-05,3.0258124765658088,761.6984298824644,0.9592973585397016,0.3772700771701255,72.0000000004862,-1.3608731808076822e-10,120.0000000109612,0.5634958029902841,15.288,0,0.0,0.0028191251099456,2.086299069701397e-14,-1.0551247853743037e-07,3.973493515691201e-11,2.783064866637575e-10,5.158590039700515,83.94063169874748,0.959297626767734,76.32884071402438
0.06,31.222215961742712,131.0103920785344,3.019291017943491,4.109521257467909,3.140103977270004e-05,57.06876634333886,0.0001151069734147,3.024834864051463,590.4875390737208,1.6257536642597354,0.6118982818704327,71.99999992547217,-3.5903296759057166e-10,120.00000003412836,1.6184272268450337,15.288,0,0.0,0.0047776672697797,1.0694899894620088e-13,-3.741090980393931e-07,5.521401959501359e-11,1.6723176417636091e-09,4.109521257587776,79.78719176344794,1.6257585967235286,57.148873286519276
0.07,31.222215929936205,131.01039214392435,3.0371334573469446,3.649087515174788,5.707077112564807e-05,86.89643797254193,0.0001728541558773,3.0234947746384675,855.2937749779139,2.3057260079826607,0.8506307413593818,71.99999965378231,-6.907496536790437e-10,120.00000006788592,3.255354923652711,15.288,0,0.0,0.0067759305364855,3.495199904512709e-13,-9.036515915819006e-07,7.594816279105379e-11,5.728932851326001e-09,3.6490875156204896,75.6601668283889,2.305734972638426,86.94902215090157
0.08,31.222215886364623,131.01039223353447,3.0621840248716574,3.4254446680114707,8.413075603463509e-05,17.831756866644035,0.0002285946601282,3.021841001032126,241.2171988638848,2.961944911520492,1.0819695676346892,71.99999900671328,-1.141745983122182e-09,120.00000011415082,5.371998197385977,15.288,0,0.0,0.0087043901031071,8.800530155962314e-13,-1.829098470920821e-06,1.0943386634701918e-10,1.4896287129277132e-08,3.4254446690434226,71.81713637501419,2.9619581267487467,18.085991154451033
0.09,31.22221583454733,131.01039234010327,3.0919888289029,3.389560809024919,0.0001118726864415,54.09031716446879,0.0002748660999733,3.020060228038602,563.0937377043176,3.504225426410036,1.2780161667917422,71.99999774508822,-1.634190085504106e-09,120.00000016921716,7.519080503822694,15.288,0,0.0,0.0102980157586766,1.865782139518716e-12,-3.1503298654458527e-06,1.6284478329871028e-10,3.03536411425607e-08,3.389560810868955,68.76526501308032,3.504242999330529,54.17456206384468
0.1,31.22221577423132,131.0103924641528,3.1267248829165366,3.4447939461814814,0.0001419149103147,51.372195336549765,0.0003131602029306,3.0182021883815127,538.7437595981919,3.950569597142709,1.4443465951180965,71.99999562056465,-2.1287748602259068e-09,120.00000023339832,9.55649523509932,15.288,0,0.0,0.0116097108366932,3.485956000178229e-12,-4.949356763187612e-06,2.4573266549165286e-10,5.3761299442583966e-08,3.444793949101151,66.34639928474206,3.9505918890846927,51.460781166288626
0.11,31.222215706113143,131.01039260424562,3.165907002780892,3.4691423802630394,0.0001702373452339,40.591037561894986,0.0003534470100582,3.016051659024047,442.8656393052949,4.421478635995476,1.6182620895289603,71.99999235067894,-2.5564479031457968e-09,120.00000030601664,11.970509656144712,15.288,0,0.0,0.0129935974697161,5.942887149865172e-12,-7.273722517324353e-06,3.67769289312894e-10,8.842679949465076e-08,3.4691423844348632,63.88798785789768,4.421505376815134,40.70293476011277
0.12,31.222215630588888,131.0103927595646,3.2092596514826863,3.4852659299808075,0.0001974376474727,44.30042894095728,0.000394069215595,3.013641598889868,475.58594813540446,4.896982486381051,1.793579340340896,71.99998761802138,-2.8337988279882726e-09,120.00000038673312,14.683611096353944,15.288,0,0.0,0.0143909889875706,9.464337642181618e-12,-1.017558359402848e-05,5.395790443954697e-10,1.3700793350599625e-07,3.4852659355662303,61.5068242157714,4.897013499814194,44.40281567867803
0.13,31.222215548046687,131.0103929293088,3.256512891171917,3.5606043721293616,0.0002276507019012,48.86766833507025,0.0004268800875964,3.0112558910133567,515.9156326236895,5.278566579338586,1.939796541405244,71.99998107389406,-2.8573058577484587e-09,120.00000047523812,17.061052093156064,15.288,0,0.0,0.0155123760833565,1.4300406003001044e-11,-1.3705268062305584e-05,7.724776992181392e-10,1.989112774124932e-07,3.560604379397528,59.67313531776262,5.27860233862722,48.960358155653
0.14,31.222215458587108,131.01039311327068,3.30759734332425,3.6000732663755977,0.0002555702913645,45.540290862247225,0.0004629468001456,3.0085404980032777,486.2390860568404,5.70011779273801,2.098362647205908,71.99997235012626,-2.508533681468686e-09,120.00000057154703,19.894788765881632,15.288,0,0.0,0.0167512184495524,2.071534240530911e-11,-1.7917736259613292e-05,1.0787346240473087e-09,2.8081526258393346e-07,3.6000732754351943,57.72385750323359,5.700157937625502,45.639559681930805
0.15,31.222215362317904,131.01039331122794,3.3624387479639086,3.651605404442164,0.0002842753491325,44.01308509501,0.0004965057129938,3.005703619811542,472.54218587214,6.091938849578711,2.2476968067377374,71.99996103728932,-1.6446954747148112e-09,120.00000067569304,22.723773683610247,15.288,0,0.0,0.0179026934683374,2.9002783512213203e-11,-2.287326399669318e-05,1.47199345427166e-09,3.831202693354572e-07,3.651605415492516,55.98561718911576,6.091983503446133,44.115597174664394
0.16,31.22221525912812,131.01039352340948,3.421115382839859,3.67540086436193,0.0003108411545024,34.83804992586084,0.0005330990866742,3.002517946501868,391.1218908297564,6.521183188362317,2.4085903880902046,71.99994669525161,-1.0153513453738144e-10,120.00000078796704,26.03872642002185,15.288,0,0.0,0.019164148528834,3.9478358970291335e-11,-2.864207894220033e-05,1.9677461746207517e-09,5.135466997084602e-07,3.6754008774883777,54.15946979122355,6.521232015176687,34.96719658394182
0.17,31.2222151493826,131.01039374906244,3.4833737923187487,3.7139589864597298,0.0003384978477213,43.96471427482637,0.0005668629535037,2.999235483723449,471.78125980632376,6.916861975403744,2.559060925010733,71.99992884100092,2.3206494032971838e-09,120.0000009081849,29.29426197817256,15.288,0,0.0,0.0203269651395979,5.248754693205839e-11,-3.5267097947693114e-05,2.580363454062817e-09,6.706952682968329e-07,3.713959001863866,52.549031795895466,6.916915146521327,44.06689817851128
0.18,31.22221503253009,131.01039398932429,3.549599475912623,3.7380363034619775,0.0003650282082698,36.67395661481795,0.0006021794701355,2.9956556354306425,407.10156721191447,7.332140201215607,2.71556808256092,71.99990696207136,5.837017536380516e-09,120.00000103716444,32.917216366714264,15.288,0,0.0,0.0215473823438242,6.839750892601699e-11,-4.285557247677198e-05,3.331016495775474e-09,8.639362741436378e-07,3.738036321259578,50.93050624815799,7.332197539712479,36.796100973258795
0.19,31.22221490871209,131.01039424390297,3.619694897703461,3.747799769666444,0.0003901520189829,41.42208371271829,0.0006393759928961,2.991742733214697,448.9531328318269,7.771071983754382,2.879366399937307,71.99988049019642,1.0709144790974043e-08,120.00000117502664,36.97605053227239,15.288,0,0.0,0.0228373144884866,8.761416506509219e-11,-5.146771415177372e-05,4.238406957677133e-09,1.0996552116864756e-06,3.747799789945131,49.29705748437159,7.771133268690212,41.529983675580546
0.2,31.22221477769685,131.01039451327668,3.693822889232993,3.7700519460961166,0.0004166800650969,37.99697972290605,0.0006740224661302,2.987733789228414,418.51563019916136,8.179966026035371,3.0338260708461373,71.99984881140107,1.723179577184912e-08,120.0000013223286,40.969302182777255,15.288,0,0.0,0.024038975990988,1.1057590044953188e-10,-6.120032215177249e-05,5.3263847350253015e-09,1.376394225587184e-06,3.7700519690893857,47.8457752505109,8.180031477986942,38.11426270718793
0.21,31.222214639876928,131.01039479663547,3.771710975053407,3.7926098867321474,0.0004432924407074,36.46301043881366,0.0007080907240332,2.983530483977461,404.8187610144644,8.582757448615462,3.1863584283669346,71.99981127559042,2.5745201416596626e-08,120.00000147900325,45.103059028532826,15.288,0,0.0,0.0252227064089584,1.3774582723633048e-10,-7.20875523136271e-05,6.61341033873124e-09,1.7010673350603349e-06,3.792609912601061,46.47936953648762,8.582827080829217,36.584868250565684
0.22,31.22221449507626,131.01039509434258,3.8534832466471007,3.782921298925821,0.0004660920499522,44.14577847155813,0.0007479176313898,2.978724032883548,472.5421858721365,9.056569122268344,3.360845972992861,71.99976720416048,3.661811567390422e-08,120.00000164562512,50.21995530074818,15.288,0,0.0,0.0266151520780326,1.6960703048385348e-10,-8.421592474264931e-05,8.124635526119773e-09,2.0969540034515424e-06,3.7829213275976334,44.9464484092354,9.056642335836344,44.24615863872642
0.23,31.22221434283448,131.01039540734791,3.9394622486964206,3.813874679301352,0.0004940771488601,36.66675459308932,0.000779455230549,2.974212905336642,406.3406421461021,9.430647902846331,3.5044030163419806,71.99971583979395,5.0272885112871524e-08,120.00000182313076,54.45382429059888,15.288,0,0.0,0.0277145095638672,2.0669790509245914e-10,-9.77285871729516e-05,9.894576563683824e-09,2.5339062472561444e-06,3.813874711257219,43.79476959007253,9.430725512303388,36.78718303164376
0.24,31.222214184153326,131.01039573358457,4.028950821673608,3.829256049377765,0.0005200487408944,37.802126339316736,0.0008136255607606,2.9692962675112065,416.2328240017114,9.837806876534357,3.658163422426286,71.9996564062533,6.718950080713476e-08,120.0000020109434,59.25679777340223,15.288,0,0.0,0.0289110855155543,2.4956955046738006e-10,-0.0001125744417092,1.1934277804843484e-08,3.0448209172448607e-06,3.829256084638984,42.59361542722471,9.83788856559955,37.91856374864305
0.25,31.22221401888584,131.01039607335582,4.122052964664892,3.851417709838087,0.0005469594058717,38.85163035360012,0.0008459008130282,2.964283881833675,425.36408079150686,10.22297576958679,3.8050691648373967,71.99958811418384,8.786880969336211e-08,120.00000220974424,63.98709205399403,15.288,0,0.0,0.0300430411774988,2.987811646313829e-10,-0.0001288461362054,1.4273117985167728e-08,3.621333387698252e-06,3.8514177486178034,41.50703126619192,10.223061685769354,38.96455005232871
0.26,31.222213847358866,131.0103964259872,4.218542267117083,3.8780574625554745,0.0005745172425185,42.3164797140743,0.0008766626387865,2.959162938653076,455.8015834241788,10.590779679138215,3.946551912391076,71.99951013710364,1.1286401474734325e-07,120.00000241975916,68.67355887153568,15.288,0,0.0,0.0311239685467471,3.5491769188178554e-10,-0.0001465721578858,1.6932703957058654e-08,4.267712643344226e-06,3.8780575050466,40.51245375834074,10.590869924095635,42.41981967733593
0.27,31.22221366913008,131.0103967923915,4.318728802515264,3.886188503202341,0.0005994342651313,38.70936050721014,0.0009111181036949,2.953518013741325,423.84219965987256,11.004860953238978,4.102320296019413,71.99942161756776,1.4276417094868828e-07,120.0000026420792,74.14786134434608,15.288,0,0.0,0.0323408987462391,4.1858405402174807e-10,-0.0001658847815307,1.995072923688136e-08,5.018832267232506e-06,3.886188549362022,39.43841359495857,11.00495511215316,38.8218734782956
0.28,31.22221348431185,131.01039717233687,4.422535913956003,3.90556090261878,0.0006261175699806,44.68030766832924,0.0009425767186621,2.947879457547137,476.3468732012221,11.38358114165448,4.247086834352694,71.999321619057,1.7823531611327881e-07,120.000002877279,79.33831935330025,15.288,0,0.0,0.033453914386159,4.904408325040897e-10,-0.0001868529238516,2.3357766479368094e-08,5.847713054408178e-06,3.9055609527288775,38.49894431917428,11.383679491972384,44.77744842575601
0.29,31.222213292835256,131.0103975659655,4.530013412817602,3.9242599519377537,0.0006528240665589,35.802573724660256,0.0009737210635801,2.942037024315898,397.97031042211177,11.759725774384751,4.391004157029451,71.99920917567837,2.1999186079018322e-07,120.00000312617878,84.66717879828003,15.288,0,0.0,0.0345593650464213,5.711677680739745e-10,-0.0002095620322847,2.7188189988316943e-08,6.77505090435382e-06,3.9242600061534456,37.60352534239979,11.759828319749328,35.92324968749781
0.3,31.222213095024976,131.0103979726075,4.64093665799555,3.936939025755682,0.0006785438093183,33.570228713727204,0.0010059102294455,2.93586442972183,378.1859457108711,12.149968255527943,4.539237002744259,71.99908328532703,2.6880857935396905e-07,120.00000338923812,90.3787563598417,15.288,0,0.0,0.0357062504417728,6.614698865958865e-10,-0.0002340353597042,3.1467140861055e-08,7.817263716758327e-06,3.9369390841381695,36.71173884615234,12.150074840940263,33.698361337808635
0.31,31.22221289105846,131.01039839189684,4.755183729044857,3.9598342215431432,0.0007060286581592,35.396825578217346,0.0010350810412898,2.9297385597941448,394.1656220930212,12.504537499407316,4.6763673222047455,71.99894291513503,3.255120771695107e-07,120.00000366712923,95.72967338626896,15.288,0,0.0,0.0367483036680869,7.620720834468404e-10,-0.0002603234137215,3.622454560346964e-08,8.948994505138873e-06,3.9598342843844345,35.934338386209795,12.504648402129598,35.5178635353378
0.32,31.222212681031937,131.01039882363492,4.872689374180126,3.985461429033668,0.0007340760463279,38.52097867048992,0.0010630242168685,2.9235095146848846,421.55939346242695,12.84534566718622,4.809181081594425,71.99878701464397,3.909756427278764e-07,120.0000039606604,101.01782231644016,15.288,0,0.0,0.0377499198995686,8.737098716736534e-10,-0.0002884807530145,4.1491545539590986e-08,1.0187112828155184e-05,3.98546149652875,35.21473736963424,12.845460975581933,38.631757748577954
0.33,31.22221246496604,131.01039926777932,4.9934410812554,4.010606629086,0.0007621365968788,38.18822026147908,0.0010905599149574,2.917102431053817,418.5156301991682,13.18247167592885,4.940798912752974,71.99861449732019,4.661299779655886e-07,120.000004270781,106.38859400029033,15.288,0,0.0,0.0387407190563976,9.971421990244511e-10,-0.0003185760672934,4.7302669734505256e-08,1.154498667827874e-05,4.010606701382261,34.52805863348922,13.182591392065536,38.299473293007864
0.34,31.222212242662028,131.01039972474007,5.117579377337869,4.019339771238816,0.0007871574969313,29.898022638335373,0.0011220389395318,2.910051232417875,345.46563688075645,13.569536737955724,5.0878303926024735,71.99842423285973,5.519675040347761e-07,120.0000045987411,112.72655675097128,15.288,0,0.0,0.0398782837956187,1.1331556132162459e-09,-0.0003507224668667,5.37022358302301e-08,1.308298593306914e-05,4.019339848191799,33.76700548046532,13.5696603843662,30.039310197084795
0.35,31.22221201433324,131.01040019407705,5.2449575244483055,4.033762873683395,0.000813261106463,32.76415525156106,0.0011515840876071,2.902959820469776,370.5765700527033,13.934300103976534,5.227895396154902,71.99821502296155,6.495674834876441e-07,120.000004945438,118.8669740701126,15.288,0,0.0,0.040950312688979,1.2825853697215452e-09,-0.0003849609961885,6.072234695821837e-08,1.4746020857580124e-05,4.033762955530055,33.07785186209504,13.934427850732408,32.89250745069162
0.36,31.22221177990305,131.01040067594835,5.375631006350063,4.051723629010647,0.0008401329464575,37.01692984301412,0.0011797030485285,2.8957873473716007,407.8625232777193,14.282998147928636,5.362923567977223,71.9979856440668,7.600645476620651e-07,120.00000531213882,124.88900300695136,15.288,0,0.0,0.0419751331662584,1.4462801652534363e-09,-0.0004213876232777,6.84067806399068e-08,1.654507199147348e-05,4.051723715967022,32.44322602189087,14.283130115703262,37.13002398000203
0.37,31.222211539445663,131.01040117020102,5.509550188388412,4.071639898917391,0.0008674922629137,35.12417761390579,0.0012067983861697,2.88849906286036,391.1218908297666,14.620581431527652,5.494447309446232,71.99773482653193,8.846681943540367e-07,120.00000570002652,130.86067091914967,15.288,0,0.0,0.0429672939311924,1.6251202388969355e-09,-0.0004600660652957,7.679415042686734e-08,1.849041957573993e-05,4.071639991174516,31.85023865502424,14.620717696893658,35.24274792557624
0.38,31.222211292895075,131.01040167697127,5.646763233102716,4.08264881385344,0.0008930259828975,36.695642158537446,0.0012360471443664,2.880711738179021,404.8187610144602,14.986392916850402,5.634654729559426,71.99746126698146,1.0246533537040716e-06,120.0000061105033,137.4891296153862,15.288,0,0.0,0.0440424171304414,1.8200057922063743e-09,-0.0005010869196581,8.592980519823866e-08,2.0642694281337543e-05,4.082648911356968,31.228847973200924,14.986533193043764,36.808540518115166
0.39,31.22221104018777,131.0104021963902,5.787316652586672,4.096641430700089,0.0009192713382325,31.335681548387896,0.0012640110027448,2.872831219844713,357.64062493382744,15.337978856701952,5.770390286512262,71.99716358743511,1.1813915463769678e-06,120.00000654506955,144.01394309468844,15.288,0,0.0,0.0450757388736732,2.031886352449547e-09,-0.00054455673306,9.586443829735616e-08,2.295945663566148e-05,4.096641533664766,30.65298398882095,15.338123255506089,31.4670954954126
0.4,31.222210781536543,131.01040272801887,5.931064331106764,4.109028969993624,0.0009451871856381,29.95928076777898,0.0012920492774571,2.8646905607053603,345.465636880754,15.692185018814769,5.906873567965718,71.99684037970908,1.3563276523471372e-06,120.00000700500496,150.74021066990193,15.288,0,0.0,0.0461167659598875,2.2617341782092324e-09,-0.0005905037520737,1.0663253249436129e-07,2.5471259834659164e-05,4.1090290785164525,30.09246700352443,15.692333488470696,30.095929256306363
0.41,31.222210517064383,131.01040327160345,6.077922766619747,4.122888296344507,0.0009714525997821,33.78425365340317,0.0013192264430821,2.85640971467756,378.94687077668647,16.03742529732769,6.0405139809190125,71.99649020751959,1.5509747261474075e-06,120.0000074917568,157.44375780268788,15.288,0,0.0,0.0471314487675864,2.5105374204052982e-09,-0.0006389770219162,1.1827345344180344e-07,2.816813594418537e-05,4.122888410595805,29.56469007160549,16.037577892745222,33.904791300285986
0.42,31.22221024682894,131.0104038270252,6.227854084363214,4.14444025865494,0.0009995884754813,38.04468161607466,0.0013435485656724,2.8482703202464488,416.2328240017114,16.348862540904037,6.163613566771559,71.99611159893284,1.766920641656551e-06,120.00000800692096,163.6157044470786,15.288,0,0.0,0.0480467946810589,2.779304965995011e-09,-0.0006900467934588,1.308321832549104e-07,3.100973487310896e-05,4.144440378988911,29.104646754454564,16.34901955589459,38.15115260238947
0.43,31.222209970843565,131.0104043942566,6.380851271439565,4.1618082623168045,0.0010268052928652,33.45815353250911,0.0013687230309017,2.8397750580998298,375.9031395134336,16.67263197205097,6.290467308135904,71.99570306121484,2.005818691215035e-06,120.00000855220898,170.15779512382937,15.288,0,0.0,0.0489983878509763,3.0690566816849196e-09,-0.0007437862329608,1.443552931671376e-07,3.4086145072160934e-05,4.161808388761201,28.640125213458976,16.672793262249197,33.57845085853367
0.44,31.22220968892116,131.01040497368373,6.537047157143216,4.164954087655709,0.0010505545842624,30.86574023822051,0.0013980747538988,2.830419582421933,353.0750125389216,17.050421620730056,6.433992917638883,71.99526304125902,2.269416145406482e-06,120.00000912964636,177.9537948947602,15.288,0,0.0,0.050108743779844,3.380847125286677e-09,-0.0008003278134917,1.589055036683518e-07,3.750784460406397e-05,4.164954219916419,28.113519280259386,17.050586641458253,30.99524475496968
0.45,31.22220940081287,131.01040556582012,6.696617751072218,4.165241899529329,0.0010735835484822,35.912216710755274,0.0014280646808282,2.820677244966047,397.2093853562869,17.438293672974723,6.580571293039616,71.99478987454265,2.5595995397253085e-06,120.00000974147088,186.13940823302417,15.288,0,0.0,0.0512487363629523,3.7158016249566814e-09,-0.000859850913876,1.745604864109677e-07,4.121350642664912e-05,4.1652420376426775,27.591357195572936,17.43846231108416,36.02281959036367
0.46,31.222209106468902,131.0104061707686,6.859600379555308,4.174585124444534,0.0010989881252456,41.916816790010685,0.0014546917035209,2.811153314474766,449.7140588976434,17.786187321601275,6.714685486378061,71.99428180697711,2.8783880229668832e-06,120.0000103898448,193.6374175079873,15.288,0,0.0,0.0522712438446989,4.0751091178509895e-09,-0.0009224765531151,1.9138630415982226e-07,4.50966024037632e-05,4.1745852688465686,27.13985967570823,17.786359950252297,42.01097612387663
0.47,31.22220880579083,131.01040678873238,7.026066274755745,4.1823089530633855,0.0011240727220223,28.37640408484148,0.0014814747534716,2.801325368441072,331.0078106302534,18.138167428286582,6.849989708801916,71.99373704967608,3.2278903746588286e-06,120.00001107707628,201.37401505997488,15.288,0,0.0,0.0533057667609836,4.459978104761035e-09,-0.0009883252835099,2.094509673354327e-07,4.927107017839778e-05,4.182309103852639,26.69716826759888,18.13834399721685,28.514342615617974
0.48,31.222208499300592,131.0104074186346,7.195654207463586,4.189479568102716,0.0011490100608361,27.95074823096412,0.0015080719422187,2.7912412472910484,327.2031223011574,18.48995085190441,6.98515976370584,71.99315377257649,3.6103201777021456e-06,120.00001180491516,209.25751230436188,15.288,0,0.0,0.0543397174489847,4.8716620260348906e-09,-0.0010573190976925,2.2877013380347535e-07,5.373205427420879e-05,4.189479725385959,26.268461765425428,18.4901313379827,28.089773168283216
0.49,31.222208187201936,131.01040806005494,7.368224738812109,4.202723284133339,0.001175611380853,35.08821363242469,0.0015321405723077,2.781292092003844,389.60000969812296,18.812014261754847,7.111044804193205,71.99253015042137,4.027946338669921e-06,120.0000125755114,216.60722913930897,15.288,0,0.0,0.0552863302793499,5.311396446020465e-09,-0.0011294854492155,2.4938633613154685e-07,5.8398320167141767e-05,4.202723448262914,25.88860807032205,18.81219892635871,35.1982716047702
0.5,31.22220786953184,131.01040871291724,7.5437546994244835,4.220815778795054,0.0012036252596423,36.05491615971072,0.0015540388599792,2.7714444106710974,397.97031042210494,19.10875420627192,7.229005658018125,71.99186435180009,4.483102820610566e-06,120.00001339126192,223.4908652241728,15.288,0,0.0,0.0561585257949344,5.7804122391526605e-09,-0.0012048912160576,2.713531252030471e-07,6.327866493526626e-05,4.220815950099865,25.54902500917784,19.108943271285572,36.161276053538906
0.51,31.222207546379583,131.0104093770373,7.722184419225251,4.232567510615346,0.0012298790840397,27.54004661432325,0.0015777580800203,2.761017323676155,323.3984349720841,19.430597746636646,7.354673636736509,71.99115452520388,4.978202222778502e-06,120.00001425458936,231.07869697977367,15.288,0,0.0,0.0571045034845869,6.2799518101633574e-09,-0.0012835871653678,2.947201005874635e-07,6.854585242460463e-05,4.232567688976395,25.189423168613605,19.430790935591396,27.678103017910345
0.52,31.222207217547744,131.01041005256863,7.903539476583181,-16.823656312041226,-21.223410083544305,33.79599801082201,1.1558623382275994,3.812266715872816,372.0984511843415,19.627638102603456,7.490161529612052,71.99041872741037,-3.606998092857626e-05,119.99997144002772,235.7849650785404,15.288,0,10.057164943979036,0.0576837025846916,6.7839184432709595e-09,-0.0011833883744598,-0.0001741137617276,6.383478973242287e-05,26.83897410820016,15.68719448667902,16.369588858420148,34.02997027335419
0.53,31.22220688175697,131.01041074017888,8.087946413851865,-16.49902251348782,-20.946071625202887,35.45907508973363,1.1852512105618072,3.830610948288472,386.5562464348624,19.919447635602616,7.629455053888819,71.98981228042163,-0.0006531112746217,119.9993229625654,242.84374277099343,15.288,0,10.095863096411737,0.0585414239530693,7.0175731534444685e-09,-0.000907257792862,-0.0005670276262884,4.966636781461214e-05,26.432052565952755,15.420095832509595,16.702045923016556,35.68507260590419
0.54,31.22220653875049,131.01041144010532,8.275477398460977,-16.18583305389791,-20.677121992030663,31.201694712275344,1.215026461259127,3.8490497769400895,349.2703242098436,20.21036331167277,7.768293338816681,71.9893657055166,-0.0019705424676399,119.99793801287584,249.9843126772257,15.288,0,10.134477095273375,0.0593965240148349,6.921182777748892e-09,-0.0006246792505731,-0.0009700702885944,3.469587007793801e-05,26.03827880092085,15.161095865806356,17.03245164747506,31.461678696550088
0.55,31.222206188801607,131.0104121517388,8.465926118282725,-15.888119405156832,-20.421555900264448,33.03880353948615,1.2448312229277805,3.867314446449888,365.2500005919907,20.495108163617783,7.904873687435075,71.98908259013623,-0.0040059067270449,119.99579814127736,257.0733174912736,15.288,0,10.172958951438428,0.0602334941163354,6.487563012891577e-09,-0.0003360367175962,-0.0013828359675147,1.892673006069024e-05,25.663931338756893,14.913482374201733,17.354786329658722,33.28765935180872
0.56,31.22220583188944,131.01041287507843,8.659291898595875,-15.60835322845882,-20.182701924643528,30.86858309406317,1.274377712110469,3.88519660083786,346.2265619465787,20.76956102829917,8.03781767658631,71.9889664054344,-0.0067765219512495,119.99288513730606,263.99952435673544,15.288,0,10.21130583338288,0.0610402224255535,5.709724027537802e-09,-4.1276382548376205e-05,-0.0018054860134145,2.35591448504684e-06,25.313087731820875,14.679359809757743,17.66442742898653,31.138211467831105
0.57,31.22220546806963,131.0104136099667,8.855521109696076,-15.329947064192528,-19.94169977091453,30.527283460943863,1.3048804695532434,3.903610538711247,343.1828296833023,21.05168214310712,8.173288300012437,71.9890205773939,-0.0102997670284381,119.98918072847192,271.21514285131525,15.288,0,10.24949896835752,0.0618694927292028,4.580752825206159e-09,0.000259512842803,-0.0022379951443727,-1.50130196111765e-05,24.961314652874727,14.445697407863426,17.982107942162997,30.80350505677196
0.58,31.222205097297948,131.01041435645223,9.054629950692547,-15.042921710803524,-19.68678609794556,40.03818833083551,1.3372354435141804,3.9232095929609714,426.1250058573153,21.35407665054056,8.31555838674085,71.9892485275612,-0.0145932521817818,119.98466640149095,279.05744734583163,15.288,0,10.287536650062997,0.0627583510269177,3.093723352039825e-09,0.0005663936115969,-0.0026805377360931,-3.323634305969277e-05,24.593548877652115,14.20452371029064,18.32217355450072,40.25215891051242
0.59,31.22220471912571,131.0104151154165,9.256915738001208,-14.784396882384964,-19.4618216547492,32.54751468170033,1.3683375865818417,3.941694973245323,360.68438819711065,21.63129490072877,8.449179894695785,71.98965391021994,-0.0196758034271997,119.97932236760356,286.34435319457214,15.288,0,10.325475926225554,0.0635732239196342,1.241223980049538e-09,0.0008800883173268,-0.0031341727274774,-5.231357837338548e-05,24.26587043335779,13.98552651854693,18.632686893312076,32.81386930809072
0.6,31.22220433375527,131.0104158863977,9.462222299965775,-14.504992414330207,-19.208387580708447,28.978349373773003,1.4024708054688535,3.9622144419364393,329.4859594986058,21.94508376376328,8.595106423226236,71.99024039276028,-0.0255665774163551,119.97312849239891,294.70636165556243,15.288,0,10.363279276382052,0.0644955820588713,-9.841793120824783e-10,0.0012002775359657,-0.0035985751284867,-7.237957235480445e-05,23.903595488871524,13.749192756329776,18.984039741877236,29.281577827578424
0.61,31.222203941113182,131.01041666950314,9.670585629974177,-14.22941852468468,-18.9557286138918,33.87219298858558,1.4375820380301711,3.9832433097544007,372.0984511843297,22.265224715453726,8.743054065459658,71.99101170342954,-0.0322852708787725,119.96606407677515,303.36152656634255,15.288,0,10.400951675528272,0.065436615264389,-3.590070405992244e-09,0.001527093924961,-0.0040740213658853,-9.342889979818232e-05,23.54409228216036,13.515294375298424,19.34168746137057,34.13588034952016
0.62,31.22220354129774,131.0104174644852,9.881921914338172,-14.00349383264519,-18.759907149923748,41.998131900240175,1.4690659973832585,4.001459457006927,442.86563930529206,22.526837600055288,8.871186780482201,71.99197158596097,-0.0398521055739228,119.95810787504053,310.5260069253,15.288,0,10.438491668521207,0.0662056430349383,-6.584162965812383e-09,0.001860474740539,-0.0045605224783968,-0.0001151605142122,23.258252552379652,13.321088812517656,19.632408832052285,42.21389481913164
0.63,31.22220313409502,131.0104182717444,10.096366354311568,-13.7706471993842,-18.552746627455846,24.018701427436653,1.502278958621429,4.020750009180973,286.11251274707894,22.80606238356157,9.005216863427929,71.99312368083459,-0.0482866923226799,119.94923927993425,318.26523009701395,15.288,0,10.475872115563726,0.0670264377445593,-9.973744508541168e-09,0.0022006878924018,-0.0050585508708799,-0.0001379048080999,22.959433124061167,13.120907219299836,19.94246442655804,24.399206769200365
0.64,31.222202720098263,131.01041909001378,10.313491116067896,-13.523743859742616,-18.32515970387969,23.585988463063792,1.5381480862149643,4.041755617364991,282.30782441796754,23.115208914289333,9.14920230312475,71.99447150194742,-0.0576089016377141,119.93943742143388,326.9453541283235,15.288,0,10.513107417536787,0.0679351779475845,-1.3766158055751745e-08,0.0025467887777284,-0.0055669059083886,-0.0001617529991262,22.63627890650444,12.908832752464392,20.28552488052505,23.979168871864733
0.65,31.222202299267416,131.0104199193364,10.53331085659488,-13.31267310880295,-18.13915698523043,41.32756208869088,1.5712201482772363,4.060589351420885,436.7781447787475,23.378736673031167,9.277846283147476,71.99601840187165,-0.0678382413730191,119.92868181536356,334.43554989345125,15.288,0,10.550098302989444,0.0687098516236244,-1.7968420267280274e-08,0.0028989121499509,-0.0060858610626536,-0.0001862123658652,22.366812392918074,12.725721872849324,20.57680306102293,41.55628119586526
0.66,31.22220187105298,131.01042076081035,10.756196520376037,-13.099689671862574,-17.948119912704364,35.217938727791534,1.605566100350429,4.080156638149706,383.51251517160017,23.65280192970874,9.409991060556964,71.99776785393557,-0.0789945470112843,119.91695162959807,342.31525390511786,15.288,0,10.586972472746831,0.0695155012148486,-2.2587501587439253e-08,0.0032579055597623,-0.0066166974742618,-0.0002117211356342,22.092251020380377,12.540763569784234,20.879400569072796,35.489839798580526
0.67,31.222201435628342,131.01042161403635,10.98201341771791,-12.87510677791076,-17.739678681476754,24.383180599493883,1.6424529340908576,4.101331997700116,289.1562440103425,23.95414681844131,9.551179993966132,71.9997234214943,-0.0910990668429243,119.90422456048516,351.0856338923375,15.288,0,10.623725753393645,0.070401332129974,-2.7630985830549282e-08,0.0036234907169748,-0.0071591318595384,-0.0002384742939585,21.79715283081489,12.34592644296162,21.21191226141152,24.780195155478445
0.68,31.22220099314952,131.0104224786518,11.210639320867482,-12.660453966284951,-17.541094303462458,30.333860282688487,1.6793181579684968,4.122304640444513,340.8999924858462,24.24781726014368,9.689751831769415,72.00188872760798,-0.1041731368352273,119.89047820850672,359.73890703429254,15.288,0,10.660227414316791,0.0712646145298253,-3.3106376252046505e-08,0.0039954594980699,-0.0077129714005879,-0.0002661727305535,21.51561419761037,12.15898813911144,21.535309443838287,30.658711399437177
0.69,31.222200543680056,131.0104233544868,11.442017169083352,-12.46639560778542,-17.36631409228763,37.25000369325221,1.7146687060494832,4.142049549173802,401.0140726853634,24.514193404677968,9.819214651530752,72.00426722349535,-0.1182379090739764,119.87569037529876,367.6780273029704,15.288,0,10.696585221868029,0.0720476851592971,-3.902094624687403e-08,0.0043737072304232,-0.0082781670898036,-0.0002945654755956,21.264912426961786,11.988888195411173,21.82787597789012,37.51878780539984
0.7,31.222200087058628,131.01042424183956,11.676248013908952,-12.275594947217536,-17.193391432527612,31.305630097099904,1.7506447341760776,4.1620603185094325,349.27032420985284,24.781926870509583,9.94910566841159,72.00686225420189,-0.133314435605134,119.8598389727196,375.7446747687332,15.288,0,10.73280813647988,0.0728347514255408,-4.5381717141948416e-08,0.0047584936351291,-0.0088551918877207,-0.0003239733769192,21.01758164175106,11.82131180663612,22.12154608491393,31.629574433695065
0.71,31.22219962332224,131.01042514059705,11.913294111883973,-12.07863995947938,-17.01016593534997,25.795440185371927,1.7885612201796772,4.18323009747271,301.33126406340574,25.068064985132526,10.08505488411374,72.00967722545633,-0.1494244079996294,119.84290124495712,384.46289328412576,15.288,0,10.768781721064355,0.0736759160941691,-5.21959219882537e-08,0.0051497442490214,-0.0094440452217443,-0.0003546511285173,20.75849261581651,11.6484195836507,22.435192597912227,26.193569814819686
0.72,31.2221991524538,131.01042605075835,12.15315559182598,-11.874101953909278,-16.814502740903034,31.490338204964303,1.8288320332642736,4.205825898091208,350.79220534145287,25.377108172015223,10.228507014534308,72.0127155395626,-0.1665900871304555,119.82485384584012,393.9916924320895,15.288,0,10.804607345888591,0.0745844066166153,-5.94708879559783e-08,0.0055475158310446,-0.0100449141088724,-0.0003867457507513,20.48509887141916,11.468942019298126,22.773641227478205,31.82255486842599
0.73,31.222198674430288,131.01042697233373,12.395836402033051,-11.701106777452251,-16.658052948518733,39.72810376277173,1.8655635837840827,4.225836596834753,422.320318528234,25.63311660154688,10.354443550621836,72.01598084201662,-0.1848346771946104,119.80567243472235,401.9717271125645,15.288,0,10.840296589266291,0.0753370326102233,-6.721421371202667e-08,0.0059519089244728,-0.0106580471805224,-0.000419114261019,20.261203215174525,11.31579037241712,23.053183734137686,39.99575291220115
0.74,31.22219818916769,131.01042790546433,12.641384754355505,-11.522594672109443,-16.4922250358361,25.0145036399437,1.90419621178042,4.246966356055076,294.48281347105944,25.90653351849823,10.486094316577088,72.01947635686321,-0.2041807301257823,119.78533337473036,410.58308281807047,15.288,0,10.875792225417564,0.0761408297584323,-7.543302667923348e-08,0.0063630013964884,-0.0112836711916147,-0.0004528306676564,20.02664850738588,11.157889519637044,23.35156643522399,25.443822016261223
0.75,31.222197697025223,131.01042884936933,12.88953764144764,-11.34189604520488,-16.321347289709305,29.13570713219009,1.944322211083096,4.268923587574881,330.24688556441487,26.19159615032128,10.62152481240676,72.0232054370223,-0.2246511701856407,119.76381263369802,419.6584990625421,15.288,0,10.911064660006444,0.0769788611603271,-8.413472050904849e-08,0.0067801672458494,-0.011920980112558,-0.0004878165504809,19.786802038241717,10.998020727390612,23.66237750288408,29.510905230944992
0.76,31.222197197869395,131.01042980429392,13.14037855080474,-11.1738061554412,-16.16533567487507,31.330189429311886,1.9834796927856408,4.290056589277563,349.27032420986166,26.457296419059368,10.75057110997321,72.02717126680675,-0.2462689124812636,119.74108620051736,428.20581052034447,15.288,0,10.94617552699117,0.0777599921679142,-9.332623430052697e-08,0.0072036776878332,-0.012570475894443,-0.0005235322418657,19.566122028349547,10.848731422052536,23.951605780142447,31.684689471532824
0.77,31.222196691622976,131.01043077036735,13.39395187076152,-11.01098046465316,-16.014510578780705,29.316244275817848,2.0228056117348374,4.311132931261506,331.7687666960708,26.71800500375373,10.877962563172352,72.03137701055022,-0.2690572896511583,119.7171296324084,436.6757835319751,15.288,0,10.981128525709105,0.0785264590402912,-1.0301456494184516e-07,0.0076336706658092,-0.0132324730394495,-0.0005602354261388,19.352640981384063,10.703851508372018,24.23507786144683,29.700501479491827
0.78,31.222196178337136,131.01043174745257,13.650212085578316,-10.843210905159172,-15.855032951309244,24.143045440561824,2.0641179403086687,4.333352926866046,286.8734378128899,26.99610282243585,11.0110062411455,72.0358258770216,-0.2930399270435855,119.69191818008144,445.80251477524354,15.288,0,11.015866263735036,0.0793440412684285,-1.1320678905720861e-07,0.0080700221419644,-0.0139069008567493,-0.000598409161057,19.12939243806452,10.554708133090848,24.53726378362674,24.61554739601205
0.79,31.222195658087568,131.01043273536095,13.909096379389174,-10.674092886812728,-15.691714284934584,34.14709215410927,2.106882968099588,4.356349324425895,373.6203323159534,27.28444840922361,11.147343202890225,72.04052091638772,-0.3182408858801255,119.6654266529088,455.3652928365044,15.288,0,11.0503945222328,0.0801917498236575,-1.239100266064853e-07,0.0085126044952146,-0.0145936801078085,-0.0006379538619861,18.902292510149355,10.404344962361703,24.850297380651927,34.48826811915792
0.8,31.222195130626577,131.0104337345795,14.170770048750295,-10.52265446559851,-15.550923961887744,34.589038857708935,2.147388709557505,4.377684517222858,377.42502064505743,27.53805670371952,11.27233909333362,72.04546534450105,-0.3446850819985444,119.6376289636288,463.85819716677537,15.288,0,11.08477647911024,0.0809373691697747,-1.3513126745068657e-07,0.0089619300662008,-0.0152936915630294,-0.0006778530637233,18.70345102537772,10.26908577396616,25.1252040770416,34.931032179172234
0.81,31.22219459604596,131.01043474488787,14.435159658108388,-10.36459631795828,-15.399134067605168,22.651410557673486,2.190329475630993,4.4004397943510005,273.9374926939919,27.81375807179948,11.404491232084652,72.05066231979534,-0.3723975056621698,119.60849895160204,473.1806479628734,15.288,0,11.11899439819948,0.0817479295824367,-1.468777500423595e-07,0.0094177669213013,-0.0160067084740341,-0.0007194445162206,18.49198351109344,10.128131629343462,25.423884151278244,23.178606814211413
0.82,31.22219405452728,131.01043576587787,14.702128336489052,-10.20555212865876,-15.244095450788471,28.974293915424408,2.2347011180365834,4.423943103273157,328.72500443277005,28.09885014547058,11.539638690688404,72.05611482615508,-0.4014033641852766,119.57801024300468,482.91821965357616,15.288,0,11.153032780922892,0.0825860977131501,-1.591567151619924e-07,0.0098797809186226,-0.016732341484403,-0.0007624553635672,18.27734471409813,9.986302268085469,25.732464053130293,29.395150442978718
0.83,31.222193506038003,131.01043679758973,14.971690721145936,-10.06604876290798,-15.1149049840882,36.70589229078957,2.2759709400374875,4.44525601354115,395.68750322465047,28.340289351995644,11.66060173590098,72.0618258111872,-0.4317282672208904,119.54613604992132,491.2401008114292,15.288,0,11.186852980493867,0.083295971611213,-1.71975124248806e-07,0.0103480854828589,-0.017470876987761,-0.0008054370556092,18.094734475691368,9.861359908688772,25.99348842201678,37.04406664513042
0.84,31.22219295045429,131.01043784025913,15.243927489383248,-9.9253980256109,-14.98253600125618,22.824383159624325,2.318501050223141,4.467213538472875,275.4593748256452,28.589733544700568,11.7841399166485,72.06779813391456,-0.4633975609661214,119.51284986444514,499.9126343346832,15.288,0,11.2204893779132,0.0840293801801365,-1.8533958139428373e-07,0.0108228584275787,-0.0182227109118877,-0.0008497830209438,17.90892878622513,9.735484418841262,26.26301201186508,23.372717226192243
0.85,31.222192388070965,131.01043889324248,15.518622499234471,-9.773581544154633,-14.83256022908248,24.844785971879503,2.3647590372271243,4.491384905602849,292.96093233939376,28.87501921381732,11.919208400263424,72.07403448714534,-0.496436746429201,119.47812502948725,509.9258213307101,15.288,0,11.253933484312892,0.0848681392386845,-1.992571640842569e-07,0.0113034958317648,-0.0189870368109293,-0.0008963540136954,17.702546469203156,9.59996394770045,26.571062898464024,25.357997035707
0.86,31.22219181869312,131.01043995692507,15.79590701015454,-9.634131167420474,-14.69866228897552,30.99845008642301,2.4092693550167263,4.5142528044275965,346.2265619465587,29.13285086080041,12.045366894813936,72.08053766956779,-0.5308723909421335,119.4419337762414,519.059144214146,15.288,0,11.287208324448242,0.0856262141394213,-2.1373441905210585e-07,0.0117904457552115,-0.0197646631835715,-0.000943292002028,17.51622666206344,9.475226792159052,26.84923260938193,31.41794017703522
0.87,31.22219124233376,131.0104410312568,16.07576540238659,-9.501437281059683,-14.573012196541375,28.88789725587711,2.453190343362808,4.536568687697579,327.964078366998,29.37700870821721,12.167085519235949,72.08731035801618,-0.5667311308141878,119.4042482732482,527.7817231407851,15.288,0,11.320312188437663,0.0863441066324971,-2.287780947465476e-07,0.0122836701472304,-0.020555657347302,-0.000990961968675,17.34045157783806,9.356453945150683,27.11248708140576,29.34466231165523
0.88,31.222190659018715,131.01044211616235,16.35817350056825,-9.364331911526524,-14.439438131301271,25.01653977328264,2.4993327198461537,4.560114331603639,294.4828134710418,29.63912739415236,12.294542498802056,72.0943551213062,-0.6040397532851953,119.365040540795,537.2275186648723,15.288,0,11.353237117060065,0.087114796342003,-2.443948962998368e-07,0.0127830513183461,-0.0213599638514957,-0.0010404217833491,17.155769728881907,9.233921646045124,27.394918638215422,25.55129290251323
0.89,31.22219006882153,131.01044321146543,16.643073138610095,-9.223164908831224,-14.298322599014517,27.390693320638324,2.547759385488688,4.584912601742655,315.028134248087,29.9193574337261,12.427754755883864,72.10167447848804,-0.6428255042695931,119.32428212780896,547.4192497458939,15.288,0,11.3859796102485,0.0879387261742824,-2.605915463829573e-07,0.0132884657636651,-0.0221775156245235,-0.001091753798529,16.96268002951099,9.10791484176268,27.696621641798234,27.88839511404744
0.9,31.22218947165293,131.0104443173339,16.930522387643286,-9.099601028918496,-14.18169024247392,30.20586372041443,2.592504830078583,4.607208429144468,339.37814235421445,30.151728800834345,12.545566297796627,72.10927099457267,-0.6831165937588977,119.2819435814026,555.9400834567381,15.288,0,11.418511563658482,0.0886219975903451,-2.773746060557505e-07,0.0138001287029731,-0.0230087781630505,-0.0011425651500503,16.79947470771083,8.997458338268514,27.946750652672023,30.66499068807635
0.91,31.222188867576843,131.01044543361536,17.220471203705785,-8.971697874117764,-14.057252522166891,23.07294206300388,2.639517894880688,4.630745187152857,277.7421810230789,30.402173844481627,12.669126968945088,72.11714695338495,-0.7249405756170949,119.23799614950528,565.198152987477,15.288,0,11.450867864170208,0.08935839830381,-2.9475058666329564e-07,0.0143178567599406,-0.023853597119667,-0.0011952429094635,16.627493382777196,8.883329295942868,28.216151804017542,23.680614669988373
0.92,31.22218825679183,131.01044655987025,17.512772607203534,-8.839821635762524,-13.925436890146688,27.38520012051927,2.688843839270587,4.655533332424558,315.02813424806214,30.67067481710553,12.798393006003904,72.12530453508698,-0.7683254531231933,119.19241062201915,575.2093394091464,15.288,0,11.483033171677556,0.0901478765849709,-3.127263161476944e-07,0.0148412005731439,-0.0247113862053286,-0.0012498379248676,16.447281917069404,8.76583163542945,28.504744036379773,27.907938968010306
0.93,31.2221876391958,131.01044769629883,17.807495819581447,-8.723429273410131,-13.81551482373782,32.492261838512874,2.734601364783534,4.6779185114740525,359.1625070654728,30.893865228091894,12.9131294763126,72.13374596669162,-0.8132996769597731,119.14515732358387,583.594873557842,15.288,0,11.51502405815388,0.0908041843845434,-3.313077191237968e-07,0.0153704391225434,-0.0255827198245456,-0.0013037897506008,16.29367456142366,8.662148213195126,28.744697473379222,32.940978212657065
0.94,31.222187014669323,131.0104488431435,18.104724268325263,-8.596571124718553,-13.688451034393516,23.67894913756375,2.78468932562052,4.702796342275543,283.0687504837787,31.15640913213683,13.040367567382493,72.14247316804313,-0.8598915249907774,119.09620678036688,593.5391518821375,15.288,0,11.54684013757226,0.0915761685022043,-3.5050062098345485e-07,0.0159057132850377,-0.026467965963291,-0.0013606210640464,16.120211927993076,8.549389189644112,29.02662835516293,24.301510659555227
0.95,31.22218638350046,131.01044999977313,18.404246375828727,-8.473245376353713,-13.56536710905338,30.550194860169057,2.834825388181715,4.727505949982056,342.4218736174873,31.412384000361843,13.165429641226003,72.15148816039243,-0.9081304611918086,119.04552828231344,603.3146592117105,15.288,0,11.578468600920472,0.0923288521499504,-3.703120304688339e-07,0.0164464586250986,-0.0273663452812014,-0.0014183958229043,15.952008531409266,8.439924685944833,29.30139295494522,31.043517092670015
0.96,31.222185745383097,131.01045116683088,18.70628110849996,-8.358175380164806,-13.453611700240236,29.930532413685835,2.883342050672044,4.751030531550949,337.09533515678345,31.64436155762209,13.28280106839814,72.16079281634627,-0.9580460605380478,118.99309101671533,612.2406478961607,15.288,0,11.60993429848152,0.0930110091868433,-3.907470912607237e-07,0.0169933340184737,-0.0282790678688895,-0.0014763403262732,15.797730998640976,8.337986205796058,29.55043929692017,30.442120869932854
0.97,31.22218510033173,131.01045234427505,19.01081608630872,-8.241543870139378,-13.338200731581344,19.25642351271064,2.93347207512218,4.775350733156747,245.02188719299323,31.886234276670848,13.40325954336078,72.1703889906679,-1.009668720075024,118.93886332057008,621.617520511308,15.288,0,11.641234150113547,0.0937222580718321,-4.118120704022186e-07,0.0175462772076169,-0.0292061817859882,-0.0015359853278758,15.63961343688237,8.234878663416666,29.80994748741016,20.055400258809534
0.98,31.222184448633023,131.0104535314781,19.31764103030574,-8.115656823364958,-13.207092966280152,27.8955246598602,2.988107893131685,4.802207482669852,319.5937466429581,32.16724476353237,13.536033984289,72.18027838721248,-1.063028987111228,118.882813386822,632.6036750298948,15.288,0,11.672346952202142,0.0945485511588542,-4.335140845612849e-07,0.0181046002087875,-0.0301467013470837,-0.0015987805373305,15.463471848823096,8.123727563057834,30.111002225093145,28.463138996542085
0.99,31.222183790130668,131.01045472876538,19.62686764697824,-8.009803956071686,-13.105959356048547,30.45024289601155,3.036558881251536,4.825114506297858,341.6609485517054,32.378356225608286,13.646594022636588,72.19046269414248,-1.11815830972569,118.8249084772186,640.9153579615489,15.288,0,11.70329639956672,0.0951693990046736,-4.558585025088981e-07,0.0186687496638128,-0.0311015036426664,-0.0016593697954094,15.3231459145976,8.030706313049516,30.33758273717971,30.979343315575548
1.0,31.22218312482053,131.01045593614117,19.93849923693245,-7.89499372943385,-12.989598909937216,27.269051654701023,3.0894475163093764,4.850505776515172,314.2672081822764,32.62758930457801,13.769142170477576,72.2009432329553,-1.1750871690857596,118.76511688378412,650.8007729383396,15.288,0,11.734073141886052,0.0959023046890202,-4.788510984302487e-07,0.0192385973728118,-0.0320705329563531,-0.0017231319916455,15.165345131663027,7.929936228258155,30.604621774067063,27.86885843357761
1.01,31.222182452879505,131.01045715321428,20.252405480018563,-7.783493344753112,-12.877235482828912,28.500115233820047,3.1421888878891915,4.875602678126845,324.9203161036979,32.86858717967322,13.88899597029064,72.21172138820118,-1.233847423754916,118.7034054667522,660.4304150546644,15.288,0,11.764672841408998,0.0966110121808717,-5.024983178079292e-07,0.0198137814315351,-0.0330533330293458,-0.0017877033900836,15.012701311828414,7.832400090477178,30.8628218860866,29.084384484172144
1.02,31.222181774228176,131.01045838015227,20.568644912130736,-7.676124221876495,-12.770266725448376,23.81467553810584,3.19435890209781,4.900154084836007,284.59063161540416,33.097308663668926,14.004894389513789,72.22279830710121,-1.2944707078921711,118.63974133789624,669.6334832855691,15.288,0,11.795103040289534,0.0972836429920147,-5.268053684486257e-07,0.0203944569047317,-0.0340503158211081,-0.0018528433054142,14.8668250771134,7.738869031127723,31.1079268804821,24.522524540426158
1.03,31.22218108893307,131.0104596168079,20.887169771214488,-7.563383874372307,-12.653516388072402,19.479753983902647,3.249902800697716,4.926509168375532,247.30469339049705,33.352421151503364,14.129004267405026,72.23417495586392,-1.35698875399353,118.5740915213704,679.9754710187117,15.288,0,11.825358245058652,0.0980338530645094,-5.517779614202515e-07,0.0209804166220329,-0.0350612890984428,-0.0019207111399281,14.709933081481216,7.640800925647478,31.3809289537152,20.354193083329097
1.04,31.22218039705253,131.01046086304933,21.20793741311093,-7.458561175246402,-12.548333166367048,30.86989820975633,3.303212134401128,4.951323465052094,345.46563688072297,33.578969018726745,14.24402910355166,72.24585231609488,-1.4214345198944165,118.50642177081257,689.2231392344521,15.288,0,11.855442815251896,0.0987001098116378,-5.774217916237243e-07,0.0215715634436735,-0.0360862405487473,-0.0019881821997291,14.567000644165498,7.550196877654549,31.623600995653693,31.438470540742713
1.05,31.222179698305982,131.01046211949213,21.531158018501948,-7.349768087762771,-12.435558696012004,18.66803566924072,3.35941964329632,4.977641878301617,240.45625879819983,33.82671927781051,14.365620642018872,72.2578311441158,-1.4878408773108196,118.43669794735489,699.409311375698,15.288,0,11.88537338986278,0.099428695464529,-6.037408621189277e-07,0.0221685037999622,-0.0371263718872875,-0.0020582114032273,14.415629925658832,7.456343298287237,31.88864645702065,19.61015488863948
1.06,31.222178992925564,131.01046338562605,21.856661129346755,-7.237964758124779,-12.316642451732951,26.5272157595065,3.418296907053392,5.0053088759845,308.17968365593924,34.09278278129224,14.492827678924636,72.27011225332237,-1.5562422461111147,118.364884303102,710.4327540419995,15.288,0,11.91513726060629,0.1002111183152341,-6.307419882681487e-07,0.0227706617305031,-0.0381808635573034,-0.0021306800679852,14.25754213509444,7.360096794877421,32.17295520276317,27.21086265887559
1.07,31.222178280796943,131.01046466170152,22.18453354428276,-7.137833680747155,-12.215712762657418,31.20686111401006,3.4728589152702285,5.030219315154297,348.5093681440308,34.31121159048845,14.605016943714135,72.28269639578531,-1.6266739823576657,118.29094412535277,719.5425888176266,15.288,0,11.944751605898816,0.1008535333638654,-6.584300175070452e-07,0.0233783778015198,-0.0392504686736851,-0.0022014908757399,14.120806960578136,7.274833339568398,32.406876080025945,31.79987477951818
1.08,31.22217756182426,131.01046594793604,22.51485092342641,-7.036799037643644,-12.112226739573384,21.02885535478094,3.5289500806768968,5.055810097868978,261.00157857466235,34.53736411264906,14.719531063987002,72.29558402894268,-1.6991710653468803,118.21484111502242,729.0360355818061,15.288,0,11.974218340561372,0.1015186589448391,-6.868098805534593e-07,0.0239917887231388,-0.0403356074778595,-0.0022740735218796,13.981488315073335,7.189159390760661,32.648919186611415,21.914092770405134
1.09,31.22217683627652,131.0104672437382,22.847415476415183,-6.926398209017027,-11.99200149312133,19.33845007832837,3.591007024847636,5.08464666415235,246.54375332474407,34.81211854451653,14.849076127140991,72.30877547742406,-1.7737690587696182,118.13653837746917,740.6578869700853,15.288,0,12.003520064876774,0.1023266524062798,-7.158885833583552e-07,0.0246101677511862,-0.0414351926322128,-0.0023511689564329,13.823162509646233,7.095329060520997,32.94214229249888,20.31562488784874
1.1,31.2221761042281,131.01046854894503,23.18217433353944,-6.82286343051022,-11.88204803833887,38.71010642836166,3.650864823656608,5.11196421512212,413.1890617385841,35.05942162163824,14.969915029018445,72.32227092469513,-1.850504105214376,118.05599842936456,751.1942833558206,15.288,0,12.032662546630489,0.1030539637406611,-7.456715123696871e-07,0.025233392907606,-0.0425491796334467,-0.0024277571619288,13.677157590322294,7.008195297135142,33.20634332941557,39.21649310930784
1.11,31.222175365295488,131.01046986442006,23.51942170611421,-6.731302373116412,-11.791217373789646,28.34737517890201,3.7054050961376097,5.13598183882376,324.1593910376397,35.25164323349839,15.073523707577865,72.33607045037627,-1.9294131906834848,117.97318292184907,759.4294657671559,15.288,0,12.061673677244295,0.1036193759397683,-7.761612889050704e-07,0.0258624325967956,-0.0436794622347203,-0.0025018399096687,13.55364088406594,6.932538770726248,33.41252920628594,29.046204845188292
1.12,31.2221746195456,131.0104711900289,23.859114485238027,-6.621083598377745,-11.667648005380372,10.71822227198246,3.771526737543069,5.166437057297118,172.73281794065943,35.5415729564831,15.207355176086544,72.35017383329907,-2.010532996634768,117.88805384469129,771.9476146634378,15.288,0,12.090540811597997,0.1044720015705406,-8.073636598016308e-07,0.0264969776923773,-0.0448257018122016,-0.0025842206475687,13.392705486946944,6.840177664559879,33.72146384204557,12.481857813267865
1.13,31.222173867542946,131.01047252450448,24.20082644363697,-6.522850910894715,-11.56334116277186,33.37890620766141,3.832188443708649,5.193503126085459,367.5328077900705,35.7756007687636,15.32366965909892,72.36458105986814,-2.0939030388262205,117.80057023265368,782.1213781109149,15.288,0,12.119244791613951,0.1051603156963963,-8.39287754909622e-07,0.0271356701710298,-0.045985652678087,-0.0026638504522734,13.25438450735391,6.759353946063461,33.97154059216865,33.997198746493964
1.14,31.22217310866496,131.01047386926652,24.545040083651458,-6.433088242642911,-11.47258607121652,18.48761685211204,3.888946114364316,5.218104540155311,239.69531773195544,35.968484858471626,15.427143974828423,72.37929145804385,-2.179560424979808,117.7106936692862,790.5515861536953,15.288,0,12.147823771058928,0.1057276980506423,-8.719334090499315e-07,0.0277800844596123,-0.0471623363015706,-0.0027417237812057,13.13201509727462,6.686934724108308,34.17839337617079,19.59960442822548
1.15,31.222172343380187,131.01047522327275,24.891405304569705,-6.325130562170517,-11.349281827810568,18.209357083888072,3.958047917015928,5.249488245575353,237.41251153546767,36.26335177053481,15.561977037623532,72.39430415344364,-2.267542635814906,117.6183853656876,803.5397451752733,15.288,0,12.17624305792306,0.1065948623577067,-9.053091049744746e-07,0.0284288318266017,-0.0483534592436847,-0.0028286583859494,12.97260299289669,6.598142204578282,34.49224601947427,19.359854223686
1.16,31.22217157182068,131.01047658622866,25.239824803557937,-6.239127692969654,-11.263121904542094,47.62525278641946,4.014609739639813,5.273499589213041,490.0437743845894,36.442285893199376,15.660864304051378,72.40961843736093,-2.357889907777259,117.52360366287633,811.4619569556515,15.288,0,12.204514792708764,0.1071212541911362,-9.394200064034992e-07,0.0290817293024431,-0.0495588670093028,-0.0029078021114958,12.856186149292752,6.530386051028508,34.684451462244425,48.08421354508562
1.17,31.222170793182244,131.0104779599972,25.590931288763723,-6.144153017649185,-11.160305405050774,8.431728444045712,4.07801978551388,5.301144172785514,153.70937929486794,36.67414598521676,15.77596479099174,72.42523297526806,-2.4506402858290803,117.4263092233248,821.7927656523034,15.288,0,12.232654320920588,0.1078032287058527,-9.742638619870505e-07,0.0297407934949405,-0.0507824705470406,-0.0029925190425773,12.721007324063969,6.454898391445183,34.93215370701353,10.76226832344511
1.18,31.22217000854562,131.01047934211968,25.94389543593694,-6.037307520770544,-11.035396646452623,23.13706798697032,4.150832582321554,5.333806016555644,280.02501822196746,36.979703019706506,15.913504442896205,72.44114648356013,-2.5458339433204182,117.32646049571044,835.5153021250005,15.288,0,12.26060034988936,0.1087018430754642,-1.009854765299793e-06,0.0304029752341236,-0.0520188850931751,-0.0030845310169825,12.560927606593175,6.368847615719338,35.256964451706814,24.103999933255768
1.19,31.22216921743485,131.0104807337023,26.299093957293884,-5.959690629908947,-10.9613989635039,40.4227064093311,4.2046425563671725,5.355544011848702,428.4078130529292,37.11755139228608,15.99939265183803,72.45735758270956,-2.6435123509994685,117.22401459163991,841.727253358344,15.288,0,12.28842197695015,0.1091074857541874,-1.0461916327823723e-06,0.0310698182942483,-0.0532711490723201,-0.0031638278933828,12.45935326612431,6.311013644989869,35.40622285740197,40.99214637152634
1.2,31.2221684194558,131.01048213569453,26.65685065771221,-5.86047882476783,-10.847856751786248,4.1238868855995445,4.274892524408518,5.386223398531617,117.1843741360236,37.38753734415723,16.1256716198117,72.47386415621523,-2.74371408074278,117.11893168494063,853.9875642076947,15.288,0,12.31612264486402,0.109901556409639,-1.0832753509171427e-06,0.0317421209248119,-0.0545410032218523,-0.0032556873742846,12.3129833206854,6.23349032855165,35.6937219334488,8.018263629948395
1.21,31.222167615675207,131.01048354563468,27.016335120555446,-5.763502036238563,-10.73719592973572,32.41812690434664,4.344987075460102,5.416525028177211,359.92343213200894,37.64964061070798,16.249285194618775,72.49066441943587,-2.846481895683996,117.0111675740294,865.9732952442291,15.288,0,12.343655783934423,0.1106724642021927,-1.121120339927942e-06,0.0324169118106335,-0.0558230996085517,-0.00334809190545,12.170263041553854,6.158738573319133,35.97290029039516,33.15347052803234
1.22,31.222166805301143,131.01048496539437,27.37818321241645,-5.686089487422828,-10.661090563674378,23.44057858315268,4.401283468697887,5.438909259904407,283.0687504825761,37.79184915553111,16.336133168493387,72.50775600668455,-2.95185676562928,116.90067996277872,872.497153173551,15.288,0,12.3710777304039,0.1110909449656292,-1.1597210757475976e-06,0.0330965653006143,-0.057122118298022,-0.0034310801934743,12.06715478368096,6.1034411380770885,36.12685561337522,24.46249689672465
1.23,31.222165988670923,131.01048639422328,27.74214364027939,-5.5892813606186,-10.548661116173212,9.041324309935652,4.473817040862814,5.4700025598956605,159.79687382222795,38.06130606435565,16.461618961432034,72.52513598851057,-3.059877904717725,116.78742841652044,884.9524241751678,15.288,0,12.398356625929235,0.1118834859850591,-1.199085062682768e-06,0.0337798358147464,-0.058435959408193,-0.0035267594405054,11.923100381771333,6.030370950804147,36.41367125105368,11.475256519913312
