Time,Latitude,Longitude,Altitude,Angle of Attack,Angle of Sideslip,X-Acceleration,Y-Acceleration,Z-Acceleration,Thrust,True Velocity,Ground Velocity,Pitch,Roll,Yaw,Dynamic Pressure,cp,parachute_deploy_gain,Wind Speed,Mach,omega_x,omega_y,omega_z,Cmq,Angle of Attack(total),Angle of Attack(gust),True Velocity(gust),Acceleration
0.0,31.222186000000004,131.010384,3.000000003643237,0.0,0.0,0.0,0.0,0.0,2.2828121974499247,0.0,0.0,69.99999999623421,0.0,113.69999999388332,0.0,15.288,0.0,0.0,0.0,0.0,0.0,0.0,-0.0,0.0,90.0,0.0,0.0
0.01,31.22218600000153,131.01038399999584,2.99999882256592,0.0,0.0,0.0,0.0,0.0,34.24218696174923,7.502283530665459e-11,7.190531319924593e-11,69.99999999623329,-4.83564628150269e-13,113.69999999388072,3.446445726795683e-21,15.288,0.0,0.0,2.204725565824978e-13,-3.659182332138578e-19,7.589415207398531e-19,4.811147140404426e-19,-1.5108918610345807e-31,0.0,89.9999999995224,7.502283530665459e-11,0.0
0.02,31.22218600000288,131.01038399999217,2.999997775701936,0.0,0.0,0.0,0.0,0.0,25.871876237766408,1.5320717031631675e-10,1.4674636035870463e-10,69.99999999623222,-9.67129256300373e-13,113.69999999387804,1.4372842949972735e-20,15.288,0.0,0.0,4.5023593667086093e-13,-7.284483346386986e-19,1.5178830414797062e-18,9.757819552369542e-19,-6.170906918166791e-31,0.0,89.99999999902465,1.5320717031631675e-10,0.0
0.03,31.22218599928065,131.01038400193067,3.000201659671132,18.81500467334555,-0.00012974450181,11.96616230539064,-1.8916256735984712e-05,3.349833086198469,180.34219359854663,0.0882870268161719,0.0553390044312322,69.99999999799445,-4.212591857125379e-12,113.69999999488518,0.0047728553458352,15.288,0.0,0.0,0.0002594525584132,3.2187251995663407e-17,-7.20264389268894e-10,1.2365134327422308e-11,1.6874092354518158e-13,18.815004673776716,89.46786891739345,0.0882666465974854,12.426199017587786
0.04,31.22218599548236,131.0103840121632,3.001799604587872,9.46752327608497,-4.6177622759613696e-05,55.21900012092241,3.931876292165237e-06,3.349616504302861,548.6359724538078,0.3767519978512604,0.1853356633749705,70.00000000507204,-2.4624598767003407e-11,113.70000000019972,0.086915163246288,15.288,0.0,0.0,0.0011071759353184,1.6174128009138757e-15,-1.3693172015529268e-08,2.7753303060112748e-11,1.3689612277852356e-11,9.467523276196548,87.63554493451223,0.3767447442872393,55.32050167054111
0.05,31.222185984749512,131.01038404118162,3.00777936418888,5.376730308971262,-2.257790939128127e-06,80.28807156553681,5.266841443842784e-05,3.348887800834877,761.6984298824644,1.018787885905993,0.4366201147110198,70.00000000894464,-1.1355399380652658e-10,113.70000001523856,0.635552918586145,15.288,0.0,0.0,0.0029939522895272,1.6418815498809788e-14,-9.32122351075408e-08,4.303264669380585e-11,2.5199270302492604e-10,5.3767303089717045,83.57022052969386,1.0187875312530217,80.35788377762394
0.06,31.22218596447235,131.01038409608267,3.0201664202003013,4.296730121134882,2.4863835723705905e-05,60.21296515808257,0.0001057204249726,3.347700952379021,590.4875390737208,1.721098934225416,0.7081674028809783,69.99999995523842,-3.0560354507026086e-10,113.70000004366592,1.8138247671743823,15.288,0.0,0.0,0.0050578622752421,8.328976953118383e-14,-3.2824985336199985e-07,5.923438275930214e-11,1.4991363363716091e-09,4.296730121206683,79.20467073327266,1.7211028398275985,60.305955550063224
0.07,31.22218593493329,131.01038417609837,3.038741944736831,3.8204913578752526,4.8016684030909405e-05,91.4060317508128,0.0001597686613101,3.346072557365335,855.2937749779139,2.4375792548422868,0.9844712334613328,69.99999973536046,-5.939103491363046e-10,113.7000000850886,3.6383156301599167,15.288,0.0,0.0,0.007163413150771,2.709313825263564e-13,-7.906546256197275e-07,7.920022733617308e-11,5.114174483651565e-09,3.820491358176508,74.87999294483174,2.437586797285377,91.46725557277466
0.08,31.222185894468456,131.01038428575305,3.0647976109320942,3.588632851766762,7.220043782492885e-05,19.18449428359557,0.0002119618497595,3.3440615022685813,241.2171988638848,3.1292508166901074,1.2522236515868983,69.99999919480445,-9.914748373602156e-10,113.7000001418522,5.996012698481753,15.288,0.0,0.0,0.0091960591623389,6.80386533246681e-13,-1.5973238302190878e-06,1.0839624626357699e-10,1.3263625118823921e-08,3.58863285249208,70.86684630658345,3.1292621579083604,19.473766155861934
0.09,31.22218584634549,131.01038441616095,3.0957981580345013,3.551302481506045,9.685468678862004e-05,57.102946699906326,0.0002554087225869,3.341892818148368,563.0937377043176,3.701810007254615,1.479132491047967,69.99999812344194,-1.4359264356978275e-09,113.7000002093888,8.390904013834115,15.288,0.0,0.0,0.010878666406854,1.440096519545733e-12,-2.748643691533636e-06,1.5214952332699618e-10,2.6999776649034504e-08,3.5513024828250237,67.68737872952666,3.701825221153239,57.20065357568538
0.1,31.222185790329306,131.01038456796124,3.1319266121977414,3.608446747536112,0.0001234669721807,54.26147302645416,0.0002914860332524,3.3396271157106168,538.7437595981919,4.174070299823608,1.6716491241860567,69.9999963052332,-1.902380107712657e-09,113.70000028805804,10.668380938744466,15.288,0.0,0.0,0.0122665227999911,2.687800116751415e-12,-4.315796035622946e-06,2.1749089204950437e-10,4.7802076800548326e-08,3.608446749645647,65.17160335282355,4.174089693970246,54.36414778470795
0.11,31.222185727066616,131.0103847393952,3.172681775073216,3.633547373470009,0.0001485939126744,42.987553988990406,0.0003293995000288,3.337005588796181,442.8656393052949,4.672024955140527,1.8729475711242067,69.99999349387662,-2.3433348587116544e-09,113.70000037699285,13.365573690709628,15.288,0.0,0.0,0.0137298902182575,4.5789425819531184e-12,-6.340230783164189e-06,3.1157625832417107e-10,7.860218435507205e-08,3.6335473765043056,62.62546922225161,4.672048296217748,43.116880735560244
0.12,31.22218565692512,131.0103849294629,3.2177790417108385,3.650108937861461,0.0001727442530266,46.86777100765684,0.000367618259785,3.334068179146888,475.58594813540446,5.17479364099247,2.0758708919414386,69.99998941286465,-2.702771525550512e-09,113.70000047573096,16.396890189902592,15.288,0.0,0.0,0.0152074069417046,7.288473386564583e-12,-8.86736416607888e-06,4.42271554299792e-10,1.217615295152289e-07,3.6501089419435786,60.16906436414164,5.174820775596283,46.986210423745625
0.13,31.222185580265183,131.0103851371844,3.2669395832841857,3.7280113734654137,0.0001995014041665,51.64515456841877,0.0003986198234033,3.3311573548369657,515.9156326236895,5.579364582999854,2.2451120211463422,69.99998375846928,-2.9114380666036422e-09,113.70000058383452,19.060875702782603,15.288,0.0,0.0,0.0163963474924215,1.100846422415094e-11,-1.1941028436408576e-05,6.179653149059831e-10,1.7678562106638216e-07,3.728011378795934,58.279338776943774,5.579395920607139,51.75247433579817
0.14,31.22218549718016,131.01038536230575,3.320091807147376,3.768719651034081,0.0002242721760019,48.1660778383537,0.0004326225136175,3.32784677779744,486.2390860568404,6.025734265159953,2.428648685938864,69.99997621008868,-2.890941335368725e-09,113.70000070125378,22.232643351545065,15.288,0.0,0.0,0.0177081261985351,1.5941871344608664e-11,-1.560901486259027e-05,8.477542742712431e-10,2.495765160917323e-07,3.7687196576976176,56.27980129251342,6.025769493750979,48.280903250602165
0.15,31.22218540777004,131.01038560455507,3.377159065217065,3.821894709649632,0.000249725644238,46.56959330999435,0.0004643042952466,3.324387732286376,472.54218587214,6.441023336496372,2.6014999612196745,69.99996641132823,-2.546763407193136e-09,113.70000082794672,25.402620271850456,15.288,0.0,0.0,0.0189285691155931,2.2314099732464315e-11,-1.992367942778425e-05,1.1417519574710292e-09,3.4051816697623295e-07,3.821894717796148,54.501255563441134,6.441062563308839,46.68809885900716
0.16,31.22218531193176,131.01038586421257,3.4382223512025254,3.8463320955387794,0.0002733212404609,36.974247749122085,0.0004987816203583,3.3205066466509234,391.1218908297564,6.895451966878468,2.7877331692857847,69.99995397923414,-1.77088415515292e-09,113.70000096417354,29.113317717489338,15.288,0.0,0.0,0.0202640360420561,3.0367358387834494e-11,-2.4945905791363795e-05,1.5114297685186711e-09,4.5643121540033697e-07,3.846332105235269,52.641145594326446,6.895494900078523,37.12304892183151
0.17,31.222185210004127,131.010386140357,3.503019838429153,3.8860314262554336,0.000297865039677,46.520531453299206,0.0005306403365217,3.31650761597812,471.78125980632376,7.314788342774694,2.9619016331667103,69.99993849340957,-4.3039914767238207e-10,113.70000110959404,32.761746921137856,15.288,0.0,0.0,0.0214963781445172,4.0366633128431416e-11,-3.0713078585132897e-05,1.96747427715988e-09,5.961228045584824e-07,3.886031437653654,51.00464968745696,7.314835131305714,46.63860064094784
0.18,31.22218510147516,131.01038643438045,3.571950002194137,3.9107265153396016,0.0003214293682635,38.895647526122765,0.0005639254295027,3.312149448254175,407.10156721191447,7.754626295791602,3.1430587898572058,69.9999195084231,1.6149322372810674e-09,113.70000126508234,36.81988229018681,15.288,0.0,0.0,0.0227889722876034,5.2593391349219385e-11,-3.731786027786564e-05,2.525509173087448e-09,7.6786585232224e-07,3.9107265285284982,49.36615848311875,7.754676785798701,39.036415444581515
0.19,31.222184986476247,131.0103867459258,3.644912152926752,3.920599115663931,0.0003437679584038,43.86258669386953,0.0005989384366483,3.307389681300437,448.9531328318269,8.219206165926856,3.332657190859447,69.99989653019398,4.538529095696477e-09,113.70000143063515,41.36350714675367,15.288,0.0,0.0,0.02415428010977,6.735860419174937e-11,-4.481243905342629e-05,3.199401151670645e-09,9.773118416308382e-07,3.92059913071168,47.71893898797248,8.21926016487149,43.987104227715655
0.2,31.222184864792144,131.01038707557822,3.722074668489528,3.943376465171875,0.000367328732016,40.28070981710589,0.0006315894240138,3.30251450988504,418.51563019916136,8.65238089736321,3.511445117640573,69.99986902534273,8.534090245934178e-09,113.7000016067622,45.83799876721736,15.288,0.0,0.0,0.025427299120469,8.499785987217288e-11,-5.328041996372527e-05,4.006766070954748e-09,1.2232205148646746e-06,3.9433764822533854,46.2587826635041,8.652438597225508,40.41586552155969
0.21,31.22218473678744,131.01038742234647,3.803156063113743,3.9664546506877016,0.000390962054969,38.67679184347145,0.0006636984664108,3.297405915846789,404.8187610144644,9.079179692250786,3.688002035198235,69.99983642883521,1.3827831253856693e-08,113.70000179318536,50.47126980736161,15.288,0.0,0.0,0.0266815841422463,1.0586558589671407e-10,-6.275155280099118e-05,4.961340042512481e-09,1.5117124669161171e-06,3.9664546699249135,44.88773728276958,9.079241104426773,38.817098210937615
0.22,31.2221846022986,131.01038778667507,3.8882846911135607,3.956175711337521,0.0004112685792646,46.713636108302936,0.0007011135033803,3.291572407481395,472.5421858721365,9.580256326712124,3.889976788904857,69.99979815126248,2.0662823443484168e-08,113.70000199039316,56.195522894218605,15.288,0.0,0.0,0.0281541581291438,1.3033127211465288e-10,-7.330053770532661e-05,6.0817207473359025e-09,1.8632831045819008e-06,3.956175732680424,43.35679625546934,9.580320928629488,46.8294591882524
0.23,31.222184460898035,131.01038816972698,3.977794004014759,3.9879066397329104,0.0004360962274406,38.89105719050748,0.0007308686121188,3.286096544282012,406.3406421461021,9.977039034039262,4.056142701351626,69.99975353557706,2.9316661139418326e-08,113.70000219928508,60.9462612310605,15.288,0.0,0.0,0.0293202403623685,1.5880617816859538e-10,-8.505067486192354e-05,7.393319440773217e-09,2.2514912291167663e-06,3.987906663538912,42.20670487756048,9.97710753587448,39.0296395118868
0.24,31.222184313516166,131.01038856897196,4.070963590490852,4.003523997322975,0.000459165577055,40.0792299321398,0.0007630441688766,3.280134925833028,416.2328240017114,10.408422364424831,4.234121060914368,69.99970190737699,4.010976417051318e-08,113.70000241888,66.32994780718496,15.288,0.0,0.0,0.030588009649109,1.91711512587616e-10,-9.795845222523724e-05,8.904557280909524e-09,2.7052895870113487e-06,4.003524023611085,41.011349410369874,10.408494489985014,40.21323112692186
0.25,31.22218416001652,131.01038898478134,4.167901030441617,4.0261356185860135,0.0004830526730531,41.17760020658354,0.0007934613160587,3.2740610008587527,425.36408079150686,10.816813039390448,4.4041629376391525,69.99964258149416,5.3372865854010094e-08,113.70000264972064,71.63651430352668,15.288,0.0,0.0,0.0317882126436337,2.2947426169209347e-10,-0.0001121037688082,1.0637152702866709e-08,3.217380562698304e-06,4.026135647516394,39.93186687113378,10.816888917126896,41.30755663120434
0.26,31.222184000702686,131.0103894163294,4.26837241014618,4.053359329950934,0.000507503069958,44.80261175215926,0.0008224724146494,3.2678597736729302,455.8015834241788,11.207047269494833,4.567925492611352,69.99957484039399,6.947299261165984e-08,113.70000289176392,76.89781807056055,15.288,0.0,0.0,0.0329350617559806,2.7254099134167665e-10,-0.0001275114371842,1.260720913253598e-08,3.7915697709142366e-06,4.053359361668992,38.945390435244384,11.207126987890645,44.921630958721536
0.27,31.22218383516388,131.01038986473338,4.372698316214008,4.0614460923241,0.0005296455772492,41.029837477288126,0.0008548809954683,3.2610328932384265,423.84219965987256,11.645685385842508,4.748226940060522,69.99949794024376,8.879821051920497e-08,113.70000314600205,83.0342688744587,15.288,0.0,0.0,0.0342241635563461,3.2137296827284217e-10,-0.0001442952656441,1.4842505534226832e-08,4.458527942364847e-06,4.061446126801262,37.8838346421185,11.645768582375233,41.15922617924542
0.28,31.222183663504484,131.01039032970942,4.48079961904222,4.081133040992532,0.0005533279247169,47.27661484082626,0.0008845140695959,3.254218495915602,476.3468732012221,12.047344998676092,4.915789434712848,69.99941106884992,1.1178948978424788e-07,113.70000341275257,88.85982357848233,15.288,0.0,0.0,0.0354045979054623,3.764736350660473e-10,-0.0001625146963723,1.7365685655384934e-08,5.194620655212288e-06,4.081133078439725,36.956255322213885,12.047431915223257,47.38848224631549
0.29,31.22218348566054,131.0103908114315,4.592727908358551,4.1001100265020245,0.0005770279952742,37.989969791857405,0.0009138463939581,3.247164755122801,397.97031042211177,12.446314684600782,5.082367374004485,69.99931338876085,1.3891902435864665e-07,113.70000369260468,94.8417675268915,15.288,0.0,0.0,0.0365771315767517,4.3836067907166327e-10,-0.0001822432988888,2.0202163500922312e-08,6.018074062137429e-06,4.100110067036654,36.07377590258778,12.446405323946324,38.12849176886316
0.3,31.222183301933686,131.01039130907952,4.708251093558373,4.112858061667493,0.0005998635114143,35.655053282557844,0.000944131403186,3.2397207148238625,378.1859457108711,12.860033399289696,5.253940723820665,69.99920403105713,1.707002607527005e-07,113.7000039856728,101.2505662360602,15.288,0.0,0.0,0.03779301412572,5.075709863465428e-10,-0.0002035013069687,2.3370674033523645e-08,6.94335970778e-06,4.112858105337573,35.19685285507256,12.860127625629724,35.80193592228613
0.31,31.222183112488807,131.0103918222051,4.827243246502713,4.136140889545823,0.0006242383343011,37.56633644061071,0.0009716215464757,3.232339252743767,394.1656220930212,13.2364445751808,5.4126574282679245,69.99908210036875,2.0768081583188525e-07,113.7000042923011,107.26326115439352,15.288,0.0,0.0,0.0388992619788015,5.846561731689753e-10,-0.0002263323252403,2.6893437641668458e-08,7.948283231812338e-06,4.1361409365698805,34.43286455705216,13.236542630309057,37.70514091683033
0.32,31.22218291741533,131.01039235056504,4.949637017503345,4.1622282001352975,0.0006491019906456,40.83513712643371,0.0009979686925508,3.224840963348891,421.55939346242695,13.59846554462374,5.566374262777002,69.99894668612772,2.504388718903276e-07,113.70000461297312,113.2095365840355,15.288,0.0,0.0,0.0399632243410653,6.701756367872645e-10,-0.00025078340164,3.0793566854276295e-08,9.047716714467492e-06,4.16222825066026,33.72644865222576,13.598567505326,40.96227562489027
0.33,31.222182716732533,131.01039289410716,5.075419569102976,4.187801887681037,0.0006739743721461,40.48743503284469,0.0010239291638211,3.217136801802925,418.5156301991682,13.956637761217308,5.718704299733134,69.99879684673242,2.995902922462564e-07,113.70000494831164,119.25032483364384,15.288,0.0,0.0,0.0410158804634189,7.647061680070125e-10,-0.0002769136723495,3.509664608790402e-08,1.0253455741189656e-05,4.187801941818244,33.053267359159875,13.956743628864118,40.61505097607
0.34,31.222182510255863,131.01039345333336,5.204736257784645,4.19642921746386,0.0006961879027693,31.814592723444047,0.0010535137542081,3.208669900766693,345.46563688075645,14.367047160772364,5.88887983533068,69.99863160305904,3.557915789971256e-07,113.70000529927128,126.36523219087664,15.288,0.0,0.0,0.042222056531773,8.688448410811866e-10,-0.0003048202762282,3.9835373705550826e-08,1.1618525957862828e-05,4.196429275109305,32.30947868183619,14.367156517712404,31.97598901989736
0.35,31.222182298183583,131.0103940277045,5.337435501771672,4.210915783240843,0.0007193441544952,34.813487415034444,0.0010813034848195,3.200164272309822,370.5765700527033,14.754132934586384,6.050986755458457,69.99844991734221,4.1975736284587617e-07,113.70000566632532,133.26448209504355,15.288,0.0,0.0,0.0433596939127697,9.832256819293898e-10,-0.0003345386312107,4.503361101379695e-08,1.309465610343774e-05,4.210915844572415,31.63649055965014,14.75424592890194,34.96026256388454
0.36,31.222182080444604,131.0103946174141,5.4735747500461605,4.22903876037745,0.0007431682866607,39.2632255716727,0.0011077666085529,3.1915717453569297,407.8625232777193,15.124417129017054,6.2072589919251575,69.99825073022951,4.922382611919288e-07,113.70000605036684,140.03566173682628,15.288,0.0,0.0,0.0444479595865755,1.1084921261805627e-09,-0.0003661511460057,5.0723697896912267e-08,1.4691545926915382e-05,4.229038825557203,31.017264542603208,15.124533865618538,39.39272792946638
0.37,31.22218185710795,131.01039522227452,5.613102797925907,4.249164960780052,0.0007674149135003,37.28328237034959,0.001133274451316,3.1828514669894137,391.1218908297666,15.483077353331511,6.359470679857624,69.99803294268581,5.740349991123437e-07,113.70000645214331,146.75405277514704,15.288,0.0,0.0,0.0455020695186381,1.245311285088233e-09,-0.0003997125883071,5.6934243389647934e-08,1.641828325195534e-05,4.2491650299519,30.439178816713017,15.483197898584232,37.418894813348615
0.38,31.2221816281124,131.0103958424523,5.756069531572451,4.260095806433531,0.0007900626414612,38.9278000801764,0.0011607546399008,3.1735466295306622,404.8187610144602,15.87126705947922,6.521735074464384,69.99779542676283,6.659911329739736e-07,113.70000687263192,154.20298254405043,15.288,0.0,0.0,0.0466429667223463,1.3943646956867835e-09,-0.0004353006984059,6.369875435270817e-08,1.8328108041903096e-05,4.260095879559656,29.83470194713067,15.87139116222873,39.05694584372078
0.39,31.22218139339905,131.0103964781077,5.9025231349944285,4.274091258047817,0.0008133283308351,33.320076729592266,0.0011870382950339,3.164143363712209,357.64062493382744,16.24457853509073,6.678818328235205,69.9975369905506,7.690136753559805e-07,113.70000731287368,161.54010621938565,15.288,0.0,0.0,0.0477401448128051,1.5563705124515804e-09,-0.0004730068442167,7.105463478762673e-08,2.0383860516746246e-05,4.274091335289374,29.274934656826048,16.244706292406182,33.46997636540994
0.4,31.22218115316572,131.01039712870306,6.0523126585892895,4.286421841403391,0.0008363022448449,31.88018820767003,0.0012133780841982,3.1544430614236454,345.465636880754,16.62063299903514,6.836764518435374,69.99725641601981,8.840594270905819e-07,113.70000777359816,169.10340080049767,15.288,0.0,0.0,0.0488453895716005,1.7320643186450851e-09,-0.0005128553637434,7.9027539265021e-08,2.2612406375611563e-05,4.286421922834417,28.730746964325096,16.620764365084565,32.03586915718869
0.41,31.22218090752676,131.01039779392735,6.205351877049411,4.30025870409831,0.0008595777771371,35.882550741685804,0.0012389121673015,3.1445895889870297,378.94687077668647,16.987310563534386,6.99141560549392,69.9969524610574,1.0121301778427253e-06,113.70000825570062,176.64448930727934,15.288,0.0,0.0,0.0499230826371405,1.922193031274436e-09,-0.0005548883906878,8.764667734700782e-08,2.5005077415911235e-05,4.300258789847355,28.21875643368965,16.987445585695873,36.020076248499606
0.42,31.222180656535848,131.0103984736348,6.36160173428776,4.322008670726048,0.0008844838439129,40.34064925656127,0.001261804338223,3.134918999355981,416.2328240017114,17.318628721060172,7.133856886815013,69.99662385300175,1.154276942054023e-06,113.70000876021427,183.59942989625057,15.288,0.0,0.0,0.0508968652507098,2.1275184665783874e-09,-0.0005991661829955,9.694534598491077e-08,2.752657757470936e-05,4.322008761057615,27.772396468009568,17.318767655457478,40.462275036947325
0.43,31.222180400205527,131.0103991677914,6.521055075967404,4.339436441324956,0.0009085827200945,35.541853595187746,0.0012854696362701,3.124839917627212,375.9031395134336,17.662848429084132,7.280642039343927,69.99626930133451,1.3115939750280808e-06,113.70000928827632,190.96736675963504,15.288,0.0,0.0,0.0519085689713619,2.3488101247838237e-09,-0.0006457514522491,1.0695800287133593e-07,3.0255957891170616e-05,4.339436536261635,27.322335771349252,17.662991148924057,35.67895714766603
0.44,31.22218013836212,131.0103998768696,6.683849332059896,4.342209064313268,0.0009296474314902,32.82948243168077,0.0013129688908547,3.113754688841357,353.0750125389216,18.063580761318697,7.446730341918701,69.99588746395321,1.4852372182848018e-06,113.7000098413532,199.7278270846888,15.288,0.0,0.0,0.0530863610987301,2.586862292117705e-09,-0.0006947575786514,1.1773083546077225e-07,3.329010177793299e-05,4.342209163639375,26.81344244367223,18.06372678999575,32.9768158972058
0.45,31.22217987077456,131.0104006014978,6.850166573233225,4.3420317510315165,0.0009500780330031,38.11022602597878,0.001341042003417,3.1022288449712887,397.2093853562869,18.47486275310604,7.616350301328129,69.99547690348253,1.6764536248320808e-06,113.70001042108892,208.92306716049887,15.288,0.0,0.0,0.0542951637545535,2.842521175226318e-09,-0.0007463379956615,1.2932090054593452e-07,3.657529369088674e-05,4.342031854775571,26.30944884471334,18.47501199101448,38.23628058998621
0.46,31.22217959739673,131.01040134180155,7.020045503401754,4.351169003849846,0.0009725797783515,44.3937050866137,0.0013660055515545,3.09098240974522,449.7140588976434,18.844323061800488,7.771531995684422,69.99503610583268,1.8865779683531e-06,113.70001102895836,217.3591612614144,15.288,0.0,0.0,0.0553810645782081,3.1166808800591503e-09,-0.000800596194505,1.417768495237597e-07,4.001824400409673e-05,4.351169112337076,25.873596578896564,18.844475834274814,44.50118229261506
0.47,31.22217931813738,131.01040209802923,7.193559875579052,4.358630093683735,0.0009947969928181,30.22514089990685,0.0013910994973101,3.079396422776949,331.0078106302534,19.2180591098146,7.9280875671397615,69.99456352718363,2.1170044481277104e-06,113.70001166656292,226.0625808853568,15.288,0.0,0.0,0.0564795377574197,3.4102493884459798e-09,-0.0008576351980594,1.551487523304888e-07,4.3718862242359527e-05,4.35863020698899,25.44665981168229,19.218215372160817,30.381603425148434
0.48,31.22217903348153,131.01040286886197,7.370336324605091,4.365514409145237,0.001016880998596,29.779838936311712,0.001416009414045,3.067527859335786,327.2031223011574,19.5915905767454,8.084483592791102,69.99405758812365,2.369198154608765e-06,113.70001233476164,234.93171707892955,15.288,0.0,0.0,0.057577416115756,3.7241711041759195e-09,-0.0009173883913609,1.6944871263079066e-07,4.767297940601472e-05,4.365514527349481,25.03354780044292,19.59175030803913,29.937410312943754
0.49,31.22217874361868,131.01040365378466,7.5502307795521535,4.3786401372577615,0.0010404145545081,37.2489281064929,0.0014385799934191,3.0558405437943126,389.60000969812296,19.93403005898306,8.23012235628909,69.99351671352461,2.644660619562788e-06,113.700013034871,243.21198709852868,15.288,0.0,0.0,0.0585839249886784,4.059374595909599e-09,-0.0009798792959512,1.8470833984680338e-07,5.180951737438081e-05,4.378640260624215,24.667474291142685,19.934193486919103,37.37406598941686
0.5,31.22217844858332,131.0104044527036,7.733219389747018,22.88723625010001,-0.0046452650166354,39.02498959024746,0.0012194292982483,1.2167238384107253,397.97031042210494,25.17317906809261,8.366023506705158,69.99293932307316,2.9449363413826395e-06,113.70001376847225,387.84951967193047,15.288,0.0,8.768049422645161,0.0739813612273706,4.416605232284705e-09,-0.0010607533276333,3.84562001333629e-05,7.082501800553268e-05,22.887236696164248,29.82791688953948,25.1724493915709,39.043952552282505
0.51,31.222178148911684,131.01040526465837,7.919324309340813,22.66339590993088,-0.0027379017345117,30.12059826161093,0.0010543557773639,1.1642107160324076,323.3984349720841,25.52267988075728,8.496162962741733,69.9922030600256,6.340261011344757e-05,113.7000785297228,398.6868519386711,15.288,0.0,8.802856449746729,0.0750086653252643,4.892824616679755e-09,-0.001564455725696,3.838567465629712e-05,0.0001059048904327,22.6633960665936,29.509001054940303,25.522249812158677,30.143089213621586
0.52,31.222177844666376,131.0104060889767,8.108608517634053,22.43801702166436,-0.0026790389006033,35.96363622102853,0.0010741139308234,1.1099905246161177,372.0984511843415,25.880722638359416,8.629487443886076,69.99117489460872,0.0001237488263995,113.7001431787674,409.9437508245616,15.288,0.0,8.837564662011497,0.0760610804601861,5.5529211193420724e-09,-0.0020811571727292,3.8318946560844464e-05,0.0001428564488202,22.43801717333844,29.187563684395343,25.88030181591313,35.980761670049915
0.53,31.22217753573048,131.01040692602055,8.301185657207958,22.220494296154644,-0.0026216968771267,37.71087935789921,0.0010936340453406,1.0553304067235605,386.5562464348624,26.235531372714163,8.76116196293967,69.9898471786238,0.0001839807594812,113.70020771276764,421.2531605613352,15.288,0.0,8.87217803805691,0.0771039984348338,6.401083667522381e-09,-0.0026114246337384,3.8251641287722005e-05,0.0001817096124016,22.22049444298299,28.876857045234644,26.235119557531853,37.72564307482935
0.54,31.22217722201865,131.01040777602267,8.497134463407,22.00907943203621,-0.0025656381716078,33.26231667161786,0.0011129896772915,1.0000637347494756,349.2703242098436,26.588650587008864,8.891754330500163,69.98821205773136,0.0002440947778025,113.7002721279638,432.66111478786905,15.288,0.0,8.906720836150221,0.0781419585466883,7.441593828234454e-09,-0.0031557034832477,3.818375298971414e-05,0.0002225332216426,22.009079574148124,28.57475537744748,26.588247577507413,33.27734723614992
0.55,31.22217690381888,131.0104086382008,8.696243964083619,21.808237132763185,-0.0025113530578349,35.19179178064564,0.0011319092256467,0.944764692991018,365.2500005919907,26.93441560572906,9.019210646193358,69.9862616045488,0.0003040872215355,113.700336420035,443.97864594981456,15.288,0.0,8.941151855174063,0.0791583126184982,8.678766096454043e-09,-0.0037135546717116,3.811538139243812e-05,0.000265272020484,21.808237270310745,28.28667620875041,26.934021123313336,35.20447116970597
0.56,31.22217658114467,131.01040951251892,8.898515766622257,21.62098616049147,-0.0024591256626467,32.92751715752418,0.0011501795348198,0.8899034200970186,346.2265619465787,27.268453997767534,9.141935450470369,69.98398797143304,0.0003639544460481,113.70040058506376,455.0504676640688,15.288,0.0,8.975469704881554,0.0801402103246245,1.01168087843433e-08,-0.0042852045234966,3.804654689416866e-05,0.0003098972352245,21.620986293637447,28.01628152867078,27.26806771921185,32.93954030612848
0.57,31.22217625407994,131.01041039874957,9.103896683249934,21.43072125448637,-0.0024071315720526,32.57727674498908,0.0011687398187471,0.8335084555631392,343.1828296833023,27.610137379012784,9.26708023639471,69.98138328254575,0.0004236927906338,113.7004646190138,466.5166015310192,15.288,0.0,9.009658672649476,0.081144583535004,1.1759918052705898e-08,-0.0048706618696837,3.797729566505193e-05,0.000356642926429,21.430721383308786,27.74347435777716,27.609759267669745,32.58793791928318
0.58,31.222175922615484,131.0104112969185,9.312405704159543,21.226947222169983,-0.0023542672179219,42.53812826659565,0.0011882413458476,0.7741275129642654,426.1250058573153,27.972973930284503,9.3995996149753,69.97843953305569,0.0004833062423294,113.70052852891942,478.8489660138411,15.288,0.0,9.043715953947665,0.0822111323781946,1.3612307089364548e-08,-0.0054701705829278,3.7907647365740944e-05,0.0004057961114121,21.2269473466966,27.455506823829708,27.972604122854783,42.54517165605974
0.59,31.222175586367687,131.01041220806962,9.524352561119532,21.0485962722296,-0.0023046181627261,34.70560575556377,0.0012063198487695,0.7168145725447119,360.68438819711065,28.308209458914927,9.521547523105813,69.97514835844983,0.0005427755586981,113.70059228921698,490.3850648438003,15.288,0.0,9.077680966680264,0.0831965712885623,1.567837181796713e-08,-0.0060850158432276,3.783750749466767e-05,0.0004568079418599,21.048596392668827,27.199541957078218,28.30784745034056,34.71300758285345
0.6,31.22217524555766,131.01041313160243,9.739578056777772,20.84367820231583,-0.0022527336771618,30.97704769962239,0.0012261718224016,0.6546166116434222,329.4859594986058,28.682039864849934,9.657240489923,69.97150111807397,0.0006021123691716,113.70065591760476,503.4119594203241,15.288,0.0,9.111531903046318,0.0842954469324906,1.7962650516233032e-08,-0.0067148589616011,3.7766966314013965e-05,0.0005107371948438,20.843678318632524,26.91252050141738,28.68168600627149,30.98396373281536
0.61,31.22217490015033,131.0104140676131,9.958121686353063,20.638174762441736,-0.0022013577132836,36.10601190730774,0.0012462289609829,0.5908647311829849,372.0984511843297,29.06204162783768,9.794761739755693,69.96748911112932,0.0006612969899967,113.70071938742905,516.8286562318161,15.288,0.0,9.145274038154774,0.0854124685429591,2.046971133880723e-08,-0.0073600647525804,3.7696036320237006e-05,0.0005672169474675,20.638174874722896,26.62590991194573,29.061695839376767,36.110846272751495
0.62,31.22217455027061,131.01041501576276,10.179899063989168,20.482556765951145,-0.002155579876477,44.61826151328119,0.0012631622928927,0.5330215898776791,442.86563930529206,29.378982701652628,9.908797579480522,69.96310328122334,0.0007203412603905,113.70078271687524,528.1516037220897,15.288,0.0,9.17890936786789,0.0863441648811607,2.320425178136112e-08,-0.008020680468112,3.7624766005405113e-05,0.0006248563136495,20.48255687450396,26.401011385556306,29.378644103957495,44.62144522624076
0.63,31.22217419575031,131.01041597650936,10.405052148539264,20.315702529481285,-0.0021091245090032,25.80735966601488,0.0012808824869964,0.4724242722990557,286.11251274707894,29.714244088553155,10.02914742056378,69.95833493264799,0.0007792330938868,113.70084589032572,540.2628177192532,15.288,0.0,9.212402882642747,0.0873297123278538,2.6170704898888607e-08,-0.0086973136105561,3.7553144338850846e-05,0.0006852872015734,20.31570263433616,26.16363367745749,29.71391278805008,25.81168338688449
0.64,31.222173837172853,131.01041694826733,10.633140716684649,20.129318186405605,-0.0020612452094798,25.361476385961392,0.0013000184292158,0.4075503551046263,282.30782441796754,30.080897546688192,10.16060603657279,69.9531752240203,0.0008379687548943,113.70090890303608,553.66589832341,15.288,0.0,9.245772194068143,0.0884075287647892,2.9373720523944563e-08,-0.0093885798128317,3.7481371305788974e-05,0.0007488657791411,20.129318287563358,25.90358911590605,30.08057376704789,25.364750806141803
0.65,31.22217347453065,131.01041793105796,10.864182002670164,19.979567969958527,-0.0020174677260849,43.938629412442864,0.001316715678405,0.3472338202785531,436.7781447787475,30.398471093787126,10.273809190627416,69.94761546267398,0.000896543677172,113.70097174989536,565.4055158577843,15.288,0.0,9.278934756847374,0.0893411078693898,3.281766635372546e-08,-0.0100948344813331,3.7409460636057056e-05,0.0008136817967987,19.979568067654515,25.689229433010063,30.398154190697834,43.94000145315968
0.66,31.222173107339906,131.01041892619733,11.098561559219048,19.824257209195704,-0.0019735682502216,37.55123532518511,0.0013338316239269,0.2849045360936777,383.51251517160017,30.72684224667104,10.39056966936279,69.94164684041465,0.000954954288493,113.70103442790052,577.673766476984,15.288,0.0,9.311996679503425,0.0903064294890288,3.650678905712173e-08,-0.0108176483994005,3.733730405797948e-05,0.0008813424217793,19.824257303481406,25.46918035085701,30.726532239295288,37.55231613124847
0.67,31.22217273579282,131.01041993316366,11.336142231579249,19.65204080427897,-0.0019285087988254,26.21770354160076,0.0013522119215757,0.2185112136328754,289.1562440103425,31.08375867066404,10.517364823626036,69.93525995577262,0.0010132057328327,113.70109694561104,591.158492647094,15.288,0.0,9.344943531859796,0.0913556545102331,4.044584916631857e-08,-0.0115567274075062,3.726498877703843e-05,0.00095247233907,19.652040895163783,25.229602054768662,31.08345574121036,26.218614150527202
0.68,31.222172360064807,131.01042095148068,11.57679970968631,19.48781808892812,-0.0018846904196923,32.45376744539113,0.0013700845992913,0.1521908811378138,340.8999924858462,31.4320430302174,10.640673865834684,69.92844552569396,0.0010712751854776,113.70115927161692,604.4662541331697,15.288,0.0,9.377686277900349,0.0923795185224404,4.4639550554606764e-08,-0.0123118778244973,3.719259056128341e-05,0.0010260554820497,19.487818176521696,25.00083693109269,31.431746983738613,32.45412431942915
0.69,31.22217198024389,131.0104219809097,11.820476995823729,19.344438700888222,-0.0018432453033038,39.700783251474206,0.0013864585652941,0.088366173805715,401.0140726853634,31.75097564984088,10.752954959387576,69.92119416667835,0.0011291775484107,113.70122142856228,616.7807729922667,15.288,0.0,9.410310193223122,0.0933171255815541,4.9092514442178144e-08,-0.0130830782072605,3.7120167158338085e-05,0.0011013637737395,19.34443878534313,24.79845302434317,31.750686113545747,39.7008816184663
0.7,31.22217159620625,131.0104230217881,12.06728046647218,19.201805753520183,-0.0018022711932897,33.4861753856626,0.0014027809938577,0.0235926928526072,349.27032420985284,32.07095799178851,10.86528190576142,69.91349668891414,0.0011868980839074,113.70128339699704,629.2601798109254,15.288,0.0,9.4427851048425,0.0942578262967279,5.38091653279266e-08,-0.0138709380265934,3.7047715639384726e-05,0.0011794274910746,19.201805834909784,24.598000479895425,32.070674891691525,33.48618372616244
0.71,31.22217120801368,131.01042407394849,12.317173027698969,19.04881932439984,-0.0017607825411636,27.72585811673134,0.0014199096273489,-0.0442772304332199,301.33126406340574,32.41002810974285,10.984226850001871,69.90534357630867,0.0012444415776454,113.70134518515025,642.6207989978958,15.288,0.0,9.475072899279724,0.0952546354631269,5.8794131905646114e-08,-0.0146754980009964,3.6975290004836407e-05,0.0012610006651236,19.048819402758333,24.385958341141304,32.4097515266681,27.725893507665276
0.72,31.222170815677423,131.01042513736093,12.570156702484937,18.88335669842353,-0.0017186204439244,33.69466047959413,0.001438063110479,-0.1159079882991218,350.79220534145287,32.7729365536207,11.111492854283188,69.89672522277203,0.0013017879930426,113.7014067658292,657.0767887780523,15.288,0.0,9.507241224939412,0.0963215157969114,6.405207638898566e-08,-0.0154970249333012,3.690292354651289e-05,0.0013464685025079,18.88335677377905,24.159652485718457,32.772666593352696,33.694859868604574
0.73,31.222170419203888,131.01042621200867,12.826237514208591,18.7532666222814,-0.0016799670146758,42.325831664475785,0.00145343223716,-0.1817433042838567,422.320318528234,33.079391216261925,11.217921051183264,69.88763151623235,0.0013589521627875,113.7014681617674,669.4062273897894,15.288,0.0,9.5392702430719,0.0972224842863203,6.958782771526102e-08,-0.016335850902294,3.6830645418370615e-05,0.0014325873067159,18.753266694822862,23.97743244016421,33.07912732766039,42.32622188231142
0.74,31.222170018539284,131.01042729803865,13.085467074944532,18.613593426109656,-0.0016408597183198,26.931324272092464,0.0014695446589105,-0.2505771693341998,294.48281347105944,33.403873225620664,11.330582324032452,69.87805277494502,0.0014159136380104,113.70152934526064,682.586309935371,15.288,0.0,9.57111098500425,0.0981764451689446,7.540598253001229e-08,-0.0171922959738943,3.675848710738138e-05,0.0015224453921462,18.61359349587125,23.784511625192145,33.40361547997887,26.93249000976237
0.75,31.222169614046862,131.0104283944638,13.347575356182084,18.46841673285576,-0.0016016866831666,31.253247346743645,0.001486115284428,-0.3217903426387486,330.24688556441487,33.74030393939408,11.447286895587435,69.86797909713938,0.0014726751253091,113.7015903211486,696.3875041825136,15.288,0.0,9.602801750294825,0.0991655330787638,8.15114657799475e-08,-0.0180654262767148,3.668659323358772e-05,0.0016158360413888,18.468416799887247,23.58578454895477,33.74005234703826,31.254903950418612
0.76,31.22216920562533,131.0104295015602,13.612650368991268,18.336276624849585,-0.0015639868272956,33.55847894602584,0.0015015921563554,-0.3913686437405419,349.27032420986166,34.05596662339837,11.556154427369266,69.85740058823583,0.0015292426187201,113.70165109963284,709.4607218374756,15.288,0.0,9.634355519459838,0.1000935910585059,8.790878968584686e-08,-0.018955884464773,3.661496580246065e-05,0.0017113005735572,18.33627668925666,23.403861367978752,34.05572095292205,33.56076102892993
0.77,31.222168793225503,131.01043061946203,13.880739677225767,18.208101000027096,-0.0015269756744252,31.45831875434192,0.0015166888381605,-0.4610941960956785,331.7687666960708,34.366010989527865,11.662699731726407,69.84630735859244,0.0015855926948258,113.70171164872356,722.4187370345379,15.288,0.0,9.66570772410712,0.1010051452272906,9.4602528140326e-08,-0.0198640864130338,3.654362974410408e-05,0.0018095707626244,18.208101061884967,23.227715161744374,34.36577113274984,31.461697808729248
0.78,31.222168376918592,131.01043174797647,14.151797901628168,18.07103851079988,-0.0014896072947476,26.05073896288648,0.0015325173410486,-0.5339692936150507,286.8734378128899,34.694063199282425,11.775491241233762,69.83468927049165,0.0016417386273016,113.701771988803,736.2575779843552,15.288,0.0,9.696901417375049,0.1019696353414659,1.0159740337156117e-07,-0.020789981922776,3.6472651537408734e-05,0.001911946880974,18.07103857014512,23.041600856576583,34.693829212315755,26.05621089236854
0.79,31.22216795679907,131.01043288684707,14.425761783241011,17.929574037469667,-0.0014522685822806,36.53188331152527,0.0015487206971438,-0.6091386318811706,373.6203323159534,35.0325871842975,11.891801948535322,69.82253617313208,0.0016976651671635,113.70183209937608,750.6758493697088,15.288,0.0,9.727947312906366,0.1029649125149372,1.088981797699049e-07,-0.0217335137271495,3.640209814663301e-05,0.0020181678167637,17.929574094352944,22.850958749010857,35.032359062482065,36.536961430287064
0.8,31.222167532655053,131.0104340366505,14.7028037168634,17.80857781130643,-0.0014168763860782,37.00297258237063,0.0015630700621591,-0.6805730904184196,377.42502064505743,35.33424016459223,11.994449940983472,69.80983755010556,0.0017533719133088,113.70189198166828,763.63878773653,15.288,0.0,9.75886829446878,0.1038518308749887,1.1650940088919389e-07,-0.0226957878318323,3.63319416277175e-05,0.0021256148906658,17.80857786584393,22.686165231856435,35.33401760216998,37.00923076890767
0.81,31.22216710459489,131.01043519709276,14.982849395347214,17.67632912383744,-0.0013809592545074,24.51364097473681,0.0015783698799136,-0.7558398715289342,273.9374926939919,35.65881502863152,12.105141814046789,69.79658291531635,0.0018088547815638,113.70195163115775,777.7116426585734,15.288,0.0,9.789592559501523,0.10480612887802,1.2443597407307385e-07,-0.0236765744677846,3.626226690167792e-05,0.0022377814022622,17.676329176058626,22.50849570596951,35.6585981080591,24.52529082887581
0.82,31.22216667281231,131.01043636764777,15.265758972589754,17.54018825117297,-0.0013451117393299,31.14143794984436,0.0015939942641457,-0.8333449780676261,328.72500443277005,35.99295085344683,12.21904706421464,69.78276172898106,0.0018641097108271,113.7020110432239,792.3332723283181,15.288,0.0,9.820148030808884,0.1057885373895813,1.326828746045409e-07,-0.0246754348207807,3.619317420683886e-05,0.0023539777444995,17.540188301128172,22.32688950851385,35.99273956378892,31.152586152313177
0.83,31.22216623729721,131.01043754834345,15.551549070331449,17.4279795576791,-0.0013113721724618,39.24455470650643,0.001607335629473,-0.90577113852484,395.68750322465047,36.28091864401425,12.315965210910264,69.7683633344384,0.0019191326428828,113.7020702135358,805.0402916018143,15.288,0.0,9.850559000619258,0.10663526061343,1.4125481876758552e-07,-0.0256927498369155,3.6124698286141226e-05,0.0024705692307866,17.427979605485284,22.175349259983783,36.28071265415511,39.25500602535794
0.84,31.22216579794969,131.01043873945187,15.840304390244844,17.312073567320343,-0.0012776582499804,24.719920458822504,0.0016209269060583,-0.9801438478064164,275.4593748256452,36.57703964162215,12.415579935258652,69.75337723140375,0.0019739196082636,113.70212913798196,818.2125366184778,15.288,0.0,9.880827146303345,0.1075059565160264,1.5015633130863336e-07,-0.0267290495967156,3.605686452697421e-05,0.0025911239662865,17.31207361302335,22.02008939790321,36.57683894753357,24.739344212818335
0.85,31.22216535506965,131.0104399401583,16.13180309733888,17.17861033891196,-0.0012430254410016,26.843582683403845,0.001636130515308,-1.0604677273746634,292.96093233939376,36.91052476884373,12.528516153434245,69.73779290140999,0.0020284666828347,113.70218781192976,833.1770619194114,15.288,0.0,9.910928265838562,0.1084864811528691,1.5939248146405957e-07,-0.027783386589434,3.598981116957587e-05,0.0027178117073228,17.17861038252822,21.844126613600277,36.91032951486406,26.864521692344812
0.86,31.222164908489084,131.01044115091997,16.42618209381876,17.059769662296894,-0.0012097522348222,33.29495614319436,0.0016498452111651,-1.1378617468408427,346.2265619465587,37.214879286225816,12.6306672310061,69.72159945439121,0.0020827698732227,113.7022462313337,846.9500859641622,15.288,0.0,9.940834614765327,0.1093813955619135,1.6896772745535212e-07,-0.0288567829171001,3.592352798786996e-05,0.0028460086267488,17.059769703915105,21.68685866711715,37.21468925878915,33.31439383591046
0.87,31.22216445823743,131.01044237165715,16.723426538500956,16.948174143588368,-0.0011772752143631,31.09401260467448,0.0016627460273214,-1.2142071721321104,327.964078366998,37.504622892013806,12.72729207432183,69.70478602651205,0.0021368252475694,113.70230439193102,860.1650558342639,15.288,0.0,9.970585429577646,0.1102333751737993,1.7888682874216285e-07,-0.0299493594414207,3.5858074801637325e-05,0.0029766764288818,16.948174183277473,21.539228846731383,37.50443796605558,31.117710739725645
0.88,31.22216400435535,131.01044360226,17.02351269957286,16.828280394513055,-0.0011445365079302,27.049386225247545,0.0016763705649007,-1.2940486218426657,294.4828134710418,37.81295675778901,12.83043785266298,69.68734175020923,0.0021906289262247,113.70236228949577,874.3412114421016,15.288,0.0,10.000182907113484,0.1111400046353692,1.891545843615105e-07,-0.0310610895178373,3.579352250476935e-05,0.0031124622605748,16.82828043230888,21.38218841723045,37.81277697441477,27.080322372684613
0.89,31.22216354692944,131.0104448424934,17.326381746069995,16.700408789862443,-0.0011115924127373,29.543799231709183,0.0016907191639228,-1.3774875369400317,315.028134248087,38.14002228053864,12.940172466412,69.66925563455732,0.0022441770501187,113.70241991975594,889.5060886558263,15.288,0.0,10.029624376118212,0.1121017001106595,1.9977583698518425e-07,-0.0321919274518778,3.5729943342988295e-05,0.0032535842798119,16.70040882580304,21.21610545051049,38.13984767201077,29.575894708638934
0.9,31.22216308588925,131.01044609254933,17.632094803151446,16.59563267184183,-0.0010804355790087,32.50037172251295,0.0017025957735107,-1.454897922082069,339.37814235421445,38.4166663867226,13.031406572602464,69.65051636691233,0.0022974657233454,113.70247727861972,902.4302431249124,15.288,0.0,10.05892050098632,0.1129152059269194,2.1075523470848105e-07,-0.0333424757441974,3.5667366238196666e-05,0.0033942115509747,16.59563270602287,21.07905642765333,38.41649667229873,32.532920141973584
0.91,31.2221626213096,131.0104473522248,17.94060129615644,16.482660996685507,-0.0010490346367994,25.04081040367593,0.0017151895898336,-1.53586654898537,277.7421810230789,38.712017926247405,13.129228720388625,69.63111295993194,0.0023504912082741,113.70253436195472,916.3323973890762,15.288,0.0,10.088062469894586,0.1137837064787427,2.220975950323896e-07,-0.0345125894412132,3.560587236245751e-05,0.0035402332318838,16.482661029142243,20.93268588542396,38.711853144272,25.087867080941983
0.92,31.22216215339692,131.01044862095907,18.25175065399285,16.36187248699672,-0.001017453818485,29.564830911492443,0.0017284952304049,-1.6204774699379905,315.02813424806214,39.02603968462738,13.233660525146467,69.61103431200388,0.0024032498002381,113.70259116547383,931.2309606872564,15.288,0.0,10.117036508499506,0.1147070928452651,2.3380805492365214e-07,-0.0357015770399507,3.554557731615036e-05,0.0036917936906473,16.361872517766983,20.7774313535418,39.02587986335531,29.609207639574073
0.93,31.22216168206444,131.0104498989884,18.56561530021732,16.261769418510266,-0.0009874048464814,34.92149219117404,0.0017394608414094,-1.6992184801724763,359.1625070654728,39.29234584183848,13.320596206735134,69.59026922168749,0.0024557378293724,113.70264768533929,943.9549478091568,15.288,0.0,10.1458244355794,0.1154902408997567,2.458909665823437e-07,-0.0369101763043436,3.5486503700261655e-05,0.0038427004114089,16.261769447678283,20.648279809932557,39.2921907406479,34.96280828719731
0.94,31.222161207204987,131.01045118660437,18.88228214869631,16.14431457396289,-0.0009565970363988,25.70222117561409,0.0017521500917804,-1.7848338839974482,283.0687504837787,39.59963544010523,13.422238313647284,69.56880661988937,0.0025079517330239,113.7027039178526,958.74810437366,15.288,0.0,10.174457486722588,0.116393859411303,2.583507436103572e-07,-0.0381388922691432,3.54286924377942e-05,0.0040015523551257,16.144314601549414,20.498531405807665,39.599485178194136,25.76411862307113
0.95,31.22216072911284,131.01045248300755,19.201533991451385,16.030139251296873,-0.0009262746175851,32.90614816016753,0.0017643584129992,-1.8704335764554847,342.4218736174873,39.89981161400001,13.521154189069817,69.54663504554827,0.0025598879157944,113.70275985870808,973.3085011170448,15.288,0.0,10.202927728878915,0.1172765794819837,2.711927818778345e-07,-0.0393867822189147,3.537227411497007e-05,0.0041636792977973,16.030139277356554,20.353481849378102,39.89966611512333,32.95926442771122
0.96,31.222160247496223,131.01045378899116,19.52359740171428,15.926480527107216,-0.000896804555738,32.266593394429435,0.0017752496058232,-1.9533086478064368,337.09533515678345,40.1746523021385,13.610685882165289,69.52374306972237,0.0026115428596772,113.70281550450916,986.7329843787304,15.288,0.0,10.23125646777064,0.1180848413934546,2.84420930868184e-07,-0.0406553865552612,3.531722982288968e-05,0.0043272572269404,15.926480551702646,20.222035175157927,40.1745114324083,32.325662670802956
0.97,31.22215976237772,131.01045510449424,19.84846038821148,15.818648394804727,-0.0008673559935068,21.09870843374806,0.0017864399643991,-2.038667600786241,245.02188719299323,40.45963490310394,13.703740271900353,69.50011901922151,0.0026629130620267,113.70287085142634,1000.7503731016436,15.288,0.0,10.259440772570487,0.1189229230407806,2.980400341238936e-07,-0.041944806907186,3.526363119421799e-05,0.0044960289462598,15.818648417976547,20.086138279731237,40.45949865914308,21.196973046880416
0.98,31.22215927404967,131.01045642872248,20.175907027706685,15.694746703431091,-0.000837338652546,30.154019932319617,0.0017993161251751,-2.131191328571981,319.5937466429581,40.78533560788272,13.811498499345715,69.4757512472956,0.0027139951133388,113.70292589534296,1016.895355416046,15.288,0.0,10.287461997381063,0.1198806974079103,3.1205575330337825e-07,-0.0432538489348143,3.5211622092930363e-05,0.0046735197305901,15.694746725206247,19.93112826353999,40.78520407903476,30.229239120349153
0.99,31.2221587823656,131.0104577620743,20.506053178025528,15.599865000968858,-0.0008090922194619,32.838720661385445,0.0018086949044016,-2.2136281788279666,341.6609485517054,41.03771412934684,13.892416677794497,69.45062783357311,0.0027647856091095,113.70298063276556,1029.4866885638887,15.288,0.0,10.315340452954764,0.1206229651910132,3.264722364408661e-07,-0.0445836261599002,3.5161216280558625e-05,0.0048468553643261,15.59986502142974,19.812480354445725,41.03758703743821,32.91324547445878
1.0,31.222158287325268,131.0104591045505,20.83890278596868,15.489368779756624,-0.0007802966743534,29.516840081722112,0.0018196996807387,-2.3031001179029813,314.2672081822764,41.32975368103253,13.98765383086231,69.4247373356547,0.0028152813659225,113.7030350602246,1044.1578589371054,15.288,0.0,10.343067777791587,0.1214818190974092,3.412942111104259e-07,-0.0459341196102583,3.511249300913236e-05,0.0050290486804201,15.489368798929698,19.675269249019404,41.32963111231754,29.60655538684547
1.01,31.222157789112018,131.01046045565317,21.17432226393621,15.382276455973788,-0.0007519316523989,30.81538769576792,0.0018301315184384,-2.3922232633763274,324.9203161036979,41.612974162937775,14.079572953300396,69.39806785569726,0.0028654791701608,113.70308917395413,1058.483395979184,15.288,0.0,10.370639976087876,0.122314760743027,3.565269205171688e-07,-0.0473047812004785,3.5065558736957435e-05,0.0052144370516386,15.38227647390844,19.54288817055494,41.61285604979002,30.908103376488587
1.02,31.22215728765004,131.01046181558843,21.51237240539371,15.28000137419476,-0.0007240420290674,25.91835071196624,0.0018397983926634,-2.48030660398984,284.59063161540416,41.88316130490684,14.166626684227518,69.37060768122677,0.0029153759495021,113.7031429707014,1072.238368395993,15.288,0.0,10.39806334852524,0.1231094027623164,3.72174688844288e-07,-0.0486961598285331,3.502046315814255e-05,0.0054024866385393,15.280001390940477,19.41708514222469,41.88304757265088,26.036759165901096
1.03,31.22215678300864,131.0104631841682,21.853004469162983,15.167442290149124,-0.0006959308750457,21.38812737817849,0.0018505155136482,-2.573706603235377,247.30469339049705,42.18072877488116,14.26359122262092,69.34234516090623,0.0029649687468566,113.70319644712649,1087.4927835206563,15.288,0.0,10.425332900969392,0.1239845352190874,3.882423643359577e-07,-0.0501080513948945,3.497729535025514e-05,0.0055984385665681,15.167442305740185,19.279228425192603,42.18061945831494,21.54242237653726
1.04,31.22215627525061,131.010464561222,22.196175042708823,15.065883775413926,-0.0006685656260339,33.325593271799704,0.0018597019419688,-2.6634008358051324,345.46563688072297,42.448249398875205,14.349495903599024,69.31326825626299,0.0030142546024273,113.7032495998911,1101.2945226326851,15.288,0.0,10.452452188839908,0.1247713590087388,4.047347569746825e-07,-0.0515404617122373,3.4936133974688086e-05,0.0057948086226747,15.065883789904635,19.155568049119744,42.44814438083225,33.43185418710845
1.05,31.22215576409004,131.01046594752677,22.542100682590807,14.956194178480729,-0.0006410827225516,20.55694447088224,0.0018696787739246,-2.7576163932858284,240.45625879819983,42.737732095132586,14.44333111911259,69.28336506757609,0.0030632306927867,113.7033024262918,1116.3295608239634,15.288,0.0,10.479435398041332,0.1256227478344873,4.216553831040337e-07,-0.0529949502000634,3.4896988920589385e-05,0.00599877453492,14.956194191906947,19.022499157047527,42.73763139409401,20.74108043586817
1.06,31.22215524976497,131.0104673424359,22.890606364061384,14.8397953777342,-0.0006135830029944,28.796691571438306,0.001880306653543,-2.8560220075869247,308.17968365593924,43.04614827197087,14.544043475512824,69.25262318828698,0.0031118941753421,113.70335492285744,1132.4617368824595,15.288,0.0,10.506271309615707,0.1265298000430263,4.390100667489282e-07,-0.0544705120306753,3.485999002667956e-05,0.0062100885894456,14.839795390134222,18.88174339000305,43.04605189057814,28.937973507208827
1.07,31.222154732159368,131.0104687462648,23.24178168200409,14.740911000138803,-0.0005870322748818,33.707110661455964,0.001888511391078,-2.947370510727179,348.5093681440308,43.30462529129545,14.626380897355688,69.2210299466348,0.0031602422468789,113.70340708665572,1146.0639806081706,15.288,0.0,10.532974589198636,0.1272900715417031,4.568030144498945e-07,-0.0559681284223215,3.482517932755084e-05,0.0064189273544204,14.740911011568578,18.76326228487902,43.30453308048134,33.835725286117594
1.08,31.22215421117087,131.01047015929154,23.59570453208343,14.638944743065167,-0.000560575368076,23.05764401081688,0.0018968667358855,-3.0410376514070423,261.00157857466235,43.57099000794113,14.7115216815794,69.18857293374793,0.0032082722865394,113.70345891492424,1160.1666712919507,15.288,0.0,10.559546679697984,0.1280735383115466,4.75038663325889e-07,-0.0574883800190941,3.479262122296706e-05,0.0066336129133292,14.63894475356375,18.641597887995296,43.57090195296822,23.257318437965676
1.09,31.222153687075128,131.0104715807674,23.95217172323081,14.519580653306091,-0.0005337200997107,21.296517224634595,0.0019072555105032,-3.1441735643615605,246.54375332474407,43.887916624251744,14.815201830017903,69.15523962701292,0.0032559817669553,113.70351040445962,1177.0653878269893,15.288,0.0,10.585972322878469,0.1290056384131974,4.937232214601433e-07,-0.0590299225942737,3.4762457921985626e-05,0.0068608027868379,14.519580662904612,18.498979628075386,43.88783278769453,21.527365768704996
1.1,31.22215315994804,131.0104730104862,24.311129085491228,14.410044926535152,-0.0005074835494672,41.593790737614114,0.0019161581814079,-3.243652336166521,413.1890617385841,44.17599624610244,14.908274957923652,69.12101739229925,0.003303368251379,113.70356155243311,1192.5274628886305,15.288,0.0,10.612256316989516,0.1298529554849927,5.128616163795634e-07,-0.0605927133267145,3.4734776266162525e-05,0.0070884215196551,14.410044935282048,18.36912407138403,44.1759165307729,41.72007564799007
1.11,31.22215262938337,131.01047444955162,24.672878857935338,14.319350784156669,-0.0004821006963292,30.7508132123554,0.0019223055647112,-3.3344190142804564,324.1593910376397,44.40640669465574,14.9800500814458,69.08589338021196,0.003350429368167,113.703612356763,1204.9578564829308,15.288,0.0,10.638422588393592,0.1305307674294493,5.32456554000898e-07,-0.0621791933213315,3.470957589880397e-05,0.0073117007255086,14.319350792102629,18.26327295316568,44.40633096645545,30.931066374750568
1.12,31.222152095440887,131.01047589780103,25.037376513023816,14.19495598024177,-0.0004558344154406,12.296649031148812,0.0019327052968963,-3.443649527643836,172.73281794065943,44.73863376492131,15.089293755828129,69.04985499448402,0.0033971629413702,113.70366281491076,1223.0122938463376,15.288,0.0,10.664460004053597,0.1315078758934013,5.525134531081872e-07,-0.0637889930184369,3.4686966594643186e-05,0.0075568525719774,14.19495598741038,18.11617971678501,44.73856216261877,12.769741704507746
1.13,31.22215155871637,131.0104773536164,25.40418458988093,14.089601070488865,-0.0004304373653751,36.039383857661264,0.0019403188773804,-3.5439957226258314,367.5328077900705,45.01233640205788,15.177007774028164,69.0128886385557,0.0034435666883224,113.7037129234596,1237.978771090819,15.288,0.0,10.690351839480993,0.1323129643195095,5.730403668791333e-07,-0.0654192369377993,3.46671367748925e-05,0.0077971199178921,14.089601076930714,17.99330953502814,45.01226878911464,36.21321717669783
1.14,31.22215101853756,131.01047881882354,25.773798038904143,13.997545731530078,-0.0004056318679199,20.453008454199303,0.0019458237881283,-3.6379012383131286,239.69531773195544,45.242941764999095,15.24874751570044,68.97498180622762,0.0034896387118502,113.7037626811944,1250.65158408327,15.288,0.0,10.716130874281443,0.1329913794263363,5.940380852626638e-07,-0.0670738256241369,3.46500515290611e-05,0.0080349962297631,13.997545737290022,17.88761544923703,45.24287804849428,20.774019448183314
1.15,31.222150475392205,131.01048029209753,26.14585724046492,13.87182028059912,-0.0003801117790725,20.17064304164121,0.0019557256069574,-3.7514974781266814,237.41251153546767,45.579798216592366,15.359812605866264,68.93612198457292,0.0035353772618524,113.70381208540852,1269.299009314618,15.288,0.0,10.741766960873544,0.1339821296888981,6.155145251659731e-07,-0.0687498750152863,3.463589679505276e-05,0.008296798711801,13.871820285704803,17.740566221142362,45.57973850877373,20.5165440039633
1.16,31.222149929418343,131.01048177306356,26.52026236982432,13.78354149361868,-0.0003558361555682,50.989939426602525,0.0019601385537325,-3.844848491149621,490.0437743845894,45.79552375856845,15.426088045326129,68.89629569306784,0.0035807804944968,113.70386113378524,1281.296340760489,15.288,0.0,10.76727043158408,0.1346168252025625,6.374748029576904e-07,-0.0704471664681029,3.462476841199727e-05,0.0085415597464507,13.783541498122872,17.6407755779521,45.79546786395584,51.13469259212021
1.17,31.22214937972738,131.01048326413456,26.897661507312005,13.677767926103243,-0.0003312905041213,9.949123270139246,0.0019666908122898,-3.94898431173205,153.70937929486794,46.0663204646548,15.512706552296532,68.85549046317286,0.0036258469351298,113.7039098258502,1296.4471863328329,15.288,0.0,10.79267338287204,0.1354134140906682,6.599183241039533e-07,-0.072170796788474,3.461662545361992e-05,0.0088019703865282,13.677767930038854,17.519800070943127,46.066268425664106,10.70418305180759
1.18,31.222148827482,131.01048476215303,27.277204151146293,13.548882092512272,-0.0003064733170395,25.360312821448424,0.0019763077557082,-4.068113288781066,280.02501822196746,46.41383531783048,15.627953604192928,68.8136931305702,0.0036705751158781,113.70395815822565,1316.0332451377565,15.288,0.0,10.817923217392703,0.136435529461191,6.828576730290345e-07,-0.0739138575807077,3.461174860627338e-05,0.0090822273719234,13.548882095913624,17.37047560362286,46.413787177114415,25.684528729137135
1.19,31.22214827215369,131.0104862685541,27.65927608171869,13.471792478257203,-0.0002830166518001,43.475680509539366,0.0019781516781464,-4.156626542175186,428.4078130529292,46.586244596554565,15.678140001654432,68.77089014580024,0.0037149636116852,113.7040061299691,1325.7798430634443,15.288,0.0,10.843058289718106,0.1369429246847963,7.06293200674612e-07,-0.0756802406235848,3.461013330407336e-05,0.0093334737723086,13.471792481175015,17.286542220070558,46.58620014040286,43.67393208644878
1.2,31.222147713281664,131.0104877845885,28.044207934354848,13.353544218930857,-0.0002588876857727,5.464984462109776,0.0019856397467034,-4.271274995652938,117.1843741360236,46.89632767066272,15.779568041993963,68.72706926711582,0.0037590114466704,113.7040537405159,1343.437969439172,15.288,0.0,10.868052493635536,0.1378550304599168,7.302271816141188e-07,-0.0774722890743595,3.4611833427090644e-05,0.0096177230976475,13.353544221394795,17.151725733485776,46.89628700468013,6.9361263831014845
1.21,31.22214715203721,131.01048930707591,28.431149050562627,13.237784367876271,-0.0002350838119128,35.11043653738034,0.0019925133705232,-4.385586782765653,359.92343213200894,47.19802935805252,15.878073526417989,68.68221673581334,0.003802717475587,113.70410098680428,1360.7286733147475,15.288,0.0,10.892896006823111,0.1387425095301097,7.546726086706167e-07,-0.0792830749809638,3.4617095796556666e-05,0.0099054738111976,13.23778436992637,17.020545659618737,47.1979924311737,35.38327471058452
1.22,31.22214658751968,131.01049083846144,28.820749595248376,13.15723101494361,-0.0002120770357182,25.717173370896283,0.001993802193714,-4.477619260426156,283.0687504825761,47.374537426132406,15.929843905876288,68.63631964596486,0.0038460808789454,113.70414786904844,1370.8739215867383,15.288,0.0,10.917637231950163,0.1392619819322547,7.796266883601487e-07,-0.0811186583729378,3.4625896787060845e-05,0.0101723288034764,13.157231016622632,16.934197370771194,47.374504113149534,26.10406260345932
