Time,Latitude,Longitude,Altitude,Angle of Attack,Angle of Sideslip,X-Acceleration,Y-Acceleration,Z-Acceleration,Thrust,True Velocity,Ground Velocity,Pitch,Roll,Yaw,Dynamic Pressure,cp,parachute_deploy_gain,Wind Speed,Mach,omega_x,omega_y,omega_z,Cmq,Angle of Attack(total),Angle of Attack(gust),True Velocity(gust),Acceleration
0.0,31.222216000000007,131.010392,3.000000004412624,0.0,0.0,0.0,0.0,0.0,2.2828121974499247,0.0,0.0,71.99999999612658,-1.0292491154817412e-14,119.99999999354436,0.0,15.288,0,0.0,0.0,0.0,0.0,0.0,-0.0,0.0,90.0,0.0,0.0
0.01,31.22221599999862,131.01039200000284,3.0000009727369523,0.0,0.0,0.0,0.0,0.0,34.24218696174923,5.916279387578309e-11,5.734623670548936e-11,71.99999999613168,-5.86671995824671e-13,119.9999999935449,2.1432944861733093e-21,15.288,0,0.0,1.7386402909615473e-13,-3.4220131069073734e-19,7.115076756936125e-19,5.488773498207866e-19,-1.1574302492039043e-31,0.0,89.99999999962336,5.916279387578309e-11,0.0
0.02,31.22221599999738,131.01039200000537,3.0000018317022668,0.0,0.0,0.0,0.0,0.0,25.871876237766408,1.2265415415436536e-10,1.1895038237325684e-10,71.9999999961369,-1.1836364828043265e-12,119.99999999354544,9.211895886571454e-21,15.288,0,0.0,3.6044858651615574e-13,-6.979551485375437e-19,1.4162390878091906e-18,1.0909784360635388e-18,-4.776231873571785e-31,0.0,89.99999999921916,1.2265415415436536e-10,0.0
0.03,31.22221599921969,131.01039200159065,3.0001883335529382,18.80143492628821,-0.0001350810307892,10.931161642028636,-1.75114298675875e-05,3.026590975169265,180.34219359854663,0.0798232026864394,0.0478175828508887,71.99999999765336,-5.341802909786072e-12,119.99999999436793,0.0039016003969354,15.288,0,0.0,0.0002345795854893,3.788270153300133e-17,-7.771883375645477e-10,1.1422790048099072e-11,1.7057759223764537e-13,18.80143492675591,89.51882325913425,0.079801984207741,11.342422482672777
0.04,31.222215995131297,131.01039200995308,3.001692634342189,9.19442604083399,-4.49173898918486e-05,52.29595764159784,6.445392950801871e-06,3.026413589912948,548.6359724538078,0.3504174083926908,0.1601447499964056,72.00000000319055,-3.111420077280171e-11,119.99999999870242,0.0751892535633216,15.288,0,0.0,0.0010297854387864,2.0082066977226968e-15,-1.520937588847922e-08,2.5623342884322286e-11,1.4654248781413086e-11,9.19442604094277,87.798916624545,0.3504103527855857,52.383455068075136
0.05,31.222215983575865,131.01039203366796,3.0074067499493786,5.158590039700252,1.707592688632746e-06,76.26884281015512,5.843947534199429e-05,3.0258124765658088,761.6984298824644,0.9592973585397016,0.3772700771701255,72.0000000004862,-1.3608731808076822e-10,120.0000000109612,0.5634958029902841,15.288,0,0.0,0.0028191251099456,2.086299069701397e-14,-1.0551247853743037e-07,3.973493515691201e-11,2.783064866637575e-10,5.158590039700515,83.94063169874748,0.959297626767734,76.32884071402438
0.06,31.222215961742712,131.0103920785344,3.019291017943491,4.109521257467909,3.140103977270004e-05,57.06876634333886,0.0001151069734147,3.024834864051463,590.4875390737208,1.6257536642597354,0.6118982818704327,71.99999992547217,-3.5903296759057166e-10,120.00000003412836,1.6184272268450337,15.288,0,0.0,0.0047776672697797,1.0694899894620088e-13,-3.741090980393931e-07,5.521401959501359e-11,1.6723176417636091e-09,4.109521257587776,79.78719176344794,1.6257585967235286,57.148873286519276
0.07,31.222215929936205,131.01039214392435,3.0371334573469446,3.649087515174788,5.707077112564807e-05,86.89643797254193,0.0001728541558773,3.0234947746384675,855.2937749779139,2.3057260079826607,0.8506307413593818,71.99999965378231,-6.907496536790437e-10,120.00000006788592,3.255354923652711,15.288,0,0.0,0.0067759305364855,3.495199904512709e-13,-9.036515915819006e-07,7.594816279105379e-11,5.728932851326001e-09,3.6490875156204896,75.6601668283889,2.305734972638426,86.94902215090157
0.08,31.222215886364623,131.01039223353447,3.0621840248716574,3.4254446680114707,8.413075603463509e-05,17.831756866644035,0.0002285946601282,3.021841001032126,241.2171988638848,2.961944911520492,1.0819695676346892,71.99999900671328,-1.141745983122182e-09,120.00000011415082,5.371998197385977,15.288,0,0.0,0.0087043901031071,8.800530155962314e-13,-1.829098470920821e-06,1.0943386634701918e-10,1.4896287129277132e-08,3.4254446690434226,71.81713637501419,2.9619581267487467,18.085991154451033
0.09,31.22221583454733,131.01039234010327,3.0919888289029,3.389560809024919,0.0001118726864415,54.09031716446879,0.0002748660999733,3.020060228038602,563.0937377043176,3.504225426410036,1.2780161667917422,71.99999774508822,-1.634190085504106e-09,120.00000016921716,7.519080503822694,15.288,0,0.0,0.0102980157586766,1.865782139518716e-12,-3.1503298654458527e-06,1.6284478329871028e-10,3.03536411425607e-08,3.389560810868955,68.76526501308032,3.504242999330529,54.17456206384468
0.1,31.22221577423132,131.0103924641528,3.1267248829165366,3.4447939461814814,0.0001419149103147,51.372195336549765,0.0003131602029306,3.0182021883815127,538.7437595981919,3.950569597142709,1.4443465951180965,71.99999562056465,-2.1287748602259068e-09,120.00000023339832,9.55649523509932,15.288,0,0.0,0.0116097108366932,3.485956000178229e-12,-4.949356763187612e-06,2.4573266549165286e-10,5.3761299442583966e-08,3.444793949101151,66.34639928474206,3.9505918890846927,51.460781166288626
0.11,31.222215706113143,131.01039260424562,3.165907002780892,3.4691423802630394,0.0001702373452339,40.591037561894986,0.0003534470100582,3.016051659024047,442.8656393052949,4.421478635995476,1.6182620895289603,71.99999235067894,-2.5564479031457968e-09,120.00000030601664,11.970509656144712,15.288,0,0.0,0.0129935974697161,5.942887149865172e-12,-7.273722517324353e-06,3.67769289312894e-10,8.842679949465076e-08,3.4691423844348632,63.88798785789768,4.421505376815134,40.70293476011277
0.12,31.222215630588888,131.0103927595646,3.2092596514826863,3.4852659299808075,0.0001974376474727,44.30042894095728,0.000394069215595,3.013641598889868,475.58594813540446,4.896982486381051,1.793579340340896,71.99998761802138,-2.8337988279882726e-09,120.00000038673312,14.683611096353944,15.288,0,0.0,0.0143909889875706,9.464337642181618e-12,-1.017558359402848e-05,5.395790443954697e-10,1.3700793350599625e-07,3.4852659355662303,61.5068242157714,4.897013499814194,44.40281567867803
0.13,31.222215548046687,131.0103929293088,3.256512891171917,3.5606043721293616,0.0002276507019012,48.86766833507025,0.0004268800875964,3.0112558910133567,515.9156326236895,5.278566579338586,1.939796541405244,71.99998107389406,-2.8573058577484587e-09,120.00000047523812,17.061052093156064,15.288,0,0.0,0.0155123760833565,1.4300406003001044e-11,-1.3705268062305584e-05,7.724776992181392e-10,1.989112774124932e-07,3.560604379397528,59.67313531776262,5.27860233862722,48.960358155653
0.14,31.222215458587108,131.01039311327068,3.30759734332425,3.6000732663755977,0.0002555702913645,45.540290862247225,0.0004629468001456,3.0085404980032777,486.2390860568404,5.70011779273801,2.098362647205908,71.99997235012626,-2.508533681468686e-09,120.00000057154703,19.894788765881632,15.288,0,0.0,0.0167512184495524,2.071534240530911e-11,-1.7917736259613292e-05,1.0787346240473087e-09,2.8081526258393346e-07,3.6000732754351943,57.72385750323359,5.700157937625502,45.639559681930805
0.15,31.222215362317904,131.01039331122794,3.3624387479639086,3.651605404442164,0.0002842753491325,44.01308509501,0.0004965057129938,3.005703619811542,472.54218587214,6.091938849578711,2.2476968067377374,71.99996103728932,-1.6446954747148112e-09,120.00000067569304,22.723773683610247,15.288,0,0.0,0.0179026934683374,2.9002783512213203e-11,-2.287326399669318e-05,1.47199345427166e-09,3.831202693354572e-07,3.651605415492516,55.98561718911576,6.091983503446133,44.115597174664394
0.16,31.22221525912812,131.01039352340948,3.421115382839859,3.67540086436193,0.0003108411545024,34.83804992586084,0.0005330990866742,3.002517946501868,391.1218908297564,6.521183188362317,2.4085903880902046,71.99994669525161,-1.0153513453738144e-10,120.00000078796704,26.03872642002185,15.288,0,0.0,0.019164148528834,3.9478358970291335e-11,-2.864207894220033e-05,1.9677461746207517e-09,5.135466997084602e-07,3.6754008774883777,54.15946979122355,6.521232015176687,34.96719658394182
0.17,31.2222151493826,131.01039374906244,3.4833737923187487,3.7139589864597298,0.0003384978477213,43.96471427482637,0.0005668629535037,2.999235483723449,471.78125980632376,6.916861975403744,2.559060925010733,71.99992884100092,2.3206494032971838e-09,120.0000009081849,29.29426197817256,15.288,0,0.0,0.0203269651395979,5.248754693205839e-11,-3.5267097947693114e-05,2.580363454062817e-09,6.706952682968329e-07,3.713959001863866,52.549031795895466,6.916915146521327,44.06689817851128
0.18,31.22221503253009,131.01039398932429,3.549599475912623,3.7380363034619775,0.0003650282082698,36.67395661481795,0.0006021794701355,2.9956556354306425,407.10156721191447,7.332140201215607,2.71556808256092,71.99990696207136,5.837017536380516e-09,120.00000103716444,32.917216366714264,15.288,0,0.0,0.0215473823438242,6.839750892601699e-11,-4.285557247677198e-05,3.331016495775474e-09,8.639362741436378e-07,3.738036321259578,50.93050624815799,7.332197539712479,36.796100973258795
0.19,31.22221490871209,131.01039424390297,3.619694897703461,3.747799769666444,0.0003901520189829,41.42208371271829,0.0006393759928961,2.991742733214697,448.9531328318269,7.771071983754382,2.879366399937307,71.99988049019642,1.0709144790974043e-08,120.00000117502664,36.97605053227239,15.288,0,0.0,0.0228373144884866,8.761416506509219e-11,-5.146771415177372e-05,4.238406957677133e-09,1.0996552116864756e-06,3.747799789945131,49.29705748437159,7.771133268690212,41.529983675580546
0.2,31.22221477769685,131.01039451327668,3.693822889232993,3.7700519460961166,0.0004166800650969,37.99697972290605,0.0006740224661302,2.987733789228414,418.51563019916136,8.179966026035371,3.0338260708461373,71.99984881140107,1.723179577184912e-08,120.0000013223286,40.969302182777255,15.288,0,0.0,0.024038975990988,1.1057590044953188e-10,-6.120032215177249e-05,5.3263847350253015e-09,1.376394225587184e-06,3.7700519690893857,47.8457752505109,8.180031477986942,38.11426270718793
0.21,31.222214639876928,131.01039479663547,3.771710975053407,3.7926098867321474,0.0004432924407074,36.46301043881366,0.0007080907240332,2.983530483977461,404.8187610144644,8.582757448615462,3.1863584283669346,71.99981127559042,2.5745201416596626e-08,120.00000147900325,45.103059028532826,15.288,0,0.0,0.0252227064089584,1.3774582723633048e-10,-7.20875523136271e-05,6.61341033873124e-09,1.7010673350603349e-06,3.792609912601061,46.47936953648762,8.582827080829217,36.584868250565684
0.22,31.22221449507626,131.01039509434258,3.8534832466471007,3.782921298925821,0.0004660920499522,44.14577847155813,0.0007479176313898,2.978724032883548,472.5421858721365,9.056569122268344,3.360845972992861,71.99976720416048,3.661811567390422e-08,120.00000164562512,50.21995530074818,15.288,0,0.0,0.0266151520780326,1.6960703048385348e-10,-8.421592474264931e-05,8.124635526119773e-09,2.0969540034515424e-06,3.7829213275976334,44.9464484092354,9.056642335836344,44.24615863872642
0.23,31.22221434283448,131.01039540734791,3.9394622486964206,3.813874679301352,0.0004940771488601,36.66675459308932,0.000779455230549,2.974212905336642,406.3406421461021,9.430647902846331,3.5044030163419806,71.99971583979395,5.0272885112871524e-08,120.00000182313076,54.45382429059888,15.288,0,0.0,0.0277145095638672,2.0669790509245914e-10,-9.77285871729516e-05,9.894576563683824e-09,2.5339062472561444e-06,3.813874711257219,43.79476959007253,9.430725512303388,36.78718303164376
0.24,31.222214184153326,131.01039573358457,4.028950821673608,3.829256049377765,0.0005200487408944,37.802126339316736,0.0008136255607606,2.9692962675112065,416.2328240017114,9.837806876534357,3.658163422426286,71.9996564062533,6.718950080713476e-08,120.0000020109434,59.25679777340223,15.288,0,0.0,0.0289110855155543,2.4956955046738006e-10,-0.0001125744417092,1.1934277804843484e-08,3.0448209172448607e-06,3.829256084638984,42.59361542722471,9.83788856559955,37.91856374864305
0.25,31.22221401888584,131.01039607335582,4.122052964664892,3.851417709838087,0.0005469594058717,38.85163035360012,0.0008459008130282,2.964283881833675,425.36408079150686,10.22297576958679,3.8050691648373967,71.99958811418384,8.786880969336211e-08,120.00000220974424,63.98709205399403,15.288,0,0.0,0.0300430411774988,2.987811646313829e-10,-0.0001288461362054,1.4273117985167728e-08,3.621333387698252e-06,3.8514177486178034,41.50703126619192,10.223061685769354,38.96455005232871
0.26,31.222213847358866,131.0103964259872,4.218542267117083,3.8780574625554745,0.0005745172425185,42.3164797140743,0.0008766626387865,2.959162938653076,455.8015834241788,10.590779679138215,3.946551912391076,71.99951013710364,1.1286401474734325e-07,120.00000241975916,68.67355887153568,15.288,0,0.0,0.0311239685467471,3.5491769188178554e-10,-0.0001465721578858,1.6932703957058654e-08,4.267712643344226e-06,3.8780575050466,40.51245375834074,10.590869924095635,42.41981967733593
0.27,31.22221366913008,131.0103967923915,4.318728802515264,3.886188503202341,0.0005994342651313,38.70936050721014,0.0009111181036949,2.953518013741325,423.84219965987256,11.004860953238978,4.102320296019413,71.99942161756776,1.4276417094868828e-07,120.0000026420792,74.14786134434608,15.288,0,0.0,0.0323408987462391,4.1858405402174807e-10,-0.0001658847815307,1.995072923688136e-08,5.018832267232506e-06,3.886188549362022,39.43841359495857,11.00495511215316,38.8218734782956
0.28,31.22221348431185,131.01039717233687,4.422535913956003,3.90556090261878,0.0006261175699806,44.68030766832924,0.0009425767186621,2.947879457547137,476.3468732012221,11.38358114165448,4.247086834352694,71.999321619057,1.7823531611327881e-07,120.000002877279,79.33831935330025,15.288,0,0.0,0.033453914386159,4.904408325040897e-10,-0.0001868529238516,2.3357766479368094e-08,5.847713054408178e-06,3.9055609527288775,38.49894431917428,11.383679491972384,44.77744842575601
0.29,31.222213292835256,131.0103975659655,4.530013412817602,3.9242599519377537,0.0006528240665589,35.802573724660256,0.0009737210635801,2.942037024315898,397.97031042211177,11.759725774384751,4.391004157029451,71.99920917567837,2.1999186079018322e-07,120.00000312617878,84.66717879828003,15.288,0,0.0,0.0345593650464213,5.711677680739745e-10,-0.0002095620322847,2.7188189988316943e-08,6.77505090435382e-06,3.9242600061534456,37.60352534239979,11.759828319749328,35.92324968749781
0.3,31.222213095024976,131.0103979726075,4.64093665799555,3.936939025755682,0.0006785438093183,33.570228713727204,0.0010059102294455,2.93586442972183,378.1859457108711,12.149968255527943,4.539237002744259,71.99908328532703,2.6880857935396905e-07,120.00000338923812,90.3787563598417,15.288,0,0.0,0.0357062504417728,6.614698865958865e-10,-0.0002340353597042,3.1467140861055e-08,7.817263716758327e-06,3.9369390841381695,36.71173884615234,12.150074840940263,33.698361337808635
0.31,31.22221289105846,131.01039839189684,4.755183729044857,3.9598342215431432,0.0007060286581592,35.396825578217346,0.0010350810412898,2.9297385597941448,394.1656220930212,12.504537499407316,4.6763673222047455,71.99894291513503,3.255120771695107e-07,120.00000366712923,95.72967338626896,15.288,0,0.0,0.0367483036680869,7.620720834468404e-10,-0.0002603234137215,3.622454560346964e-08,8.948994505138873e-06,3.9598342843844345,35.934338386209795,12.504648402129598,35.5178635353378
0.32,31.222212681031937,131.01039882363492,4.872689374180126,3.985461429033668,0.0007340760463279,38.52097867048992,0.0010630242168685,2.9235095146848846,421.55939346242695,12.84534566718622,4.809181081594425,71.99878701464397,3.909756427278764e-07,120.0000039606604,101.01782231644016,15.288,0,0.0,0.0377499198995686,8.737098716736534e-10,-0.0002884807530145,4.1491545539590986e-08,1.0187112828155184e-05,3.98546149652875,35.21473736963424,12.845460975581933,38.631757748577954
0.33,31.22221246496604,131.01039926777932,4.9934410812554,4.010606629086,0.0007621365968788,38.18822026147908,0.0010905599149574,2.917102431053817,418.5156301991682,13.18247167592885,4.940798912752974,71.99861449732019,4.661299779655886e-07,120.000004270781,106.38859400029033,15.288,0,0.0,0.0387407190563976,9.971421990244511e-10,-0.0003185760672934,4.7302669734505256e-08,1.154498667827874e-05,4.010606701382261,34.52805863348922,13.182591392065536,38.299473293007864
0.34,31.222212242662028,131.01039972474007,5.117579377337869,4.019339771238816,0.0007871574969313,29.898022638335373,0.0011220389395318,2.910051232417875,345.46563688075645,13.569536737955724,5.0878303926024735,71.99842423285973,5.519675040347761e-07,120.0000045987411,112.72655675097128,15.288,0,0.0,0.0398782837956187,1.1331556132162459e-09,-0.0003507224668667,5.37022358302301e-08,1.308298593306914e-05,4.019339848191799,33.76700548046532,13.5696603843662,30.039310197084795
0.35,31.22221201433324,131.01040019407705,5.2449575244483055,4.033762873683395,0.000813261106463,32.76415525156106,0.0011515840876071,2.902959820469776,370.5765700527033,13.934300103976534,5.227895396154902,71.99821502296155,6.495674834876441e-07,120.000004945438,118.8669740701126,15.288,0,0.0,0.040950312688979,1.2825853697215452e-09,-0.0003849609961885,6.072234695821837e-08,1.4746020857580124e-05,4.033762955530055,33.07785186209504,13.934427850732408,32.89250745069162
0.36,31.22221177990305,131.01040067594835,5.375631006350063,4.051723629010647,0.0008401329464575,37.01692984301412,0.0011797030485285,2.8957873473716007,407.8625232777193,14.282998147928636,5.362923567977223,71.9979856440668,7.600645476620651e-07,120.00000531213882,124.88900300695136,15.288,0,0.0,0.0419751331662584,1.4462801652534363e-09,-0.0004213876232777,6.84067806399068e-08,1.654507199147348e-05,4.051723715967022,32.44322602189087,14.283130115703262,37.13002398000203
0.37,31.222211539445663,131.01040117020102,5.509550188388412,4.071639898917391,0.0008674922629137,35.12417761390579,0.0012067983861697,2.88849906286036,391.1218908297666,14.620581431527652,5.494447309446232,71.99773482653193,8.846681943540367e-07,120.00000570002652,130.86067091914967,15.288,0,0.0,0.0429672939311924,1.6251202388969355e-09,-0.0004600660652957,7.679415042686734e-08,1.849041957573993e-05,4.071639991174516,31.85023865502424,14.620717696893658,35.24274792557624
0.38,31.222211292895075,131.01040167697127,5.646763233102716,4.08264881385344,0.0008930259828975,36.695642158537446,0.0012360471443664,2.880711738179021,404.8187610144602,14.986392916850402,5.634654729559426,71.99746126698146,1.0246533537040716e-06,120.0000061105033,137.4891296153862,15.288,0,0.0,0.0440424171304414,1.8200057922063743e-09,-0.0005010869196581,8.592980519823866e-08,2.0642694281337543e-05,4.082648911356968,31.228847973200924,14.986533193043764,36.808540518115166
0.39,31.22221104018777,131.0104021963902,5.787316652586672,4.096641430700089,0.0009192713382325,31.335681548387896,0.0012640110027448,2.872831219844713,357.64062493382744,15.337978856701952,5.770390286512262,71.99716358743511,1.1813915463769678e-06,120.00000654506955,144.01394309468844,15.288,0,0.0,0.0450757388736732,2.031886352449547e-09,-0.00054455673306,9.586443829735616e-08,2.295945663566148e-05,4.096641533664766,30.65298398882095,15.338123255506089,31.4670954954126
0.4,31.222210781536543,131.01040272801887,5.931064331106764,4.109028969993624,0.0009451871856381,29.95928076777898,0.0012920492774571,2.8646905607053603,345.465636880754,15.692185018814769,5.906873567965718,71.99684037970908,1.3563276523471372e-06,120.00000700500496,150.74021066990193,15.288,0,0.0,0.0461167659598875,2.2617341782092324e-09,-0.0005905037520737,1.0663253249436129e-07,2.5471259834659164e-05,4.1090290785164525,30.09246700352443,15.692333488470696,30.095929256306363
0.41,31.222210517064383,131.01040327160345,6.077922766619747,4.122888296344507,0.0009714525997821,33.78425365340317,0.0013192264430821,2.85640971467756,378.94687077668647,16.03742529732769,6.0405139809190125,71.99649020751959,1.5509747261474075e-06,120.0000074917568,157.44375780268788,15.288,0,0.0,0.0471314487675864,2.5105374204052982e-09,-0.0006389770219162,1.1827345344180344e-07,2.816813594418537e-05,4.122888410595805,29.56469007160549,16.037577892745222,33.904791300285986
0.42,31.22221024682894,131.0104038270252,6.227854084363214,4.14444025865494,0.0009995884754813,38.04468161607466,0.0013435485656724,2.8482703202464488,416.2328240017114,16.348862540904037,6.163613566771559,71.99611159893284,1.766920641656551e-06,120.00000800692096,163.6157044470786,15.288,0,0.0,0.0480467946810589,2.779304965995011e-09,-0.0006900467934588,1.308321832549104e-07,3.100973487310896e-05,4.144440378988911,29.104646754454564,16.34901955589459,38.15115260238947
0.43,31.222209970843565,131.0104043942566,6.380851271439565,4.1618082623168045,0.0010268052928652,33.45815353250911,0.0013687230309017,2.8397750580998298,375.9031395134336,16.67263197205097,6.290467308135904,71.99570306121484,2.005818691215035e-06,120.00000855220898,170.15779512382937,15.288,0,0.0,0.0489983878509763,3.0690566816849196e-09,-0.0007437862329608,1.443552931671376e-07,3.4086145072160934e-05,4.161808388761201,28.640125213458976,16.672793262249197,33.57845085853367
0.44,31.22220968892116,131.01040497368373,6.537047157143216,4.164954087655709,0.0010505545842624,30.86574023822051,0.0013980747538988,2.830419582421933,353.0750125389216,17.050421620730056,6.433992917638883,71.99526304125902,2.269416145406482e-06,120.00000912964636,177.9537948947602,15.288,0,0.0,0.050108743779844,3.380847125286677e-09,-0.0008003278134917,1.589055036683518e-07,3.750784460406397e-05,4.164954219916419,28.113519280259386,17.050586641458253,30.99524475496968
0.45,31.22220940081287,131.01040556582012,6.696617751072218,4.165241899529329,0.0010735835484822,35.912216710755274,0.0014280646808282,2.820677244966047,397.2093853562869,17.438293672974723,6.580571293039616,71.99478987454265,2.5595995397253085e-06,120.00000974147088,186.13940823302417,15.288,0,0.0,0.0512487363629523,3.7158016249566814e-09,-0.000859850913876,1.745604864109677e-07,4.121350642664912e-05,4.1652420376426775,27.591357195572936,17.43846231108416,36.02281959036367
0.46,31.222209106468902,131.0104061707686,6.859600379555308,4.174585124444534,0.0010989881252456,41.916816790010685,0.0014546917035209,2.811153314474766,449.7140588976434,17.786187321601275,6.714685486378061,71.99428180697711,2.8783880229668832e-06,120.0000103898448,193.6374175079873,15.288,0,0.0,0.0522712438446989,4.0751091178509895e-09,-0.0009224765531151,1.9138630415982226e-07,4.50966024037632e-05,4.1745852688465686,27.13985967570823,17.786359950252297,42.01097612387663
0.47,31.22220880579083,131.01040678873238,7.026066274755745,4.1823089530633855,0.0011240727220223,28.37640408484148,0.0014814747534716,2.801325368441072,331.0078106302534,18.138167428286582,6.849989708801916,71.99373704967608,3.2278903746588286e-06,120.00001107707628,201.37401505997488,15.288,0,0.0,0.0533057667609836,4.459978104761035e-09,-0.0009883252835099,2.094509673354327e-07,4.927107017839778e-05,4.182309103852639,26.69716826759888,18.13834399721685,28.514342615617974
0.48,31.222208499300592,131.0104074186346,7.195654207463586,4.189479568102716,0.0011490100608361,27.95074823096412,0.0015080719422187,2.7912412472910484,327.2031223011574,18.48995085190441,6.98515976370584,71.99315377257649,3.6103201777021456e-06,120.00001180491516,209.25751230436188,15.288,0,0.0,0.0543397174489847,4.8716620260348906e-09,-0.0010573190976925,2.2877013380347535e-07,5.373205427420879e-05,4.189479725385959,26.268461765425428,18.4901313379827,28.089773168283216
0.49,31.222208187201936,131.01040806005494,7.368224738812109,4.202723284133339,0.001175611380853,35.08821363242469,0.0015321405723077,2.781292092003844,389.60000969812296,18.812014261754847,7.111044804193205,71.99253015042137,4.027946338669921e-06,120.0000125755114,216.60722913930897,15.288,0,0.0,0.0552863302793499,5.311396446020465e-09,-0.0011294854492155,2.4938633613154685e-07,5.8398320167141767e-05,4.202723448262914,25.88860807032205,18.81219892635871,35.1982716047702
0.5,31.22220786953184,131.01040871291724,7.5437546994244835,4.220815778795054,0.0012036252596423,36.05491615971072,0.0015540388599792,2.7714444106710974,397.97031042210494,19.10875420627192,7.229005658018125,71.99186435180009,4.483102820610566e-06,120.00001339126192,223.4908652241728,15.288,0,0.0,0.0561585257949344,5.7804122391526605e-09,-0.0012048912160576,2.713531252030471e-07,6.327866493526626e-05,4.220815950099865,25.54902500917784,19.108943271285572,36.161276053538906
0.51,31.222207546379583,131.0104093770373,7.722184419225251,4.232567510615346,0.0012298790840397,27.54004661432325,0.0015777580800203,2.761017323676155,323.3984349720841,19.430597746636646,7.354673636736509,71.99115452520388,4.978202222778502e-06,120.00001425458936,231.07869697977367,15.288,0,0.0,0.0571045034845869,6.2799518101633574e-09,-0.0012835871653678,2.947201005874635e-07,6.854585242460463e-05,4.232567688976395,25.189423168613605,19.430790935591396,27.678103017910345
0.52,31.22220721766429,131.01041005247583,7.903524917078985,-3.2495490067620376,-8.018009539606222,33.178802136718495,0.439567506001471,3.175527673030688,372.0984511843415,19.099845597746217,7.4853315207929905,71.99040721728913,-1.260095503761238e-05,119.99999611809376,223.27481520533897,15.288,0,3.7714359510457776,0.0561325721889493,6.7998688328566116e-09,-0.001291312536875,-6.806115147703798e-05,6.778339488917615e-05,8.647485768416326,17.276393144286978,17.844486350132932,33.333318268993736
0.53,31.222206882820977,131.01041073965578,8.08787766458615,-3.129561600628697,-7.9027878278123325,34.84176424814029,0.4510646992524589,3.1757570284497474,386.5562464348624,19.41876277678069,7.616601408947447,71.98968327408866,-0.0002502436253096,119.99974658587396,230.78918348316816,15.288,0,3.785943837257301,0.0570699571732163,7.234571325171556e-09,-0.0012321558025639,-0.0002171648507977,6.575693888149642e-05,8.496235053872452,17.02031721038844,18.18132810895224,34.989104418227775
0.54,31.22220654169013,131.01041143879888,8.27531575578389,-3.01374236625356,-7.791618119136498,30.584330251413064,0.4626940297386044,3.1758810104192383,349.2703242098436,19.73589037309686,7.747266802327856,71.98899328703045,-0.0007537489115473,119.99921749738913,238.3844758641632,15.288,0,3.800417350630584,0.0580020886455401,7.562314994709781e-09,-0.0011728057739384,-0.0003702254083169,6.361058767285143e-05,8.350801622434108,16.772146022195265,18.51575467541692,30.752261101990495
0.55,31.222206194560847,131.01041214929074,8.46563324643341,-2.902675629629245,-7.686463531466413,32.42144547453106,0.4743145703663194,3.175852830187812,365.2500005919907,20.04548907652588,7.8755334898402705,71.98833733281003,-0.0015299436487375,119.9984016716782,245.91776239709927,15.288,0,3.814838689840327,0.0589120991566259,7.781180342809558e-09,-0.0011133897610145,-0.0005270785138407,6.133417552187392e-05,8.213198672144774,16.535446897639957,18.841720572446736,32.58007277721559
0.56,31.22220584142757,131.01041287112577,8.658829828709196,-2.796631950462705,-7.588580896175831,30.25129673328461,0.4858137742404051,3.1756402538609505,346.2265619465787,20.343137862672567,8.000023346040841,71.98771543690142,-0.0025855441434556,119.9972920444067,253.27038634961383,15.288,0,3.8292069699548392,0.0597869955848621,7.889317068196802e-09,-0.0010539474480072,-0.0006877830380978,5.892064522071261e-05,8.084671727374781,16.312566162408046,19.15460832585965,30.421401349879
0.57,31.222205482360927,131.01041360414132,8.85485223185011,-2.6925675078094167,-7.490258137395376,29.91016424653084,0.4976730153322841,3.175392260772759,343.1828296833023,20.648577197806144,8.126902755909246,71.98712758759633,-0.0039272685058507,119.99588154935633,260.9279590257198,15.288,0,3.843515313722549,0.060684793665604,7.884923578335466e-09,-0.0009945466824398,-0.0008523246573836,5.643359607611303e-05,7.956917278933793,16.090188636375885,19.47535864151288,30.08236559339071
0.58,31.22220511733152,131.01041434838146,9.053717013909417,-2.58879177427578,-7.386763966991171,39.421343736967486,0.5102444291425721,3.175205102710935,426.1250058573153,20.975506256852853,8.26044601336509,71.98657374390451,-0.0055619023793487,119.99416304950486,269.2507761719832,15.288,0,3.857763230621541,0.0616457547015532,7.766208209843497e-09,-0.0009352267781416,-0.0010207674050858,5.390679508479805e-05,7.824892813829983,15.85995762361578,19.818407713190297,39.55230232047053
0.59,31.2222047459062,131.01041510472248,9.255721863172653,-2.4915332616307526,-7.29570965142349,31.931009649630543,0.5223033617918598,3.1747184426683748,360.68438819711065,21.274385245243145,8.385191497321914,71.98605387888864,-0.0074966820007442,119.99212893455504,276.9731532673803,15.288,0,3.8719722519887663,0.0625242846043005,7.531219730278126e-09,-0.000875908592116,-0.0011935209091894,5.1206077520268725e-05,7.707238548577891,15.65281373573902,20.13147223486598,32.09269410998018
0.6,31.2222043683027,131.0104158726979,9.460710997748148,-2.392523046243362,-7.193643351177744,28.362313511252847,0.5355364983504814,3.174410811537073,329.4859594986058,21.612399408989663,8.522104862424978,71.98556793642604,-0.0097389472874869,119.98977148459817,285.83871971601053,15.288,0,3.8861284365919095,0.0635178371070065,7.178059511676339e-09,-0.0008167066266756,-0.0013704532674781,4.850273396550908e-05,7.579086912215136,15.427419447676046,20.485390940441825,28.54443047342274
0.61,31.222203984463096,131.01041665241,9.668720784882945,-2.2958828342552007,-7.092302924656929,33.25672342130053,0.549133647928471,3.1740400770725543,372.0984511843297,21.95660205162068,8.66090074497614,71.98511583986377,-0.0122962212614066,119.9870827875996,295.0099573831546,15.288,0,3.900233769667008,0.0645295840980844,6.704785003662749e-09,-0.0007576532584641,-0.0015516680690773,4.571135618806619e-05,7.452844177843253,15.204421695638151,20.845388553658733,33.41235895436042
0.62,31.222203594501305,131.01041744360617,9.879667808608056,-2.208628003462737,-7.013871136360386,41.38328692177414,0.561290551235789,3.173130276680648,442.86563930529206,22.236952587215303,8.779737067441443,71.98469748940373,-0.0151762058316227,119.98405474335772,302.5855306129451,15.288,0,3.9142878164084594,0.065353678748627,6.109439976256157e-09,-0.0006988157618171,-0.0017371656596901,4.269899421825967e-05,7.35173670853965,15.023581026379937,21.137965896717688,41.508556217791735
0.63,31.22220319821772,131.0104182466824,10.09368762117271,-2.1217146704894634,-6.931201826039604,23.40461656170528,0.5741094977826386,3.172246868676536,286.11251274707894,22.535897391468104,8.904331071959877,71.98431271499642,-0.0183863264023367,119.9806795429028,310.76951091617144,15.288,0,3.9282808908153455,0.0662324276973174,5.39021377996991e-09,-0.0006402083591979,-0.0019271251455512,3.9643040391284345e-05,7.247154533656947,14.83658822382661,21.44980032865776,23.625596887945953
0.64,31.22220279622056,131.01041906036707,10.310352774538876,-2.034177399243872,-6.840751998512733,22.972786806842787,0.587950169983783,3.1714650651744294,282.30782441796754,22.866557934333034,9.038764973993771,71.98396131245018,-0.0219340886640201,119.9769492921129,319.9493610799054,15.288,0,3.942217059402216,0.0672043948673739,4.545345874593889e-09,-0.0005820439919572,-0.0021210759260067,3.65694415957485e-05,7.135410544611907,14.636833394339195,21.794566210654104,23.19812082334808
0.65,31.22220238848363,131.01041988469893,10.529678283648652,-1.9532807949445552,-6.7669312790939244,40.71534114746888,0.6006826533153287,3.170254447792494,436.7781447787475,23.14772674349764,9.15772486469749,71.98364301980371,-0.0258268257678479,119.97285627913264,327.8590700288874,15.288,0,3.956062987267104,0.0680309131769815,3.573149939086118e-09,-0.0005243542697773,-0.0023191212376757,3.334922388771537e-05,7.041939165191589,14.468527580655866,22.08724908835039,40.84299618867982
0.66,31.22220197446996,131.01042072077192,10.752035408194944,-1.873414796434168,-6.691334101255531,34.60683062180529,0.6138971111622321,3.169012057597796,383.51251517160017,23.43983007944599,9.280050664072974,71.98335754303716,-0.0300719557312213,119.96839270357,336.1786693390114,15.288,0,3.969861250481279,0.0688895744662257,2.471947738685961e-09,-0.0004670652242341,-0.002521754109313,3.007982423987928e-05,6.947493309865863,14.29836671550225,22.391145397389813,34.75704580039296
0.67,31.22220155436745,131.01042156818224,10.977289850241064,-1.7932939618507977,-6.6091474657849645,23.773320723036928,0.6280859860714071,3.167839121898075,289.1562440103425,23.760722445511675,9.411300588130745,71.98310459390798,-0.0346774223584277,119.96355021151568,345.438806276966,15.288,0,3.983613827510277,0.0698328534124446,1.239936918432857e-09,-0.0004102810602496,-0.0027288606006199,2.678397425928379e-05,6.8470764797637145,14.117485594475706,22.724860746244257,23.991675116767155
0.68,31.222201128346367,131.0104224265629,11.205319755895802,-1.7158468388775072,-6.5310375815966175,29.72538201100176,0.6422507217573589,3.1664959222836195,340.8999924858462,24.07297535168293,9.539809253331784,71.98288383888959,-0.039651157048564,119.9583204622886,354.5699076512628,15.288,0,3.9972730367456735,0.0707507478987291,-1.2463737479229586e-10,-0.0003540927647411,-0.0029403625061858,2.341915509331216e-05,6.751727122351073,13.945451389761118,23.04930254517296,29.900460165613232
0.69,31.222200696483824,131.0104232957398,11.436068426350548,-1.6423702576814472,-6.4623796183078985,36.643032878929205,0.6558113469749188,3.1648671003225743,401.0140726853634,24.355714425325328,9.659078380380755,71.98269485132423,-0.045000978106282,119.95269523694924,362.9396826824804,15.288,0,4.0108745066575295,0.0715819075916965,-1.623440315813291e-09,-0.0002985752558257,-0.0031562374250037,1.997880287524111e-05,6.666954460708523,13.791998585722792,23.34275712990133,36.78530047249597
0.7,31.222200258630668,131.01042417600723,11.669637250230045,-1.570486862982316,-6.394600527346222,30.700308111885327,0.6696009524301813,3.163135955409432,349.27032420985284,24.63958020246256,9.77865270119618,71.98253727475266,-0.0507346495204083,119.94666636645545,371.4407745939464,15.288,0,4.024424373928682,0.0724163853282273,-3.25807260419028e-09,-0.0002437533730162,-0.0033766645664519,1.6500191057885947e-05,6.583851090515895,13.64147283014216,23.63720267851846,30.870094147452665
0.71,31.22219981483673,131.0104250672482,11.905988843025629,-1.4989912767567437,-6.322995669945713,25.19192316172993,0.6841299714352271,3.161394466042515,301.33126406340574,24.94271132423974,9.90417593762952,71.9824106054574,-0.0568601175883139,119.94022549765572,380.6277359251482,15.288,0,4.0378850719579615,0.0733074912770248,-5.030146345598586e-09,-0.0001897003375426,-0.0036016400581313,1.2998910145451064e-05,6.497547192965015,13.48534687246773,23.95151226661454,25.39872912911678
0.72,31.222199365097666,131.01042596945783,12.145123685548276,-1.4278134248866017,-6.246747722505221,30.88876751883549,0.6995552108358187,3.1596613356982504,350.79220534145287,25.269784697378164,10.03710090237581,71.98231434889621,-0.0633855162007107,119.93336407782486,390.66654442637326,15.288,0,4.051284598642063,0.0742689716031544,-6.941293839145018e-09,-0.000136471875755,-0.0038312325437957,9.47392422972249e-06,6.407216549000013,13.321888902842744,24.290490655424925,31.057829867554823
0.73,31.22219890940344,131.0104268826424,12.387046103938012,-1.3614906711941634,-6.185781840081433,39.1286281648895,0.7135955543554952,3.157508177344849,422.320318528234,25.54025607328016,10.152359512581848,71.98224798738705,-0.0703192869434436,119.92607323086428,399.06491108491593,15.288,0,4.064632194992851,0.0750641033533209,-8.993204781064066e-09,-8.41187724098868e-05,-0.0040655345808712,5.901919594958115e-06,6.3332729268485775,13.187958228324373,24.570482222028776,39.262305314020715
0.74,31.222198447681407,131.0104278069394,12.63180464414572,-1.2955980327600565,-6.12133537845726,24.417291303558123,0.7283590763277983,3.155329857288211,294.48281347105944,25.828907814091888,10.273226614392328,71.98221093580808,-0.0776695880040563,119.91834437894153,408.1266223660135,15.288,0,4.077913044248344,0.0759126750305701,-1.1187411628032752e-08,-3.269853955043938e-05,-0.0043046297208854,2.320060474510712e-06,6.256431046899086,13.048913544722854,24.86919886058814,24.631092709321255
0.75,31.2221979803046,131.0104287415639,12.87913669555144,-1.2305242457157166,-6.055067374302735,28.540914222786466,0.7436848495993481,3.1530832112572167,330.24688556441487,26.129583645716817,10.397780880605444,71.98220252784783,-0.0854446529916245,119.91016886717163,417.6740607540818,15.288,0,4.091103439265305,0.0767965932303695,-1.3525460975395268e-08,1.7647844043007506e-05,-0.0045482040203682,-1.2667144915320214e-06,6.178380807566419,12.907827664745268,25.180225334606963,28.72418468059782
0.76,31.222197507150167,131.0104296867578,13.129126073786775,-1.167838836762854,-5.99462209012744,30.73798168778292,0.7586227846106526,3.150609086458097,349.27032420986166,26.40951453759532,10.515828876957768,71.98222216788963,-0.0936526902588359,119.90153806028968,426.660988697868,15.288,0,4.104232661851376,0.0776195477559086,-1.600880536780627e-08,6.688789736027426e-05,-0.004796447494395,-4.852350102893552e-06,6.106910945104918,12.77884676544419,25.4695985047524,30.908338104522553
0.77,31.222197028151488,131.01043064264704,13.381817501287482,-1.1066826774437777,-5.936265259957224,28.726791134481285,0.7736125481231986,3.147984494905669,331.7687666960708,26.683932209880616,10.632109969599515,71.98226909977457,-0.1023019928263181,119.8924432417818,435.56323817204935,15.288,0,4.11730215800699,0.0784263055026998,-1.8638870189985136e-08,0.0001149698502765,-0.0050494776606898,-8.426891880416345e-06,6.038179046255199,12.655030824281384,25.75313320635644,28.909112951436143
0.78,31.222196543370828,131.01043160909103,13.637165806354664,-1.0460293989127476,-5.874714950552233,23.556520966851835,0.7893562732507584,3.145311341120048,286.8734378128899,26.976430575355128,10.753959876451612,71.98234252301948,-0.1114009044452044,119.88287564181384,445.1535904621607,15.288,0,4.1302988721759,0.0792862110457578,-2.141706710505293e-08,0.0001618117101142,-0.0053072637844442,-1.1989951057872167e-05,5.966792781811549,12.52649705350866,26.05524856133468,23.778682613223737
0.79,31.2221960528952,131.01043258589783,13.895108541022084,-0.9862444055735556,-5.811793772492352,33.56366679496798,0.805644474891486,3.1425445888804977,373.6203323159534,27.279440388287423,10.87902092478992,71.98244171537793,-0.1209579134425044,119.8728263310718,455.1987563669691,15.288,0,4.143208704043375,0.0801770180910389,-2.434482078343293e-08,0.0002073323782969,-0.0055697721351518,-1.553512693764098e-05,5.8945980820386845,12.396659324369011,26.368090655272372,33.72008864514833
0.8,31.222195556485485,131.0104335735516,14.15581129320329,-0.9290215674803486,-5.7575490542782815,34.00890575191451,0.8210493431518263,3.139487079453519,377.42502064505743,27.54568078184277,10.992594900644889,71.98256580031665,-0.1309817438219999,119.8622861405472,464.1157433588106,15.288,0,4.1560633145625845,0.0809597635079271,-2.7423505345340387e-08,0.0002515127821389,-0.0058373375770746,-1.9028954086430498e-05,5.831770321410726,12.284388384696827,26.64280839883541,34.16337471018561
0.81,31.222195054244324,131.01043457182882,14.419200991268688,-0.8721556945679109,-5.699203364862568,22.074750633851348,0.8373779926572071,3.136387265920004,273.9374926939919,27.83490202052108,11.113256957765696,71.98271384745334,-0.1414810823034049,119.85124594031322,473.9010691753705,15.288,0,4.168856104735575,0.0818100594220535,-3.0654507772105065e-08,0.0002942571119237,-0.0061098692261258,-2.249608926106737e-05,5.765332960744285,12.165563443769097,26.94114878934748,22.312165796514066
0.82,31.22219454636504,131.01043558031773,14.685141149041756,-0.8161644621675859,-5.63971393523024,28.401283652520057,0.8542430038766132,3.133180645088564,328.72500443277005,28.13372009592013,11.236842669999175,71.98288499953728,-0.1524646659535314,119.8396965397626,484.1183313129175,15.288,0,4.181581312960088,0.0826885690886068,-3.40392110414098e-08,0.0003354635212542,-0.0063872141804908,-2.592099889087887e-05,5.698275613784138,12.045723674330771,27.24926573187343,28.586351029386957
0.83,31.22219403282456,131.0104365990557,14.953646739865766,-0.7625784889902109,-5.590118928642116,36.13674812888605,0.8699049494321613,3.1296567394697705,395.68750322465047,28.38658574469723,11.346088049288117,71.98307818824635,-0.1639412856174458,119.82762870254984,492.8472348972974,15.288,0,4.194235272679452,0.0834320260315569,-3.7578893615826686e-08,0.0003750709704726,-0.0066694789880618,-2.924116580120131e-05,5.641729272945472,11.945916309598948,27.50988436735242,36.282448253370454
0.84,31.22219351350616,131.0104376282761,15.224798725441962,-0.7097061567381608,-5.539366215013684,22.25930799169096,0.8860368002267411,3.126020210707606,275.4593748256452,28.647667914196926,11.45782843378177,71.98329244959156,-0.1759195877755702,119.81503333397468,501.9416598174871,15.288,0,4.206809862615402,0.0841996395359859,-4.1274728853793696e-08,0.0004130188500737,-0.0069568118081245,-3.2494952675638685e-05,5.584504506290793,11.84517451694239,27.778901183218004,22.49519628360832
0.85,31.22219298871692,131.01043866733195,15.498381378421907,-0.656921315201463,-5.482024843516137,24.283955092773127,0.9035861865105695,3.12236143610574,292.96093233939376,28.946025571149782,11.581088938392504,71.9835266029186,-0.1884081797818966,119.80190139062934,512.4378110703789,15.288,0,4.219312224114363,0.0850768184554167,-4.5127953092772846e-08,0.0004491859005855,-0.0072488999612901,-3.570757923706868e-05,5.521125276205871,11.732969042625582,28.086224372873737,24.500532318338614
0.86,31.222192458268022,131.01043971660633,15.774526235700604,-0.6058197582690463,-5.430826405569441,30.44208128943588,0.920451773936018,3.1184529982437303,346.2265619465587,29.21548290804657,11.695308849933385,71.98377955153488,-0.2014160217008847,119.78822345104922,522.0088974557784,15.288,0,4.231751027844256,0.0858690625282257,-4.9139687634315616e-08,0.0004835321908869,-0.0075460497488757,-3.8794690845968805e-05,5.464411516526483,11.633664106330134,28.363687500391933,30.615229768907817
0.87,31.222191922180663,131.01044077604683,16.053217997703754,-0.555929807475982,-5.382795799864246,28.3362090334269,0.9370787525305496,3.114348420799661,327.964078366998,29.470496981585608,11.804980752607236,71.98405014569137,-0.2149520229283616,119.773990146768,531.1474032592486,15.288,0,4.244125671204217,0.0866188627921693,-5.331106875317144e-08,0.0005159775645646,-0.0078482832425689,-4.175807673137157e-05,5.4113435272911286,11.541601908128891,28.626212635821403,28.52223737823956
0.88,31.222191380488496,131.01044184557563,16.33443281720431,-0.5065781817131744,-5.331834313272022,24.46973515774504,0.954544104264668,3.110143108548064,294.4828134710418,29.74407305855638,11.920355104762304,71.98433705282713,-0.2290250447586333,119.75919216813344,541.0398977099537,15.288,0,4.256433207541795,0.0874232273554706,-5.7643177798285694e-08,0.0005464361625402,-0.0081555755106081,-4.463241152140473e-05,5.35577607847257,11.445018083089144,28.90775875661921,24.68505789526974
0.89,31.222190833273675,131.01044292501408,16.618112878117277,-0.4578427123174615,-5.278095749580379,26.84897652935651,0.9728708672429672,3.1058239149487656,315.028134248087,30.03631970372457,12.041462301001516,71.98463901707831,-0.2436440643346753,119.7438200755404,551.7089362805003,15.288,0,4.26867264424452,0.0882824758412332,-6.21370959631529e-08,0.0005748226853091,-0.0084678972468496,-4.741101643938565e-05,5.2978600773550815,11.344136043295164,29.208410478903104,27.04552015748513
0.9,31.222190280452768,131.01044401452805,16.904316537959033,-0.4107394931076606,-5.233629934768963,29.66949051233569,0.9897780558432774,3.1012112637395863,339.37814235421445,30.27857630545506,12.14698153602412,71.98495468447064,-0.2588183264207638,119.7278641514108,560.6289835015746,15.288,0,4.280846767862379,0.0889948016142542,-6.679384088916484e-08,0.0006010700648156,-0.0087854227460764,-4.997436235746536e-05,5.249678061263479,11.262360160561371,29.45762238766991,29.847543268479427
0.91,31.222189722096967,131.010445113963,17.1929940838836,-0.3641538632019352,-5.186258388414773,22.542128903105723,1.0075378884113737,3.0964795167625576,277.7421810230789,30.539493225927423,12.258228964661814,71.98528264528292,-0.2745567412967324,119.71131502916766,570.3169196898588,15.288,0,4.2929417534494485,0.0897619810865554,-7.161438110765095e-08,0.0006250863944178,-0.009108089264043,-5.24175288619479e-05,5.198992377301695,11.176090475765418,29.725949671249023,22.77610356225465
0.92,31.22218915841525,131.0104462228765,17.48399894097264,-0.3181719691593721,-5.136168669170526,26.860160037481727,1.0261690976643516,3.0916160076111896,315.02813424806214,30.819004269548305,12.375180837566754,71.98562143207059,-0.290868299550357,119.69416325787724,580.7880502208886,15.288,0,4.304965244997152,0.0905838201452446,-7.659974507270049e-08,0.0006467714516645,-0.0094356690844818,-5.473082289552024e-05,5.145987824295216,11.085564728397696,30.013296888402557,27.056964164418915
0.93,31.2221885893093,131.01044734146777,17.777400586238087,-0.2734537666920731,-5.094323370697815,31.97325728877088,1.0434235382922885,3.086484077280544,359.1625070654728,31.05131425399363,12.47741326100815,71.9859695213751,-0.3077620559966385,119.67639931942388,589.5602594679992,15.288,0,4.316923481277718,0.0912669323382315,-8.175070544590783e-08,0.0006660565746896,-0.0097683778136782,-5.678601609935462e-05,5.101638012882747,11.012263337047782,30.25215373885244,32.13882851464112
0.94,31.22218801466136,131.01044846997817,18.07328266197496,-0.2291193795918914,-5.046100920898157,23.16619559410809,1.0623198103995444,3.08125493436121,283.0687504837787,31.32432430744676,12.59221032419096,71.98632532448778,-0.3252469110093407,119.65801385843056,599.9558746717177,15.288,0,4.328816344784367,0.092069678862949,-8.7067982675954e-08,0.000682861014337,-0.010106351933831,-5.872891591597663e-05,5.051286409990516,10.92749865716259,30.532708917840484,23.39434277030594
0.95,31.222187434772195,131.0104496077734,18.371434069807165,-0.1856110937640889,-4.9994098352762455,30.04393257158944,1.081221232788494,3.075829006687677,342.4218736174873,31.59035816149869,12.704771388413237,71.98668720814682,-0.3433321077702973,119.6389971579622,610.1723876144465,15.288,0,4.340639062940617,0.0928519283397732,-9.255258263413537e-08,0.0006970843928855,-0.0104492903173133,-6.045962188956509e-05,5.002845460437486,10.846762796774678,30.80604882690704,30.22031845958654
0.96,31.22218684933204,131.01045075549715,18.672073869676595,-0.1429746100776404,-4.956986083117018,29.431026836780127,1.0994915173894246,3.070184398435511,337.09533515678345,31.83139327775852,12.809505407037149,71.98705342301032,-0.3620268151589255,119.61933958335176,619.5012792109034,15.288,0,4.35240097107416,0.0935607079458958,-9.820499644685486e-08,0.0007086577162613,-0.0107976504173291,-6.193057985016215e-05,4.9590424216688325,10.775515089080711,31.05372271276476,29.611150847349386
0.97,31.222186258359635,131.0104519131065,18.97518996892872,-0.1009800784758364,-4.913230447217443,18.76392226305614,1.1183647022106349,3.0643703486825262,245.02188719299323,32.08255100912766,12.917310110465136,71.98742230533819,-0.3813404299381218,119.599031250658,629.297569358788,15.288,0,4.364100939014384,0.0942992480848501,-1.0402600011154625e-07,0.0007174880720158,-0.0111514463361496,-6.319517388316338e-05,4.914265499263512,10.70267013104458,31.31172808294518,19.045363843598505
0.98,31.222185662154107,131.0104530799707,19.280572588719373,-0.0595903683328932,-4.8636615652205775,27.4102463114756,1.1389432479033257,3.058402866791281,319.5937466429581,32.37404053561334,13.03755382157466,71.98779198505554,-0.4012822645763579,119.57806237327016,640.7658264651278,15.288,0,4.375731046158347,0.095156342111639,-1.1001654831724869e-07,0.0007234760310451,-0.0115102984672269,-6.429965604987589e-05,4.864025729745025,10.619205471852364,31.610975548443573,27.603851591278044
0.99,31.222185060558427,131.010454256415,19.588333605610988,-0.0190230073906061,-4.825289855395111,29.9725031877214,1.157150297826194,3.052174073694333,341.6609485517054,32.59312938534276,13.135265165342918,71.98816053747925,-0.4218618530936173,119.55642293145432,649.448642672944,15.288,0,4.38730019116505,0.0958006380850274,-1.161771161046605e-07,0.0007265386655612,-0.0118745367240199,-6.500691426628119e-05,4.825327264284487,10.559135911539975,31.836070279837323,30.149721569624166
1.0,31.22218445357013,131.01045544244312,19.8984765688144,0.020938421512026,-4.781278480303574,26.79908566089048,1.1770361484950216,3.0457801581357766,314.2672081822764,32.851494466042794,13.245086386194709,71.98852605750876,-0.4430882676577467,119.53410338545524,659.7661313661436,15.288,0,4.398804890776632,0.0965603857380903,-1.2250826896984004e-07,0.0007265800991416,-0.0122441356374791,-6.552400756339298e-05,4.7813242209204185,10.488766242890474,32.10132437194773,26.997281032102165
1.01,31.222183841375188,131.01045663766166,20.210871583728103,0.0602512162077652,-4.738783506833184,28.03819557559768,1.1968527505208824,3.0391775331479365,324.9203161036979,33.101225254444074,13.35215466788984,71.9888865726705,-0.4649709702981748,119.51109378529904,669.814992195054,15.288,0,4.410243540450052,0.0972947623214165,-1.2901072540449362e-07,0.0007235086084916,-0.0126189173082681,-6.5741039056284e-05,4.739165649396212,10.422419479589946,32.35770723254901,28.227813725470945
1.02,31.22218322389313,131.01045784223822,20.5255773811712,0.0989665083797618,-4.698319015886164,23.361086093134407,1.2164387586442211,3.0323671327289428,284.59063161540416,33.3381738749276,13.455184058411348,71.98923992237397,-0.4875191893960608,119.48738443456952,679.418255750035,15.288,0,4.421618983134618,0.0979915757521101,-1.356848364543348e-07,0.0007172298082875,-0.0129990341365369,-6.563504724947207e-05,4.699358890520125,10.36116499604613,32.6009904580492,23.58845728596986
1.03,31.22218260119404,131.01045905602476,20.84254650335919,0.136976604252158,-4.65425062191506,19.03474828448812,1.2372963344761625,3.0253473784668543,247.30469339049705,33.60221167345007,13.566536936168363,71.98958400927701,-0.5107420868753167,119.46296569812162,690.2018233027737,15.288,0,4.432929178533413,0.098768020712858,-1.4253107986961536e-07,0.0007076495972707,-0.0133844086579845,-6.526924208062427e-05,4.656261392399577,10.293541458807184,32.87192746087696,19.313344382408964
1.04,31.222181973340383,131.01046027888825,21.161736625314948,0.1744945905100973,-4.614498422572663,30.43377470724128,1.2572901396905372,3.018115094394505,345.46563688072297,33.8366915923236,13.668648188007364,71.98991661243532,-0.5346491348009572,119.43782761771992,699.846584027717,15.288,0,4.4441757762274685,0.0994575930205646,-1.4954989523330617e-07,0.0006946749578271,-0.0137750317747272,-6.451766844432618e-05,4.617789318721235,10.23566207772986,33.112631225409146,30.608894788108472
1.05,31.222181340039263,131.01046151144726,21.483357873134103,0.2112978432537422,-4.571956265267207,18.24109921771828,1.2783713682356743,3.010657632935421,240.45625879819983,34.09289489787692,13.777417075208689,71.9902354526088,-0.5592496382566053,119.41196041021487,710.4629003888409,15.288,0,4.45536502214426,0.1002110257288466,-1.5674124849961589e-07,0.0006781904776968,-0.0141713553655551,-6.346163827553405e-05,4.5768259819615045,10.17302237358435,33.37549557539005,18.532026154970737
1.06,31.22218070153361,131.01046275318896,21.80724028688915,0.2473559317201235,-4.5271670342977055,26.109786862851188,1.300450488688456,3.0029569088531813,308.17968365593924,34.36780799440401,13.891906201395708,71.99053814205828,-0.5845533239330337,119.38535385007616,721.9444823737307,15.288,0,4.466492172843872,0.1010194613497538,-1.6410582027292776e-07,0.0006581086473602,-0.0145730609762083,-6.207713032456483e-05,4.533905483143132,10.106639499505128,33.65742197955372,26.314062622359845
1.07,31.22218005770428,131.010464004365,22.13347079453394,0.2831745109677972,-4.489056031216276,30.79920828120831,1.320880995288383,2.995064177130931,348.5093681440308,34.593607866888874,13.991093237814905,71.99082233080962,-0.6105701360957237,119.35799747562056,731.4392184844382,15.288,0,4.477563674924368,0.1016835434571418,-1.7164375098565316e-07,0.000634315472729,-0.0149804307373674,-6.022402206612863e-05,4.497960394339012,10.054974729686382,33.8891897934725,30.972671289026678
1.08,31.222179408448905,131.01046526519443,22.462125153689502,0.3183813625557628,-4.4500176358189405,20.631279391751352,1.341879768835338,2.986937430129289,261.00157857466235,34.8272564648836,14.092634327621065,71.99108542191482,-0.6373096977113518,119.32988117380856,741.3296062348278,15.288,0,4.4885802575163245,0.1023707036781436,-1.793551583465556e-07,0.0006066938831559,-0.0153936205526205,-5.798875221460763e-05,4.461369716370212,10.002348326765224,34.12895187976714,20.88952191568828
1.09,31.222178754048976,131.01046653508283,22.79300612578381,0.3525444931614361,-4.404817631147751,18.951212998829703,1.3651323087108989,2.97850377949376,246.54375332474407,35.11071137529659,14.209528981599584,71.99132492958853,-0.6647817304384865,119.30099471489476,753.4219549888845,15.288,0,4.49953541922434,0.1032042720447016,-1.8724071568211825e-07,0.000575166308745,-0.0158122128895685,-5.542097326036656e-05,4.418875538701206,9.93773129101889,34.41948560320072,19.23235672276689
1.1,31.222178094582222,131.0104678138668,23.12606117619153,0.3863950613830599,-4.363434249806284,38.33353373574984,1.3875353738241645,2.9698557063427624,413.1890617385841,35.365840149675726,14.317563553593514,71.9915381029287,-0.6929959720300163,119.2713278636288,764.3866259552974,15.288,0,4.510431331412214,0.1039545871562173,-1.9530061028879842e-07,0.0005396339667051,-0.0162361859278517,-5.23733609964988e-05,4.380476098019409,9.88193424474526,34.68109584315666,38.47343376929048
1.11,31.222177429640706,131.01046910241564,23.46158421113669,0.4203408530515665,-4.329120899754504,27.981844106670128,1.4079053123671914,2.9610646578059834,324.1593910376397,35.56435894749882,14.40797770049207,71.99172227906847,-0.7219623396099889,119.24087018513562,772.9672504745017,15.288,0,4.521278445012757,0.1045385104514064,-2.035342786663505e-07,0.0004999278333123,-0.0166662522556075,-4.8790525129424434e-05,4.349441094952672,9.84198134943298,34.88498906922543,28.173279909983666
1.12,31.222176759290186,131.01047040059552,23.799532358387783,0.4525461457538845,-4.282755803076115,10.363973812643025,1.4326595388553705,2.951821022661977,172.73281794065943,35.86298424914528,14.529323687354552,71.99187464145236,-0.7516904556687568,119.20961155834098,785.9770719757813,15.288,0,4.532072035820916,0.1054166970102392,-2.1194196623609986e-07,0.0004559406935641,-0.0171022782017999,-4.486977317952745e-05,4.306554738650154,9.777390305960209,35.19087682568594,10.870957358634652
1.13,31.22217608413007,131.01047170713113,24.13948048919648,0.484909960458592,-4.243509623745978,33.03629957669113,1.455327072685528,2.942429950966741,367.5328077900705,36.10416604810097,14.632789848241604,71.99199221155934,-0.7821907916606832,119.17754097104716,796.5581414603603,15.288,0,4.542804945146742,0.1061260409207513,-2.2052477269161457e-07,0.0004076555897336,-0.0175434075622912,-4.038644548197631e-05,4.271074981662178,9.728720501499712,35.43820634308489,33.19899035551714
1.14,31.222175403491903,131.01047302345353,24.481910311729727,0.5173441184724915,-4.209264872516539,18.157034607062524,1.4764995731987225,2.9328887745159444,239.69531773195544,36.30311857887244,14.723093084973463,71.9920721167991,-0.8134727976495489,119.14464847610827,805.3347302130638,15.288,0,4.553491458993232,0.1067112623746468,-2.2928131818027565e-07,0.0003548342474503,-0.0179907790518309,-3.534598517793497e-05,4.240881278494276,9.6916983251935,35.64252339887836,18.451552597963236
1.15,31.22217471786996,131.0104743485145,24.826472608083087,0.5477621908498668,-4.1630578689651925,17.891036863960988,1.5023416302011254,2.9227890867358712,237.41251153546767,36.606389510502346,14.845622095622236,71.99211127231554,-0.8455458554994991,119.11092420415072,818.819127382617,15.288,0,4.564114956227642,0.1076031310247148,-2.3821250843893645e-07,0.0002974608745207,-0.0184435190736096,-2.987741364452712e-05,4.198876759150023,9.629767796103444,35.95303314563197,18.190352566319014
1.16,31.22217402740392,131.01047568201787,25.173070551662885,0.5794660583043638,-4.13051123268602,47.31962502364826,1.5234107130440024,2.9127601382985366,490.0437743845894,36.79089951255792,14.931284878670704,71.99210646154295,-0.8784201584489117,119.07635743246672,827.0667077978561,15.288,0,4.574672310805542,0.1081459143696347,-2.4731830067085776e-07,0.000235440474604,-0.0189015635417086,-2.376639574990141e-05,4.170889839482257,9.598245341741656,36.14264217734739,47.43365750395552
1.17,31.22217333122028,131.01047702584378,25.522335525612217,0.6098360738511628,-4.091861517393441,8.139128353220249,1.5470652117696633,2.9022910698654463,153.70937929486794,37.02948955663448,15.03361160844394,71.99205458548983,-0.912104953129124,119.04093842368304,837.8004851187466,15.288,0,4.58518792659983,0.1088476727697274,-2.5659668114327174e-07,0.0001684453635429,-0.0193663861333699,-1.71133097216786e-05,4.136979360127429,9.55441606603461,36.38728768230877,8.778502980228598
1.18,31.222172630477715,131.01047837751503,25.87344032510068,0.638426338888532,-4.045127484161087,22.85775482007772,1.5742726844087536,2.8912512184536943,280.02501822196746,37.34328991665989,15.159140156702774,71.99195227443512,-0.9466100316445218,119.00465687302125,852.0315213164445,15.288,0,4.5956387796974205,0.1097705195383772,-2.660499701468665e-07,9.665031343539404e-05,-0.0198359445781846,-9.90212533963886e-06,4.095115031178745,9.493577972365696,36.70841050728298,23.093605684428574
1.19,31.22217192465804,131.01047973814835,26.226760984476925,0.6694829876059464,-4.017087936012033,40.15718822355584,1.594263405289374,2.880567574146049,428.4078130529292,37.485611647906815,15.231488096593395,71.99179604129496,-0.9819454529362456,118.96750219622444,858.5092377816233,15.288,0,4.606043499088396,0.110189313323698,-2.75676358957424e-07,1.977371665113328e-05,-0.0203113812818407,-2.033530752520056e-06,4.072403259074653,9.4747554401208,36.85512578395357,40.291923649495295
1.2,31.22217121332073,131.010481108705,26.58262054326868,0.6976628945106486,-3.974553290687928,3.872432040960132,1.620471340238953,2.8690557517340567,117.1843741360236,37.76284903747863,15.345521794821252,71.99158253948517,-1.018120070901284,118.929465064429,871.2251993939395,15.288,0,4.6164033748270965,0.1110047010782092,-2.854746117858818e-07,-6.242919768978432e-05,-0.0207933481652547,6.467485988466601e-06,4.035223213861572,9.424771722260456,37.13902825843953,5.084598133869456
1.21,31.22217049762133,131.0104824867021,26.940190967684224,0.7254806517586428,-3.933092813092456,32.18107392981482,1.646606832933776,2.8572536407343128,359.92343213200894,38.03189881670828,15.456932657779449,71.99130811422589,-1.0551440088831956,118.89053481918704,883.6535452029576,15.288,0,4.6267009966350505,0.111796029790314,-2.954470356120663e-07,-0.0001497285823952,-0.0212798187122836,1.5621430278645672e-05,3.999339229567658,9.377825727727714,37.41457513378592,32.349601724070126
1.22,31.222169776686982,131.0104838740314,27.300106563718927,0.7551950081743917,-3.904297526344032,23.21842433430311,1.6675023769674364,2.845719810654013,283.0687504825761,38.178526771261616,15.53035992870864,71.99096910629213,-1.093026549916606,118.85070168370322,890.4495580553618,15.288,0,4.636957437453578,0.1122275033891789,-3.055905799904136e-07,-0.0002425583687532,-0.0217725537243721,2.5403203478089423e-05,3.9765532363364704,9.360200060066868,37.56571566637388,23.451522636828926
