Time,Latitude,Longitude,Altitude,Angle of Attack,Angle of Sideslip,X-Acceleration,Y-Acceleration,Z-Acceleration,Thrust,True Velocity,Ground Velocity,Pitch,Roll,Yaw,Dynamic Pressure,cp,parachute_deploy_gain,Wind Speed,Mach,omega_x,omega_y,omega_z,Cmq,Angle of Attack(total),Angle of Attack(gust),True Velocity(gust),Acceleration
0.0,31.222216000000007,131.010392,3.000000004412624,0.0,0.0,0.0,0.0,0.0,2.2828121974499247,0.0,0.0,69.99999999623412,0.0,119.9999999935444,0.0,15.288,0,0,0.0,0.0,0.0,0.0,-0.0,0.0,90.0,0.0,0.0
0.01,31.22221599999853,131.01039200000298,3.000000917063271,0.0,0.0,0.0,0.0,0.0,34.24218696174923,5.6867784014017984e-11,5.474503757728832e-11,69.99999999623907,-5.11462587466777e-13,119.99999999354506,1.98023671242804e-21,15.288,0,0,1.6711959335795904e-13,-3.2864878353466853e-19,6.911788849595093e-19,5.692061405548897e-19,-1.2207963390658284e-31,0.0,89.99999999963798,5.6867784014017984e-11,0.0
0.02,31.22221599999723,131.01039200000568,3.000001726319951,0.0,0.0,0.0,0.0,0.0,25.871876237766408,1.1792967899551438e-10,1.1357847798332587e-10,69.9999999962442,-9.857278958451902e-13,119.9999999935458,8.515903470895011e-21,15.288,0,0,3.4656458556383026e-13,-6.67461962436389e-19,1.423015351387225e-18,1.1180834903756764e-18,-5.2121769618584105e-31,0.0,89.99999999924924,1.1792967899551438e-10,0.0
0.03,31.222215999296672,131.01039200143327,3.0001615137527224,20.42851907195769,-0.0001322068636002,9.818784377890063,-1.8165834751072376e-05,3.349840373106596,180.34219359854663,0.0719803307703846,0.0466791637246227,69.99999999761727,-5.644687102050552e-12,119.99999999428556,0.0031725769647335,15.288,0,0,0.0002115314292352,2.887365910600459e-17,-6.363192890082493e-10,9.445520395294416e-12,1.4225756490947804e-13,20.428519072367227,89.57045601315367,0.0719595637648125,10.374485875701161
0.04,31.222215995175432,131.010392009852,3.0014774784435354,10.478950629877588,-4.691398091716e-05,48.68246588147912,4.58896359289121e-06,3.3496783279032343,548.6359724538078,0.322320369556808,0.163487912413173,70.00000000348052,-3.3217170237547406e-11,119.99999999864788,0.0636150598811479,15.288,0,0,0.0009472155618945,1.841005782066488e-15,-1.4140672388353324e-08,2.2872406652853488e-11,1.415611891199262e-11,10.478950629981412,87.98309706092856,0.322313000325918,48.7975699108247
0.05,31.222215983274864,131.01039203423548,3.0066312603651206,5.941869461222631,6.467636109311287e-07,71.20342485914217,5.425866462035373e-05,3.3491146665296405,761.6984298824644,0.8898448477155906,0.3892706660583142,70.00000000249713,-1.3764853130821222e-10,120.00000001125667,0.4848560299734263,15.288,0,0,0.0026150222450589,2.032185861646288e-14,-1.026687748813669e-07,3.620731922696898e-11,2.8375194305090663e-10,5.941869461222718,84.38385864387739,0.8898449493089811,71.28214559568205
0.06,31.222215960666585,131.01039208061363,3.0174424809122447,4.7662805281974086,3.101625919260735e-05,53.16266213635967,0.0001084143246466,3.348187279398636,590.4875390737208,1.5116257295261328,0.6332468789091988,69.99999993088343,-3.554292998962156e-10,120.00000003521876,1.3991759157167718,15.288,0,0,0.004442274853993,1.0687342666664689e-13,-3.7065205241578294e-07,5.0710108319776143e-11,1.740188956348042e-09,4.766280528298096,80.49898897683774,1.511630601548734,53.26799229832499
0.07,31.22221592766803,131.01039214833264,3.033714154293473,4.250896013973048,5.728287693644457e-05,81.18198680793617,0.0001636070905028,3.346908667180805,855.2937749779139,2.1461222018974127,0.8814834600897857,69.99999966287612,-6.786829447594826e-10,120.00000007020148,2.820278433076985,15.288,0,0,0.0063068961150009,3.537071250313013e-13,-9.03504150972598e-07,6.980993451225543e-11,6.022400653577485e-09,4.25089601435835,76.6254728723069,2.1461311998706805,81.25094940822008
0.08,31.2222158824128,131.0103922412357,3.056606289576152,4.002702371903544,8.498918557732573e-05,16.29880142692252,0.0002168757694315,3.345325414459134,241.2171988638848,2.758312572233944,1.1220256871925356,69.9999990167354,-1.1195450547803504e-09,120.0000001181966,4.658746664555659,15.288,0,0,0.0081059668095415,8.975176084649077e-13,-1.8399909100908657e-06,1.0014861018931527e-10,1.576315866029697e-08,4.002702372804325,73.00370166274125,2.758325922303996,16.638573560552384
0.09,31.22221582856777,131.01039235177203,3.083840985720597,3.9706735061840286,0.0001133762379582,50.358996705427295,0.0002610576868751,3.34361721277901,563.0937377043176,3.2635220428487206,1.3258679446187311,69.99999774818232,-1.609163419218683e-09,120.0000001753381,6.521599162192393,15.288,0,0,0.0095906496437214,1.912747785409296e-12,-3.181018271636701e-06,1.4811200443870908e-10,3.2243016752653735e-08,3.970673507800056,70.11864495404187,3.263539851946533,50.4698754239693
0.1,31.22221576586949,131.01039248048403,3.115582414634412,4.0437598974306885,0.0001441284806273,47.80438044095239,0.0002975855318628,3.341833103462886,538.7437595981919,3.6786568690166335,1.498811055058204,69.99999560319826,-2.117017598115536e-09,120.00000024194118,8.286253942878417,15.288,0,0,0.0108106277079332,3.586780232631842e-12,-5.011080199773997e-06,2.2218525003641967e-10,5.7253529559489134e-08,4.043759899994989,67.82665286352078,3.678679508665429,47.92104587676764
0.11,31.2222156950438,131.01039262587707,3.151380127749243,4.078747684575572,0.0001731327836054,37.675952133210814,0.0003360303164755,3.3397664875948747,442.8656393052949,4.116841257544361,1.679638150092437,69.99999229253538,-2.5868931178964993e-09,120.00000031728553,10.377827024853868,15.288,0,0,0.0120983439672291,6.131339803683604e-12,-7.379314257071027e-06,3.309633808535445e-10,9.435398901379565e-08,4.078747688243895,65.48590902621231,4.116868453178414,37.82368846964255
0.12,31.222215616503373,131.01039278710127,3.1909782957114845,4.102854397338882,0.0002009942516015,41.159235519464,0.0003748017127009,3.3374489767673534,475.58594813540446,4.5593272625478285,1.861920446912884,69.99998749092978,-2.9516953188487597e-09,120.00000040099852,12.72852462026672,15.288,0,0,0.0133987031970286,9.784982418374392e-12,-1.0339471850892945e-05,4.838857146189594e-10,1.4641231554452085e-07,4.102854402253695,63.20815755847502,4.55935883465104,41.29432448121301
0.13,31.222215530652623,131.0103929633239,3.234126305579033,4.196532675020069,0.0002319569220401,45.448307039416406,0.0004060793000869,3.3351548011119507,515.9156326236895,4.9136487670476,2.013948080696744,69.999980840879,-3.128660270304386e-09,120.00000049273308,14.783693627975104,15.288,0,0,0.0144399710078639,1.4809813118422162e-11,-1.3943372826009096e-05,6.910036351708695e-10,2.1278873745930665e-07,4.196532681419058,61.45124853897375,4.913685202755711,45.57051536313087
0.14,31.222215437596365,131.01039315432908,3.280759695210399,4.24705320970185,0.0002605731953625,42.32194946194316,0.0004404878232539,3.332542275479861,486.2390860568404,5.305477161977831,2.1788130666660748,69.99997196484235,-3.02353956925431e-09,120.00000059247604,17.23541279222395,15.288,0,0,0.0155914637639269,2.1482862479227108e-11,-1.8247580153607755e-05,9.632121694959858e-10,3.006799527661134e-07,4.247053217680794,59.57372269667616,5.305518092719645,42.452953306821435
0.15,31.22221533744685,131.01039335988563,3.3308094719671835,4.31151870473144,0.0002900050850853,40.88661201567664,0.0004724945383065,3.3298125909400094,472.54218587214,5.669395868327872,2.33408011565948,69.9999604428193,-2.522640288561933e-09,120.00000070022668,19.680868943006818,15.288,0,0,0.0166609387710954,3.0112110152363467e-11,-2.3314113429992355e-05,1.312628193923912e-09,4.105143519223097e-07,4.311518714466251,57.8941983906598,5.669441422220112,41.021978185291196
0.16,31.222215230088544,131.0103935802315,3.384348216236132,4.3426114715014,0.0003172435995402,32.26826318496716,0.0005074209800066,3.3267458377305354,391.1218908297564,6.06842907852008,2.501363540390295,69.9999458232277,-1.4957731010853824e-09,120.00000081624624,22.548675290120947,15.288,0,0,0.0178336085043706,4.102871579468397e-11,-2.921525886435977e-05,1.7530117970432227e-09,5.506256572172065e-07,4.342611483067085,56.120553518927984,6.068478911028166,32.43929788236239
0.17,31.222215115901463,131.01039381458395,3.441140660986627,4.391033342352721,0.0003456111596652,40.83942157721388,0.0005396375028002,3.323585918096783,471.78125980632376,6.435954828525112,2.657811571202433,69.99992761033428,2.1611544134833656e-10,120.0000009402944,25.362501031345488,15.288,0,0,0.0189136876784612,5.4595284825783126e-11,-3.5995124703326526e-05,2.297121527425392e-09,7.194899406436505e-07,4.391033355927268,54.551729806553,6.436009116999122,40.97443810972376
0.18,31.22221499431144,131.01039406412556,3.5015444781625886,4.421966384141996,0.0003728257133158,33.99120827630804,0.0005733523270162,3.320138578189528,407.10156721191447,6.821866157378761,2.820534998519728,69.99990527812525,2.7830226857460744e-09,120.00000107316708,28.495086086143736,15.288,0,0,0.0200477997801145,7.119733150818251e-11,-4.376422964890648e-05,2.963773466724891e-09,9.272311659351272e-07,4.421966399827575,52.96795337785468,6.821924720704861,34.1529729392694
0.19,31.2222148654658,131.01039432855268,3.565469103259566,4.435622179310212,0.0003985969502026,38.44974894831226,0.0006088805684649,3.316369150585594,448.9531328318269,7.229965166303285,2.990837612170392,69.99987824307968,6.4130152556009756e-09,120.0000012149254,32.006142076201286,15.288,0,0,0.0212471184923376,9.126123664889992e-11,-5.258455444951223e-05,3.769581922276951e-09,1.1807481554161512e-06,4.435622197183908,51.36218428924632,7.23002777776581,38.59250573494718
0.2,31.22221472912321,131.0103946083624,3.633065565342216,4.464039236794897,0.0004258208473133,35.23234863317809,0.0006419688648977,3.3125073277014674,418.51563019916136,7.609870098925267,3.151433551832448,69.99984587458803,1.1339590418512364e-08,120.00000136607484,35.457865408931774,15.288,0,0,0.0223635842313151,1.1524769617229707e-10,-6.255588764307276e-05,4.73574971612497e-09,1.4784460733728504e-06,4.464039257063062,49.93133904081356,7.60993698670755,35.38772520829795
0.21,31.222214585692456,131.0103949027128,3.704080976419279,4.492700564168236,0.0004531375560218,33.791122349094366,0.0006745108747306,3.3084578574065406,404.8187610144644,7.984041838296984,3.310027006003265,69.99980750483654,1.7833931354024895e-08,120.00000152646231,39.03019736891398,15.288,0,0,0.0234632040840878,1.4364347485792636e-10,-7.371330178238726e-05,5.878670006197888e-09,1.8277877462767664e-06,4.492700586973251,48.57970444938734,7.984113016977837,33.95270009087149
0.22,31.222214434990143,131.01039521198166,3.7786304261041743,4.482696912991453,0.0004765283125357,41.00526151128077,0.0007125936366723,3.3038241118055174,472.5421858721365,8.424842214746665,3.491441583791081,69.9997624366904,2.6188659896501876e-08,120.0000016965934,43.45858508496969,15.288,0,0,0.0247586325935529,1.7695651610761848e-10,-8.61459738373527e-05,7.220697429083724e-09,2.2539835644035155e-06,4.482696938268107,47.05485223235902,8.424917067638958,41.13814198378509
0.23,31.22221427653676,131.0103955371563,3.8570131471802176,4.52120875197962,0.0005052722270369,33.981210434988384,0.0007427253532816,3.299477755223704,406.3406421461021,8.772059603994606,3.640708727095768,69.99970989178856,3.673836734365799e-08,120.00000187733612,47.11420966369215,15.288,0,0,0.0257790457447997,2.1575332852287747e-10,-0.0001000016800728,8.792543084407232e-09,2.7243292055108484e-06,4.521208780154649,45.90884646115673,8.772138971970431,34.14101956057875
0.24,31.22221411137552,131.01039587608864,3.9385822208046566,4.541022810904754,0.0005319453068744,35.04682238250829,0.0007753962530517,3.2947388055139366,416.2328240017114,9.150307848853876,3.8005824219301054,69.9996490723168,4.986659575138709e-08,120.00000206797436,51.2645054649184,15.288,0,0,0.0268906542248805,2.6061359793239325e-10,-0.0001152273394417,1.0603974751405222e-08,3.2744514413585275e-06,4.541022841996123,44.70862384943491,9.150391406627284,35.20135030803339
0.25,31.22221393935327,131.0103962290939,4.023434109636152,4.568893771922136,0.000559593302598,36.031784200237645,0.0008062575901616,3.289907919377097,425.36408079150686,9.507918886613458,3.953333543912704,69.99957916705505,6.597096316891077e-08,120.00000226909196,55.349379831562615,15.288,0,0,0.0279416177152247,3.1212585763405407e-10,-0.0001319185106212,1.2681108396861592e-08,3.89524684027261e-06,4.568893806118623,43.62057142514222,9.50800678732388,36.18166617805939
0.26,31.222213760810327,131.0103965954715,4.11135870983254,4.602082335536429,0.0005879156381416,39.28477084287258,0.0008356758580754,3.2849727037109586,455.8015834241788,9.84923368105874,4.100450518236201,69.99949932652774,8.549179246833315e-08,120.00000248078769,59.39406363274568,15.288,0,0,0.028944693210805,3.70905788440128e-10,-0.0001501043951905,1.504312357794975e-08,4.591303064220329e-06,4.602082373008647,42.62269093485035,9.849326030631223,39.421875482268625
0.27,31.22221357528594,131.01039697617009,4.202643680770416,4.613060586009234,0.0006135181679439,35.89709019767811,0.0008686551147874,3.2795296434884027,423.84219965987256,10.233956996316635,4.262416736558647,69.99940866939335,1.0889616860972033e-07,120.00000270404888,64.12413589898105,15.288,0,0,0.0300753398890368,4.375905250607044e-10,-0.0001699215617528,1.7723544072688682e-08,5.400430515491478e-06,4.613060626718725,41.54043709315812,10.234053367525096,36.046586524903
0.28,31.222213382897014,131.01039737094905,4.297217869670003,4.637472220109868,0.0006409504828204,41.50308701242082,0.0008987671765185,3.2740938305512564,476.3468732012221,10.585502077141324,4.412951453396104,69.99930623263954,1.3671380935984745e-07,120.00000293930864,68.6046148170642,15.288,0,0,0.0311084864444995,5.128760136278597e-10,-0.0001914410864717,2.074954676347952e-08,6.293307787838925e-06,4.637472264306329,40.59259590512856,10.58560275740773,41.632030010313095
0.29,31.222213183571668,131.01039777995632,4.3951274636084205,4.661051467290702,0.000668413427313,33.166772291305705,0.0009285900385039,3.2684609913891944,397.97031042211177,10.934626370478952,4.5626065075527,69.99919102299745,1.6951234244729953e-07,120.00000318724275,73.20390021772401,15.288,0,0,0.0321345222382408,5.974786571459501e-10,-0.0002147511530817,2.415169438787758e-08,7.292353786491789e-06,4.661051515111477,39.68721067352703,10.93473136461459,33.327430479078885
0.3,31.22221297764788,131.01039820249602,4.496164030797835,4.67738920808443,0.0006948637013137,31.070347716407568,0.0009594303542899,3.262508434165913,378.1859457108711,11.296969808390497,4.71674913244556,69.99906200985109,2.0790827147128777e-07,120.00000344813829,78.13507753203646,15.288,0,0,0.0331994097436777,6.921415397539832e-10,-0.0002398755954106,2.7952310748960505e-08,8.415348357502844e-06,4.677389259583502,38.78299613366914,11.29707895732546,31.241166262192955
0.31,31.222212765310275,131.010398638188,4.600214448593044,4.705962033240798,0.0007231443789168,32.78501719880238,0.0009873826261287,3.256602402856205,394.1656220930212,11.62584679769546,4.859357052850419,69.99891813087739,2.525589428702292e-07,120.00000372249004,82.74980210477561,15.288,0,0,0.0341659498974038,7.976289951844414e-10,-0.0002668664738355,3.2177987783503965e-08,9.634703161260744e-06,4.705962088677043,37.99431391452863,11.62596038894887,32.946362665869216
0.32,31.22221254665888,131.01039908682628,4.707218170029166,4.737803726148638,0.0007520138659097,35.71789406335592,0.0010141679807721,3.2505972735893582,421.55939346242695,11.941813104602115,4.997482780562232,69.99875830567395,3.041587245192407e-07,120.00000401092264,87.30796197795958,15.288,0,0,0.0350945516296529,9.147167814521431e-10,-0.0002957800391206,3.685639522021239e-08,1.0968680747196917e-05,4.737803785694702,37.26340450058724,11.941931230663938,35.86550348154504
0.33,31.222212321715045,131.010399548367,4.817163579142529,4.769062503034851,0.0007809047642572,35.40509079399235,0.0010405751208047,3.2444202544067378,418.5156301991682,12.254323210472004,5.134369497346112,69.99858141662108,3.634475315592405e-07,120.00000431419322,91.93637752385824,15.288,0,0,0.0360129997168586,1.0442057054943983e-09,-0.0003266871879017,4.2018223375551024e-08,1.2431745561306387e-05,4.76906256682136,36.564857489489285,12.254445874705526,35.5534346864103
0.34,31.222212090271665,131.0104000232366,4.930181034159525,4.780611028905149,0.0008066606763921,27.621478223434423,0.001070789075738,3.2376180747328864,345.46563688075645,12.61366809323766,5.287276757124263,69.99838630090622,4.312137432892765e-07,120.00000463335532,97.4062472574577,15.288,0,0,0.0370690895594426,1.1869262389550804e-09,-0.000359704816911,4.77028915537122e-08,1.4089436357939525e-05,4.780611096803404,35.78751462849778,12.6137948032004,27.810577685335634
0.35,31.22221185255069,131.01040051097803,5.046134402313236,4.798984281695708,0.0008335432060839,30.31207759129824,0.0010991584907994,3.230777916926862,370.5765700527033,12.952091879266156,5.4329486563223,69.99817172541168,5.08315993651698e-07,120.00000496907592,102.70202612736855,15.288,0,0,0.0380637002886375,1.3437602863282827e-09,-0.0003948752779854,5.3938932284943375e-08,1.5881846459179583e-05,4.798984353916081,35.083065793608206,12.952222811926786,30.483765762410926
0.36,31.22221160847217,131.0104010117561,5.165075155406734,4.821604897214133,0.0008612278715326,34.30437175036313,0.001126171607428,3.223860052801419,407.8625232777193,13.275445250985316,5.57339092479539,69.99793643096105,5.956560687709275e-07,120.0000053223916,107.8927867958922,15.288,0,0,0.039014025835121,1.51560457854909e-09,-0.0004322977952635,6.07652875422564e-08,1.782084483478332e-05,4.821604973948056,34.43383645921748,13.275580532343024,34.455524899432646
0.37,31.22221135811315,131.0104015254121,5.286957254168264,4.846577132498748,0.0008894248473877,32.527190818373235,0.0011522155958465,3.216830630291428,391.1218908297666,13.588372265697355,5.710196233193666,69.99767911073225,6.941958210977139e-07,120.00000569423372,113.03788133768325,15.288,0,0,0.039933714121899,1.7033893637547327e-09,-0.000472038226172,6.82162942293533e-08,1.991753990040156e-05,4.846577213915926,33.8266787943522,13.588511976225671,32.68587069616543
0.38,31.22221110140473,131.010402052088,5.411825368159469,4.860845502920336,0.0009157412049951,34.002168436401654,0.0011803481502847,3.209316906820057,404.8187610144602,13.927768622098348,5.856028677126921,69.99739842304021,8.049488456588909e-07,120.0000060857448,118.75366350942376,15.288,0,0,0.0409311949253323,1.9080665565652003e-09,-0.0005141902811962,7.633229536564588e-08,2.2237772867818383e-05,4.860845588972125,33.18862860144196,13.927912466390453,34.153289369825735
0.39,31.22221083828058,131.0104025919204,5.539722647747181,4.878703366894194,0.0009428019375075,28.970256425716087,0.0012072614122881,3.201713507857479,357.64062493382744,14.253821405171536,5.997219357654113,69.99709294898405,9.290056253214944e-07,120.00000649814596,124.3773279194684,15.288,0,0,0.0418894655644301,2.130640813817952e-09,-0.0005588642604728,8.515841204391606e-08,2.47353579826784e-05,4.878703457771436,32.596927058116066,14.253969500153564,29.14664179996765
0.4,31.222210568962,131.0104031444537,5.670513572492967,4.894634856581007,0.0009695299317583,27.678050270705608,0.0012342637561248,3.1938580551532487,345.465636880754,14.582328232164944,6.139191549076487,69.99676123840369,1.0675155132196303e-06,120.00000693241124,130.1747887530826,15.288,0,0,0.0428549523798766,2.3721406731535156e-09,-0.0006060893738099,9.4725303650557e-08,2.7443445477017367e-05,4.894634952369575,32.02017441549851,14.582480525570489,27.861715625344775
0.41,31.22221029357684,131.01040370942465,5.804120701275608,4.912341740874609,0.0009966282114753,31.26849001895019,0.0012604548771125,3.185867256117226,378.94687077668647,14.90242469514758,6.2782147936496,69.99640181205204,1.2216821015381648e-06,120.00000738967223,135.95069845284416,15.288,0,0,0.04379572678712,2.6336120651734056e-09,-0.000655916408895,1.0506798902185588e-07,3.0351136389600824e-05,4.912341841725963,31.47670492467964,14.902581245140947,31.430370978204092
0.42,31.22221001218485,131.01040428671024,5.940508923622631,4.939313939301356,0.0010256719899608,35.26757178257003,0.0012839145463499,3.1780151693282845,416.2328240017114,15.190822795591007,6.406291774606373,69.9960131537595,1.3927686006127102e-06,120.00000787119636,141.2617165248548,15.288,0,0,0.0446433491192142,2.916123522082885e-09,-0.000708418157794,1.1622650135153237e-07,3.3414488642979326e-05,4.93931404553034,31.00343746753628,15.19098390777043,35.410470224266255
0.43,31.222209724799715,131.0104048762824,6.07967174811159,4.9612626266970645,0.0010537735926838,30.962113317006445,0.001308212836874,3.1698177471070306,375.9031395134336,15.490783226288316,6.538274421580308,69.99559372580048,1.5820899296213004e-06,120.00000837835503,146.89358636906073,15.288,0,0,0.0455249553384129,3.220755736962958e-09,-0.0007636704316513,1.2824228667639498e-07,3.673139196573399e-05,4.961262738328079,30.52468369275178,15.490948752657172,31.123949095775803
0.44,31.22220943122645,131.01040547854265,6.22173238214527,4.966097549226726,0.0010782929178375,28.52861252425417,0.0013365544389432,3.1607839829940847,353.0750125389216,15.841391967202377,6.687582741466229,69.99514192788102,1.7910356859262952e-06,120.0000089128226,153.61613605966795,15.288,0,0,0.0465554134329439,3.5486273136634446e-09,-0.0008218105279189,1.4117120083189665e-07,4.042193980960149e-05,4.966097665998724,29.97975995131881,15.84156134505782,28.703175603625493
0.45,31.222209131205723,131.0104060940251,6.366854085857144,4.967496676036347,0.0011020746300043,33.26533430072483,0.0013655324617266,3.1513744650293902,397.2093853562869,16.201450133766304,6.840067651240208,69.9946560442132,2.02110605455622e-06,120.00000947645935,160.67632221451086,15.288,0,0,0.0476136469268302,3.9009330539796865e-09,-0.000883024466607,1.550824588722848e-07,4.441939964551661e-05,4.967496797981476,29.43859132690345,16.20162324724436,33.414272833962706
0.46,31.22220882468547,131.01040672283696,6.5150714989974805,4.979811342990372,0.0011283263489117,38.90118610225787,0.001391291658169,3.1421783528026315,449.7140588976434,16.524022307237267,6.979609677077195,69.99413426609983,2.2739077359963235e-06,120.00001007101577,167.13579448477316,15.288,0,0,0.0485617196551135,4.2789352806910864e-09,-0.0009474378844859,1.700349381586217e-07,4.8607848381311685e-05,4.979811470496522,28.97113026832275,16.524199544325686,39.02788191663768
0.47,31.222208511562968,131.01040736518988,6.6664506897408895,4.99018761302762,0.0011542561206916,26.19203043757477,0.0014172231265648,3.1326868758097515,331.0078106302534,16.850423845820885,7.120394019395577,69.99357474865607,2.551118256247809e-06,120.00001069837111,173.80140026679237,15.288,0,0,0.0495210512909737,4.6839178447325455e-09,-0.0010151759416447,1.860892502532192e-07,5.311115086012672e-05,4.9901877461826345,28.51225774766067,16.85060515594833,26.378707085701436
0.48,31.22220819238124,131.01040801996578,6.820656684136644,4.99990796808139,0.0011800429141996,25.79257035754422,0.0014429974102229,3.1229467765711747,327.2031223011574,17.176638583166042,7.261044625132544,69.992975604153,2.854500610951584e-06,120.00001135980132,180.59325983422087,15.288,0,0,0.0504798388292932,5.1172102913426215e-09,-0.0010861580761327,2.032593257298671e-07,5.792397386236874e-05,4.999908106980474,28.067493831117478,17.176823943873536,25.980944638338432
0.49,31.222207867352093,131.0104086867285,6.977560211131663,5.016961044843474,0.0012075644260559,32.49154199759974,0.0014663552477606,3.11333891052596,389.60000969812296,17.474988873306145,7.39205590072104,69.99233494968284,3.1858609249730926e-06,120.00001205698302,186.91857217784653,15.288,0,0,0.0513567412477709,5.580125251070945e-09,-0.0011604130619909,2.2158307419477177e-07,6.295788198644358e-05,5.016961189800062,27.6738260664701,17.475178557082614,32.640361252654365
0.5,31.22220753651373,131.0104093653995,7.137139808910626,5.039877164761186,0.0012365611733031,33.39878726198065,0.0014876410385492,3.103830657499673,397.97031042210494,17.749598649362802,7.514842084012834,69.99165089578354,3.547057197293368e-06,120.00001279183395,192.83641955134803,15.288,0,0,0.0521638779090862,6.0739717162167076e-09,-0.0012380105535818,2.411082347399097e-07,6.822237311093285e-05,5.039877316068216,27.32231404462736,17.749792887937677,33.54270051046206
0.51,31.222207199958817,131.01041005578807,7.299340175311889,5.055163485377455,0.0012637440736966,25.407382842025008,0.0015107051286264,3.093758707665768,323.3984349720841,18.047741518804447,7.645640163890586,69.99092153196291,3.940010194216507e-06,120.00001356627928,199.36593113916376,15.288,0,0,0.0530401800236554,6.600071417729556e-09,-0.0013190035020805,2.6187902020714414e-07,7.390536822723987e-05,5.055163642929587,26.94910708083988,18.04794002725933,25.5950473354654
0.52,31.22220685767487,131.01041075791994,7.464171391329345,5.067462075789425,0.0012901967673426,30.642096210874413,0.001534260424939,3.083324890657461,372.0984511843415,18.353734932389663,7.779063252263307,69.9901448824789,4.3667328517595885e-06,120.00001438245432,206.18034295959004,15.288,0,0,0.0539395588099589,7.1597835850905755e-09,-0.0014034921544845,2.839522490264275e-07,7.997140850503713e-05,5.067462239605668,26.57595971783085,18.353937596023943,30.796833521188294
0.53,31.22220650950463,131.010411472119,7.631733482779017,5.079943351674134,0.0013167321855824,32.20351296228208,0.0015573929552452,3.072689177957918,386.5562464348624,18.65639436767464,7.9112670866854655,69.98931889251294,4.829341950666332e-06,120.00001524275964,213.0329526130305,15.288,0,0,0.0548291444254362,7.754512046633724e-09,-0.0014916394865718,3.074025215022837e-07,8.639426178886547e-05,5.0799435218766185,26.21699183760251,18.656601199482665,32.34977076150127
0.54,31.222206155340675,131.0104121986066,7.80209558069303,5.092189674954764,0.0013432659418911,28.20883581031597,0.0015802205622044,3.061826977671332,349.2703242098436,18.95722127968707,8.042765373203974,69.98844143540005,5.330058537239059e-06,120.00001614965244,219.95488632164987,15.288,0,0,0.0557133495641902,8.385708746260623e-09,-0.0015835892656493,3.323020075242367e-07,9.31973229308624e-05,5.0921898516577055,25.86972695664304,18.957432279407797,28.374516818999012
0.55,31.22220579549391,131.01041293674257,7.975067053360775,5.105656679453162,0.0013701386829307,29.93375720667581,0.0016023063312028,3.0508233900382806,365.2500005919907,19.250801659917304,8.171699796501395,69.98751033719188,5.871196917959394e-06,120.00001710523884,226.81651920650629,15.288,0,0,0.0565762629046605,9.05487758891591e-09,-0.0016793111875828,3.586783110189112e-07,0.000100359617294,5.105656862809461,25.53997738165716,19.25101688079832,30.08882427800738
0.56,31.222205429968184,131.0104136865191,8.150647931608502,5.121390188969578,0.0013976578390497,27.898135449467446,0.0016233152484063,3.039751222345997,346.2265619465787,19.53297548597552,8.29663953865509,69.98652340803,6.455134787498715e-06,120.00001811202132,233.51056271282755,15.288,0,0,0.0574056584667343,9.76351111128804e-09,-0.0017789060126634,3.865935504577048e-07,0.0001078681131019,5.121390379175987,25.231554737293475,19.533195029555465,28.0632509108574
0.57,31.22220505884648,131.01041444776538,8.328789143602673,5.134468649274737,0.0014244860803858,27.57899800609628,0.0016447481005635,3.028308912565617,343.1828296833023,19.82238865278741,8.423991205014978,69.98547842052108,7.0843331066570245e-06,120.0000191725052,240.4773987998188,15.288,0,0,0.0582563348108791,1.0513129816172812e-08,-0.0018824310351008,4.160990576352201e-07,0.0001158348675321,5.134468846347253,24.922503241336376,19.82261241053765,27.74476146221811
0.58,31.22220468210749,131.01041522052537,8.509506359281533,5.141673477168335,0.0014496924746346,36.50522250030624,0.0016676328676744,3.0162633868520543,426.1250058573153,20.131961780057104,8.558194649401953,69.98437309678809,7.761345334447516e-06,120.0000202894054,248.0429854342896,15.288,0,0,0.0591662648427346,1.1305277797941229e-08,-0.0019899919299634,4.472603371607554e-07,0.0001243638394066,5.141673680989539,24.59909817961466,20.13218949721849,36.62962076512298
0.59,31.22220429931025,131.01041600570716,8.693075917367818,5.155033782582245,0.0014767063951937,29.47740161650368,0.0016882115052803,3.004399450639584,360.68438819711065,20.41496153665913,8.683184492016581,69.98320502966966,8.488877211569507e-06,120.00002146604857,255.0611022955365,15.288,0,0,0.0599981032933568,1.2141549243628812e-08,-0.0021019151808907,4.802079293232774e-07,0.0001332026320654,5.155033993519251,24.31221194478178,20.41519349715724,29.630113482228097
0.6,31.222203910691004,131.01041680282435,8.879353704956246,5.1584911909587365,0.0015009215653093,26.12977317046592,0.0017115551300452,2.991618208147203,329.4859594986058,20.73475807604208,8.820741228483495,69.98197175016404,9.269750412227842e-06,120.00002270515644,263.1099531145808,15.288,0,0,0.0609380903726228,1.3023632310658531e-08,-0.0022181899030701,5.149797160752232e-07,0.0001427706649298,5.158491408723583,23.993920018099423,20.73499384025021,26.300472018059665
0.61,31.22220351619914,131.01041761198132,9.068373779622211,5.160093923893734,0.0015245867656578,30.72354893847514,0.0017351627231213,2.978435300816187,372.0984511843297,21.060268960956584,8.96018224492023,69.98067071081671,1.0106908801992424e-05,120.000024009888,271.4308933295956,15.288,0,0,0.0618948774385788,1.3953239454975793e-08,-0.0023389541640747,5.51656984228029e-07,0.0001529040635662,5.160094148509564,23.678161592854504,21.06050844248569,30.867580715482298
0.62,31.222203115963016,131.01041843291384,9.260059135352147,5.175932739684012,0.0015524754022829,38.34999660582522,0.0017537828511555,2.966061356628789,442.86563930529206,21.32549968886632,9.07882238330292,69.97929928450523,1.1003426688997888e-05,120.00002538334772,278.3055633861982,15.288,0,0,0.0626745102970606,1.4932144869667557e-08,-0.0024642795981495,5.903032115161769e-07,0.0001631227772315,5.1759329718759055,23.4301200049502,21.325743551132224,38.464526030016884
0.63,31.222202709783783,131.01041926603142,9.454535766466332,5.186827432840345,0.001578986727749,21.481671186494395,0.0017736055196604,2.953095959955739,286.11251274707894,21.608166052254465,9.203371352506116,69.97785486292936,1.1962424876944611e-05,120.00002682904012,285.7269220510625,15.288,0,0,0.0635053910442997,1.5962078736273453e-08,-0.002594360848182,6.310197667885898e-07,0.0001740065471857,5.186827672522878,23.170520352580365,21.608414078909632,21.683703001541204
0.64,31.222202298303696,131.0104201100117,9.651407715028174,5.190024435658656,0.0016031200066888,21.07791980915536,0.0017955999813824,2.9392784823190468,282.30782441796754,21.92061282116721,9.33808177493542,69.97633477888967,1.2987146125936576e-05,120.00002834969492,294.0441327688538,15.288,0,0,0.0644238005918153,1.7044895145018732e-08,-0.0027289525008267,6.737751026589552e-07,0.0001856768487552,5.190024682570867,22.888620474937543,21.92086463866897,21.28187173868847
0.65,31.22220188150403,131.0104209648934,9.850689228187877,5.203752335053659,0.0016304759677887,37.7265815737878,0.0018137085475924,2.9260694118459782,436.7781447787475,22.186360482753752,9.456658041810568,69.97473636358609,1.4080892513019166e-05,120.00002994881407,301.21108821270843,15.288,0,0,0.0652049688861761,1.8182364753363035e-08,-0.0028681916610585,7.186523334573412e-07,0.0001975126938199,5.203752589786917,22.65678776362701,22.18661659731983,37.839884285448655
0.66,31.22220145883379,131.01042183181107,10.05272478329519,5.214413211485404,0.0016569674353429,31.996496841690973,0.0018324290242286,2.912378788054052,383.51251517160017,22.462329137122712,9.57866244618564,69.97305685470899,1.5253860063598471e-05,120.00003164028168,308.7450280942795,15.288,0,0,0.0660161819666572,1.93762366228038e-08,-0.0030124940196358,7.6582504831127e-07,0.0002100261313862,5.214413474022784,22.420518754557268,22.46258941295878,32.128768474736844
0.67,31.222201030497487,131.01042271034376,10.257390202500492,5.218239670398512,0.0016813201984445,21.83355280719389,0.0018530718775,2.897847666843472,289.1562440103425,22.76531575046969,9.709874637816233,69.97129343521583,1.6496097641943046e-05,120.00003340830402,317.1240802990216,15.288,0,0,0.0669068059671166,2.0628443986154092e-08,-0.0031618564082625,8.15339287277972e-07,0.0002234084724016,5.218239940510394,22.165328475902463,22.76557985162884,22.025021060571763
0.68,31.222200596681034,131.0104236001087,10.464572861223235,5.223476943276885,0.0017061081793211,27.41943724273145,0.0018728574782204,2.883169860074369,340.8999924858462,23.060084525843664,9.838179581813067,69.96944314159438,1.781812143685299e-05,120.00003526631232,325.3831158821401,15.288,0,0,0.0677732838887598,2.194095123737649e-08,-0.0033162974474752,8.672475288149267e-07,0.0002373501709724,5.223477221131682,21.923180843201745,23.060352520689744,27.570604103967778
0.69,31.222200157472976,131.0104245009238,10.674220521078016,5.234484807159494,0.0017327803509196,33.911068995943126,0.0018902559812959,2.868771518977397,401.0140726853634,23.327012026470825,9.956826978275052,69.96750302783275,1.922374507249072e-05,120.00003721823362,332.9528275500038,15.288,0,0,0.0685579424377503,2.331571407284514e-08,-0.0034758746791196,9.216147857943216e-07,0.0002516457832102,5.234485093163718,21.710122065080032,23.327284210971825,34.032197314437084
0.7,31.222199712725605,131.01042541309317,10.886427470339756,5.244658178857594,0.0017592276438403,28.337224824758536,0.001907524539008,2.8540571749119934,349.27032420985284,23.594934657451663,10.075731739623055,69.9654701245379,2.0716870179093552e-05,120.00003926834144,340.63807432996816,15.288,0,0,0.0693455313898135,2.4754659689911002e-08,-0.0036407945238677,9.785563685735503e-07,0.0002666076045036,5.244658473083927,21.500529414567215,23.595210996283715,28.480589122509876
0.71,31.22219926249861,131.01042633649408,11.10115936631621,5.250256306307188,0.0017841679135152,23.17111272556023,0.001925981974315,2.8386420629979687,301.33126406340574,23.88090433142171,10.200761278385231,69.96334137089657,2.230155369929083e-05,120.0000414208506,348.937956576952,15.288,0,0,0.0701861665130355,2.625980544856393e-08,-0.0038111315066464,1.0381460342396453e-06,0.0002824576443595,5.250256608610528,21.28036396288703,23.88118458786216,23.344343156573224
0.72,31.22219880679518,131.01042727112002,11.31841696795,5.250465276194085,0.0018072674664021,28.517324382958183,0.0019459507304306,2.822398172265607,350.79220534145287,24.18931203599336,10.33342821635669,69.96111358379,2.398881756422e-05,120.00004368993469,358.00133733516367,15.288,0,0,0.0710927534443288,2.7833213686937857e-08,-0.0039870142806196,1.1004770730147664e-06,0.0002993028668996,5.250465586363463,21.04687201912917,24.189595920903088,28.656652372396778
0.73,31.22219834561284,131.01042821697624,11.538204611106888,5.261772991351925,0.0018341897350017,36.24904099161797,0.0019615647317376,2.807028252098391,422.320318528234,24.444444607558705,10.447678694561777,69.95878356704944,2.576942948604289e-05,120.00004606075748,365.58536151916354,15.288,0,0,0.0718427700664695,2.9476999592469463e-08,-0.0041685901551722,1.1656512859311847e-06,0.0003162276024942,5.261773310140748,20.860453923861776,24.44473272140849,36.35756295831466
0.74,31.22219787888292,131.01042917420426,11.760567583774872,5.2688261931751565,0.0018596874069273,22.44989391795556,0.0019782681953286,2.790957177966962,294.48281347105944,24.71660695583063,10.56770270639096,69.95634804302604,2.765465025340793e-05,120.00004854782172,373.7634919102902,15.288,0,0,0.0726428435383142,3.119326852633563e-08,-0.0043560048439056,1.2337716492311188e-06,0.0003341168163328,5.268826520447538,20.664349810905303,24.71689907484536,22.622713869256458
0.75,31.222197407001847,131.0104301419878,11.985262816694195,5.2729813265115215,0.0018841432448235,26.32015454030625,0.0019956028061915,2.774292600829061,330.24688556441487,25.00000369440405,10.69151279872972,69.95380370405007,2.9649068688938767e-05,120.0000511555427,382.37540538426776,15.288,0,0,0.0734759412484922,3.298424929910033e-08,-0.0045490947568692,1.3048326466898302e-06,0.0003529204417932,5.2729816621819126,20.46358298878228,25.00029965493281,26.465963773175712
0.76,31.222196929848284,131.01043112057692,12.212368286753788,5.280763375368235,0.0019098920705781,28.38307474226429,0.0020111996422537,2.7577626017079817,349.27032420986166,25.263850536015774,10.808510084690068,69.95114721055936,3.175737445872243e-05,120.00005388899795,390.4805622067682,15.288,0,0,0.074251587181608,3.4852066861339176e-08,-0.0047480856380304,1.378966077508592e-06,0.0003722377148977,5.280763719764744,20.28139800401729,25.26415054116062,28.5167352696143
0.77,31.22219644735921,131.01043211010148,12.44192573678438,5.28909054797372,0.0019358685488662,26.49839859119668,0.0020261582950849,2.7410332094382044,331.7687666960708,25.52246552647572,10.92362071508327,69.94837511510923,3.3991161454503074e-05,120.0000567630176,398.5070521650581,15.288,0,0,0.075011862480961,3.6798908781476906e-08,-0.0049531513209289,1.4562882119983287e-06,0.0003922806939536,5.289090901242048,20.106439562606585,25.522769611996235,26.639789696213718
0.78,31.22219595960608,131.01043311041445,12.673893601570152,5.293382850054127,0.001960383137379,21.650514456049034,0.0020421628794202,2.7235501605696104,286.8734378128899,25.79800828184835,11.044476173254164,69.94548401777685,3.634188633566596e-05,120.0000597634506,407.1490641266716,15.288,0,0,0.0758218954970095,3.882701648654516e-08,-0.0051643494493004,1.5368748109059595e-06,0.0004134136746745,5.293383212030718,19.92250439510269,25.79831621811142,21.821148133385563
0.79,31.22219546668621,131.01043412131548,12.90821430811896,5.295204045604858,0.0019839610441825,31.03957473694716,0.0020586561603739,2.7054642489743235,373.6203323159534,26.08336289205036,11.168629435468771,69.9424703348767,3.882143556872394e-05,120.0000629052642,416.1965539468519,15.288,0,0,0.0766607724943944,4.09386940523753e-08,-0.0053817337951098,1.6208006876485836e-06,0.0004355711048308,5.295204416212745,19.735175182868893,26.08367453192237,31.157258237705573
0.8,31.22219496835592,131.01043514330658,13.14504159024288,5.303565357328758,0.0020100082398803,31.45924856932733,0.002072270940436,2.6879120479739065,377.42502064505743,26.33414141613798,11.280787069716808,69.93933036651167,4.144203366085898e-05,120.0000662042057,424.22842285112,15.288,0,0,0.0773980343858137,4.3136209428518223e-08,-0.0056056612311855,1.7082561525934035e-06,0.0004580463226065,5.303565737128637,19.575438405948848,26.33445714749392,31.57386887948124
0.81,31.222194464728425,131.01043617615463,13.3843080227548,5.3070642231293474,0.0020342409446727,20.26727907168509,0.0020872521816832,2.669452960052584,273.9374926939919,26.6064472465366,11.400275175201768,69.93606048288872,4.419531734742072e-05,120.00006964615808,433.0372249927335,15.288,0,0,0.0781985729208897,4.54219555875704e-08,-0.0058361443088795,1.7993051537200833e-06,0.0004817994715788,5.307064611884224,19.40377610369683,26.606766784356903,20.442323361891123
0.82,31.222193956011857,131.0104372194312,13.625887443228226,5.308327676014683,0.0020575915681397,26.203720785299964,0.0021026351467979,2.650384795713889,328.72500443277005,26.88770931934292,11.522768642958791,69.93265685399697,4.710075422554184e-05,120.00007325664193,442.2308035306594,15.288,0,0,0.079025441057111,4.7798393884809126e-08,-0.0060731399076563,1.8939896583544564e-06,0.0005066527744741,5.308328073650566,19.22928252611196,26.888032525070575,26.337416862334607
0.83,31.222193442187823,131.0104382731743,13.869794005656663,5.317645035151081,0.0020840579943435,33.461492920834324,0.0021145139874156,2.6321227062918124,395.68750322465047,27.125794090676088,11.63030024856304,69.92911572328121,5.015012434670876e-05,120.0000770217746,450.0866486744288,15.288,0,0,0.0797254134038678,5.0267922798016486e-08,-0.0063168212686104,1.9924352365655416e-06,0.0005316357920668,5.317645442363235,19.086454594154137,27.12612145374025,33.564856366491306
0.84,31.222192923138955,131.0104393376257,14.116102995155783,5.324899507756096,0.0021097635758085,20.447561821492528,0.0021267022037003,2.613307149865165,275.4593748256452,27.37154734636397,11.7403880414919,69.92543318803156,5.3363248423803085e-05,120.0000809678461,458.2681079100085,15.288,0,0,0.0804479302863401,5.2832937861138683e-08,-0.0065674031472604,2.0947861625573395e-06,0.0005577196106269,5.324899924503897,18.940916081770347,27.371878747251422,20.61388277899526
0.85,31.222192399192004,131.01044041211273,14.364614819690877,5.32487460173685,0.0021325660900373,22.349034934062,0.0021412109065052,2.593142774425197,292.96093233939376,27.65223117232389,11.862438749020797,69.9216054452326,5.6732036122359686e-05,120.00008508070552,467.7038330421044,15.288,0,0,0.0812731182044306,5.549599213330562e-08,-0.0068247035598225,2.2010309189576354e-06,0.0005854994556485,5.324875027543774,18.77546275406669,27.6525661550219,22.498972343581862
0.86,31.22219187015401,131.01044149703276,14.615451616608793,5.329640913591447,0.0021572704709493,28.127277442561024,0.0021534169014914,2.573366257606737,346.2265619465587,27.905754902169274,11.975043588350747,69.91762840308589,6.02766815386073e-05,120.00008938712573,476.3077637979927,15.288,0,0,0.0820184860020694,5.8259530667209e-08,-0.0070890736427601,2.3113703851791907e-06,0.0006137412682494,5.329641348928951,18.63004360605802,27.90609376542236,28.244750925858693
0.87,31.22219133605172,131.01044259233086,14.868599479915025,5.336493799804966,0.0021828349323046,26.15468165782638,0.0021643369970941,2.5536147602220773,327.964078366998,28.14568983559495,12.082878654169548,69.91349807976806,6.398951766136988e-05,120.000093873749,484.5218271839937,15.288,0,0,0.0827239208997042,6.112609080920924e-08,-0.0073606230534941,2.42591213650106e-06,0.0006427143252471,5.336494244945757,18.49539599005228,28.146032714504237,26.279047274401297
0.88,31.222190796924668,131.01044369792572,15.12403657330538,5.339540862358295,0.0022068565878724,22.531004739404946,0.0021762451124717,2.532976415589464,294.4828134710418,28.40299639929719,12.19662361710133,69.90921030244449,6.789102994750115e-05,120.00009856742268,493.409168439547,15.288,0,0,0.0834804196585014,6.409827079878068e-08,-0.0076394206625023,2.544748145305982e-06,0.0006731400565508,5.3395413170892425,18.35224716398289,28.403343051519304,22.672938689659603
0.89,31.22219025286329,131.01044481363124,15.38170960571762,5.338856241646063,0.0022293131228926,24.76509150896173,0.0021891274896033,2.511416179168353,315.028134248087,28.677771025462025,12.31631721930088,69.90476093146991,7.198061359840722e-05,120.00010346470926,502.98951994182914,15.288,0,0,0.0842882661565766,6.71786975668769e-08,-0.0079255304513765,2.667969067307498e-06,0.0007050888320869,5.338856705738449,18.20098152112476,28.678121205148408,24.89210664978993
0.9,31.22218970378407,131.01044593961953,15.641672894442086,5.346453512975828,0.0022552212142029,27.41296238785017,0.0021982830936949,2.490888004230808,339.37814235421445,28.90562706521069,12.41973892845206,69.90014565334596,7.626544114116265e-05,120.00010857339612,511.0014099961544,15.288,0,0,0.0849582183912409,7.036999514798503e-08,-0.0082192008410134,2.795744151693421e-06,0.0007370063836186,5.346453987239018,18.079960222896293,28.90598131453054,27.52589752868664
0.91,31.222189149765185,131.0104470757297,15.90388063332256,5.350293074208287,0.002279567247456,20.731489074935656,0.002208408184389,2.469440447306288,277.7421810230789,29.150944137254942,12.529105492600342,69.89536024008125,8.074515853193573e-05,120.00011389031414,519.6986901186474,15.288,0,0,0.0856794976178247,7.367484387175714e-08,-0.0085204698107245,2.9281564121862927e-06,0.0007704855398227,5.3502935584167215,17.950496902034526,29.151302210840747,20.87804541292205
0.92,31.222188591030097,131.01044822150175,16.168197325592207,5.35047569484193,0.0023023269097262,24.78386431036176,0.0022194785264769,2.4470430877766445,315.02813424806214,29.413656041254693,12.644403025320551,69.89040027394236,8.544101677349156e-05,120.00011944298836,529.094645658826,15.288,0,0,0.0864519096400973,7.709605413909545e-08,-0.008829219013366,3.0652216678677148e-06,0.0008055798605141,5.350476188750562,17.813031720025958,29.414017689919884,24.904376220936427
0.93,31.22218802747843,131.0104493771425,16.4346875610546,5.358248570174701,0.0023283411124445,29.58172614659692,0.0022270480330709,2.4256628433905023,359.1625070654728,29.63208263040892,12.744329549570832,69.88526137527514,9.035306041566191e-05,120.00012522888758,536.9682217920572,15.288,0,0,0.0870941656868158,8.063625336422991e-08,-0.0091457403662549,3.2071316073537635e-06,0.0008406345397603,5.358249074570716,17.70276147587566,29.63244836537552,29.68101020857956
0.94,31.222187458988348,131.0104505429029,16.70342900628688,5.358609002404699,0.0023511587079021,21.325566922228347,0.0022370310386795,2.4026452614339844,283.0687504837787,29.888628622850494,12.857342431349643,69.8799391197461,9.548848524943408e-05,120.00013125570158,546.292201762646,15.288,0,0,0.087848468134114,8.429811479483787e-08,-0.0094702600091334,3.3540534054679163e-06,0.0008779764532577,5.35860951670044,17.57269867526507,29.8889979419966,21.460487268723394
0.95,31.222186885880184,131.01045171812342,16.97422643459624,5.359709091543884,0.0023742583620152,27.778272066663288,0.0022462141988411,2.3794227799630985,342.4218736174873,30.138599086782136,12.968012369041668,69.87442891805168,0.0001008555278992,120.00013753203326,555.4536839281097,15.288,0,0,0.0885834504012178,8.80846080909054e-08,-0.009802586633208,3.505972759675593e-06,0.0009163627622865,5.359709615886756,17.448244270844295,30.13897203441342,27.879993845423485
0.96,31.222186307828977,131.0104529034733,17.247282904701866,5.364500207059874,0.0023990015145556,27.20651189089076,0.0022533970095154,2.356568821892606,337.09533515678345,30.365108686663472,13.070494824070748,69.86872611585784,0.0001064678330402,120.00014407487568,563.8194056516854,15.288,0,0,0.0892494829908884,9.199834732884462e-08,-0.0101432554111085,3.663196631495993e-06,0.0009553103747645,5.364500741907597,17.33832799779539,30.365485520940062,27.308381697920048
0.97,31.22218572485641,131.010454098908,17.52258743224906,5.367107382996444,0.0024227921963849,17.206757776055245,0.002260912151384,2.3329768279721783,245.02188719299323,30.601074873777275,13.176166201371778,69.86282603823416,0.0001123201386191,120.0001508736972,572.601154856726,15.288,0,0,0.0899433169644483,9.60422264695274e-08,-0.0104923834154971,3.825851924694924e-06,0.0009958447630773,5.367107928238241,17.224811955471676,30.601455445085428,17.364195897173484
0.98,31.222185137281,131.01045530377175,17.799946010618008,5.362649080199743,0.0024433574202638,25.317830281617205,0.0022707277752411,2.307630062739657,319.5937466429581,30.874799388428432,13.294825613494616,69.85672386156601,0.0001184276867345,120.00015794694876,582.8751989987461,15.288,0,0,0.0907481377605581,1.0021938486202492e-07,-0.0108497004662679,3.993890389145837e-06,0.0010389415957134,5.362649635200837,17.092969738002065,30.875183190114395,25.42277899505555
0.99,31.22218454493844,131.0104565184031,18.079462452092688,5.369551919180344,0.0024690756641435,27.723633701158946,0.0022754446265756,2.2842389706016943,341.6609485517054,31.0806557757802,13.38993644315733,69.85041463606109,0.000124805018618,120.0001653125118,590.6578443781666,15.288,0,0,0.0913534851566451,1.0453263264028853e-07,-0.0112156292775691,4.1675776428513805e-06,0.0010811137769089,5.369552485193653,16.998430000764575,31.081043617278464,27.817577508627522
1.0,31.222183947826743,131.01045774280607,18.36114021528415,5.369577834476344,0.0024916551473202,24.75123293007829,0.002282370727581,2.2591052022676363,314.2672081822764,31.3232824438376,13.497692977744483,69.84389360627293,0.0001314472691352,120.00017296031308,599.8993802467727,15.288,0,0,0.0920669156125697,1.089849108079058e-07,-0.0115902511931654,4.3470271987066896e-06,0.0011259158906204,5.369578410886511,16.886101831081596,31.32367383211278,24.854116220117763
1.01,31.22218334614456,131.01045897657187,18.64485927481488,5.370535933277872,0.0025146397863792,25.91644863128587,0.0022883735299493,2.233822645533156,324.9203161036979,31.5577902721304,13.602571065962811,69.83715569240329,0.0001383758158441,120.00018091752924,608.8989387685746,15.288,0,0,0.0927564893762385,1.135793642115475e-07,-0.0119734902164798,4.532279932259925e-06,0.001171821194267,5.370536520266104,16.779420198096208,31.55818527082424,26.012540792979635
1.02,31.222182739807064,131.01046021987517,18.93067417621445,5.373052948686128,0.0025383478648102,21.534349231120306,0.0022931874016032,2.208543162390747,284.59063161540416,31.78029702594366,13.703222608246437,69.83019591335635,0.0001455942302021,120.00018918611354,617.4986721732419,15.288,0,0,0.093410795397246,1.1831891753859533e-07,-0.0123656044071935,4.723532773161372e-06,0.0012186959792302,5.373053546512983,16.68012956399108,31.78069574869375,21.64730618268017
1.03,31.222182128888857,131.01046147256253,19.21854117647137,5.370805834151912,0.0025597909062844,17.48138077027293,0.0022993616510945,2.181856613622158,247.30469339049705,32.02814923337987,13.812584313878428,69.82300927051094,0.0001531032225544,120.00019776369936,627.1505445340687,15.288,0,0,0.0941396051286912,1.2320664743118386e-07,-0.0127666215631224,4.920876666904767e-06,0.0012679960441165,5.370806442377784,16.569536544133225,32.02855132439503,17.61701385606366
1.04,31.222181513457,131.01046273449592,19.508421300536547,5.372755187966192,0.0025832023789892,28.172923337214733,0.0023032677430393,2.155761932090145,345.46563688072297,32.24828980048115,13.912280022989735,69.81559048272175,0.0001609248278822,120.00020667837065,635.783717487995,15.288,0,0,0.0947869692949177,1.2824569412862605e-07,-0.0131766368137446,5.124435140052863e-06,0.0013176778408281,5.372755807142353,16.4739428022922,32.24869556896184,28.255281350173636
1.05,31.222180893198605,131.0104640063197,19.80050916261506,5.3708230618927,0.0026047619525684,16.744584698666912,0.0023081575412676,2.128413239651724,240.45625879819983,32.48874994482506,14.0189453424915,69.80793435293052,0.0001690632116928,120.000215932985,645.2824370510416,15.288,0,0,0.0954940653345522,1.3343889240816857e-07,-0.0135962319473999,5.334569068746695e-06,0.0013697375500834,5.370823691675168,16.36968843173543,32.48915909987564,16.879314706976288
1.06,31.22218026837267,131.01046528750058,20.09464765224405,5.365566181752436,0.0026246720229465,24.125863296424647,0.0023138099506483,2.0998723354682127,308.17968365593924,32.7467021803558,14.131614321940267,69.80003544256297,0.0001775279911047,120.0002255374624,655.551345017449,15.288,0,0,0.096252582873311,1.3878970977172504e-07,-0.0140251895551662,5.551257716464023e-06,0.0014241306577946,5.36556682182961,16.258471270213427,32.74711446287292,24.217075566152722
1.07,31.22217963885175,131.0104665783012,20.390917381829293,5.36740890142839,0.0026480341965314,28.52613746152304,0.0023159751345743,2.0726803621041494,348.5093681440308,32.95863879794246,14.22825786924334,69.79188814551057,0.0001863342338921,120.00023550985524,664.0453628002323,15.288,0,0,0.0968758533405811,1.4430127857295537e-07,-0.0144639213987854,5.774787061801952e-06,0.0014781431252651,5.367409552725969,16.17033901572602,32.95905475018123,28.60133786592685
1.08,31.222179004524733,131.0104678789503,20.689388569864526,5.367540243574391,0.0026705790713353,18.996766040637617,0.0023182202889528,2.044713070830985,261.00157857466235,33.17790205711285,14.32737050684704,69.78348698002804,0.0001954781516443,120.00024584114708,672.8908237848533,15.288,0,0,0.0975206657854044,1.499767864052169e-07,-0.0149127155244016,6.005387906143941e-06,0.0015341024795216,5.367540905992892,16.079760469433086,33.17832155069227,19.10649043960965
1.09,31.2221783656918,131.01046918882992,20.98987887898323,5.359678005556783,0.0026891189386232,17.425520037967303,0.0023231126710758,2.0143130831464098,246.54375332474407,33.44377107778693,14.442602377003904,69.77482621351653,0.0002049858206486,120.00025656462024,683.6986368605628,15.288,0,0,0.0983024747962755,1.558199117253814e-07,-0.0153712425771202,6.242985459448797e-06,0.0015938975451398,5.359678678195613,15.968859630018988,33.44419348360188,17.541556692249046
1.1,31.22217772243533,131.0104705077706,21.292339863079803,5.355678760809195,0.0027095305158309,35.600787950857686,0.0023258164724818,1.984488656276837,413.1890617385841,33.68309313953139,14.548565291672988,69.76590018108291,0.0002148524080664,120.00026766939516,693.4985312883801,15.288,0,0,0.0990062606195261,1.6183404236381625e-07,-0.0158395928012347,6.487711473537915e-06,0.0016541677352372,5.355679444211008,15.871464719459162,33.68351875158939,35.65605563376644
1.11,31.22217707431526,131.0104718366784,21.597043514782413,5.3596198514055455,0.0027339785082085,25.89967873081148,0.0023246368928546,1.956423410685236,324.1593910376397,33.86939900850156,14.636039717008796,69.75670292393139,0.0002251046593622,120.0002791903498,701.1709001361335,15.288,0,0,0.0995542203084357,1.6802210698880877e-07,-0.0163186693620699,6.740114048878326e-06,0.0017135748914201,5.359620546680976,15.79890870089435,33.86982846084122,25.973466390242613
1.12,31.22217642139876,131.0104731754151,21.90395026414593,5.348240465626924,0.0027506327140417,9.387088334250455,0.0023290594700184,1.9237775215267896,172.73281794065943,34.149392440467935,14.756009746226765,69.74722866532814,0.0002357384662331,120.00029111754256,712.7907637438698,15.288,0,0,0.1003775683069697,1.743876778477797e-07,-0.0168084601431886,7.00028498335894e-06,0.001779544957161,5.348241170904836,15.685596500544843,34.14982450884413,9.582189351701977
1.13,31.22217576433061,131.0104745226533,22.21266707906956,5.344927567255209,0.0027713369801052,30.646144499420227,0.0023295606215493,1.8929407673050027,367.5328077900705,34.37558989883777,14.857236932718743,69.73747108671357,0.0002467787951439,120.00030348189298,722.2433334484537,15.288,0,0,0.1010427974618679,1.809351018924894e-07,-0.0173081285669469,7.267887922591955e-06,0.001844528832592,5.34492828363689,15.59728775924941,34.376025219432464,30.704550197889606
1.14,31.22217510238634,131.01047587988472,22.523639544895687,5.347252180092688,0.0027949927551476,16.701406107265356,0.002327086098099,1.863348921694492,239.69531773195544,34.56224392514878,14.944638756232584,69.72742431600574,0.0002582221114609,120.00031627502426,730.0861545250979,15.288,0,0,0.1015918004031892,1.8766689680118321e-07,-0.0178190794661053,7.543744349496082e-06,0.0019092350544365,5.347252908437775,15.526970128548164,34.562682961583924,16.805030216548566
1.15,31.222174436095603,131.01047724601884,22.83654480450216,5.3340079630214285,0.0028104878139964,16.456467885636513,0.0023303170977935,1.8287967620703791,237.41251153546767,34.84651126446945,15.065963782307024,69.71708230042367,0.0002700865998091,120.00032951831498,742.1228544192205,15.288,0,0,0.1024277337145654,1.9458734622533814e-07,-0.0183404617927541,7.82750935060483e-06,0.001981201837219,5.334008701303845,15.415637503415754,34.84695273486275,16.557772745702326
1.16,31.22217376560796,131.0104786207479,23.151293474764028,5.337404564121393,0.0028346731131259,44.0480072063848,0.002326086274422,1.7987944181883369,490.0437743845894,35.019608275249176,15.148540194061868,69.70643858825635,0.0002823928275337,120.00034323675476,749.4913684546691,15.288,0,0,0.1029369001781699,2.017001843415338e-07,-0.0188723206657054,8.119300003057513e-06,0.0020487200251138,5.3374053146842,15.35257325990238,35.02005354466037,44.08472077288582
1.17,31.22217308997094,131.01048000603276,23.46846935955348,5.332512255878132,0.0028545385980757,7.323632048772227,0.0023245310983898,1.7659062883776533,153.70937929486794,35.24330174392096,15.248664197969884,69.69548713983667,0.0002951350297876,120.0003574188296,759.073820325281,15.288,0,0,0.103594797234985,2.0900769478043177e-07,-0.0194164963324606,8.420195696163603e-06,0.0021211932849989,5.332513017700104,15.268835266288471,35.24375013379523,7.5335261868915175
1.18,31.22217241043801,131.01048139929304,23.787307781926582,5.316593701548944,0.0028684013195155,21.125648415890137,0.0023268120947803,1.7290912506305098,280.02501822196746,35.53735200467148,15.37328861145644,69.68422147377478,0.0003083335440706,120.00037208794168,771.7695942033325,15.288,0,0,0.1044595097271921,2.165154544042633e-07,-0.0199707602484809,8.729109222153759e-06,0.0021998808123211,5.316594473104729,15.15702793257612,35.53780257209694,21.19629172659366
1.19,31.222171726443232,131.0104828016939,24.108156494848103,5.324308801261564,0.0028949658736246,37.346246158506,0.0023187467611537,1.6994141879028375,428.4078130529292,35.670924484894826,15.441904686491366,69.6726349166616,0.0003220075962734,120.00038726773484,777.5581574626525,15.288,0,0,0.1048525161430249,2.2422616762299025e-07,-0.0205365702232711,9.046922000305037e-06,0.0022706405262625,5.324309586029083,15.111966931394688,35.67137922507068,37.38489154846321
1.2,31.222171037498867,131.01048421423934,24.43131406788248,5.312606864427869,0.0029110546676362,3.3383750817518347,0.002317859750773,1.6630391619296467,117.1843741360236,35.930724605557685,15.55449156483588,69.66072126192368,0.000336159169751,120.00040295717776,788.9012096479448,15.288,0,0,0.1056165679844836,2.321428999941623e-07,-0.0211148549652369,9.3742495659215e-06,0.0023515093097997,5.312607659700262,15.016086927482489,35.93118187295539,3.7296719444271575
1.21,31.222170344861865,131.010485634342,24.756015293018784,5.301684956862897,0.0029274379271507,29.878545150455857,0.002315972399067,1.6264283068500232,359.92343213200894,36.182840982540576,15.664388000639711,69.64847363447353,0.0003508043521247,120.0004191732789,799.9861208992189,15.288,0,0,0.1063580411902404,2.402715003136364e-07,-0.0217033418367756,9.709953471374626e-06,0.0024339315095919,5.301685762778312,14.924415047513609,36.18330082341466,29.92277952846093
1.22,31.222169647573207,131.01048706397603,25.08284644198414,5.307077379312156,0.0029528285955689,21.48193761526208,0.0023067232641227,1.5950085652144663,283.0687504825761,36.32040450511086,15.734216281372756,69.63588540207941,0.0003659556651057,120.00043593041104,806.0553118080529,15.288,0,0,0.1067627975434188,2.486139586518644e-07,-0.0223042759931892,1.0055372818929006e-05,0.0025107545098708,5.307078198430228,14.878875272992625,36.32086833434181,21.541070106893287
1.23,31.222168946014023,131.010488502357,25.411575968800832,5.294195055347656,0.0029680691941916,8.004170496499283,0.0023041551686169,1.556851292429808,159.79687382222795,36.579329345854525,15.846414522217122,69.62295015902325,0.0003816253669867,120.00045324123236,817.5630491990869,15.288,0,0,0.1075242986512523,2.571747983029118e-07,-0.0229168533936408,1.0410173081779408e-05,0.002598019795664,5.294195884968359,14.786037321341926,36.57979556907311,8.15417295578779
1.24,31.222168240715263,131.01048994839192,25.741882176076977,5.287410953940284,0.0029866144389894,36.31261335370187,0.0022984100854383,1.5204040193568016,418.51563019980495,36.7934248252406,15.942927031254992,69.6096610246191,0.0003978264798388,120.00047111906063,827.1350557585245,15.288,0,0,0.1081540317227397,2.6595870909630734e-07,-0.0235401906954434,1.0773961073441926e-05,0.0026842202149073,5.287411795044703,14.7115496697775,36.79389396153942,36.34442903995347
1.25,31.22216753078636,131.01049140391405,26.074308025190696,5.289938086889366,0.0030104425286212,17.2532932613223,0.0022881571217089,1.4869940376964712,244.26094612573488,36.939010607504606,16.015409435244642,69.596011305734,0.0004145717913928,120.0004895784956,833.6670704635594,15.288,0,0,0.1085823875304619,2.7496769534410135e-07,-0.0241764530322378,1.1148065378041037e-05,0.0027675911108303,5.289938941057978,14.663901127054272,36.93948348671099,17.317253964326945
