Time,Latitude,Longitude,Altitude,Angle of Attack,Angle of Sideslip,X-Acceleration,Y-Acceleration,Z-Acceleration,Thrust,True Velocity,Ground Velocity,Pitch,Roll,Yaw,Dynamic Pressure,cp,cg,parachute_deploy_gain,Wind Speed,Wind Direction,Mach,omega_x,omega_y,omega_z,Cmq,Angle of Attack(total),Angle of Attack(gust),True Velocity(gust),Acceleration
0.0,31.222216000000007,131.010392,3.000000004412624,0.0,0.0,0.0,0.0,0.0,2.2828121974499247,0.0,0.0,69.99999999623412,0.0,119.9999999935444,0.0,1.274,1.0271675151847728,0,0,0,0.0,0.0,0.0,0.0,-0.0,0.0,90.0,0.0,0.0
0.01,31.22221599999084,131.01039200000497,3.000002745347096,0.0,0.0,0.0,0.0,0.0,34.242186961749226,3.465174813755316e-14,2.8705476994166025e-14,69.9999999962611,-2.1713911667908447e-11,119.99999999352175,7.352495975525499e-28,1.274,1.0271659134330349,0,0,0,1.0183245502395064e-16,-3.3305335486039093e-18,7.169286865560398e-18,5.624298769768554e-18,-7.715917190115602e-34,0.0,89.99999999999979,3.465174813755316e-14,0.0
0.02,31.222215999994315,131.0103920000094,3.0000030495639742,0.0,0.0,0.0,0.0,0.0,25.871876237766216,3.8197434737535036e-11,2.4171837235633357e-11,69.99999999628672,-1.1921727947863515e-11,119.99999999353136,8.93414285188691e-22,1.274,1.027164492361118,0,0,0,1.1225230367947217e-13,-6.657678965418802e-18,1.4338573731120796e-17,1.1241821275959074e-17,-1.7010872994127372e-30,0.0,89.99999999975682,3.8197434737535036e-11,0.0
0.03,31.222215999994315,131.0103920000094,3.0000030495639742,0.0,0.0,9.81877837424427,-2.5122800045972096e-05,3.3498614629347925,180.34219359854663,1.2659015405517447e-10,1.1364406173918436e-10,69.99999999631459,-1.6431898037347223e-11,119.99999999352724,9.812605835254651e-21,1.274,1.0271551940870716,0,0,0,3.720154642239108e-13,-9.991600645811728e-18,2.150108433310316e-17,1.6859343782149594e-17,-8.453698244545225e-30,0.0,89.99999999919412,1.2659015405517447e-10,10.374487003414373
0.04,31.222215999994315,131.0103920000094,3.0000030495639742,18.83801224594347,-0.0001111777826462,48.68248476615645,-1.016330065874988e-05,3.3497854396877287,548.635972453808,0.1556173050466994,0.0975908358443652,69.99999999633813,-2.0932768807056278e-11,119.99999999352085,0.0148286043323172,1.274,1.027133720825283,0,0,0,0.0004573186944143,-1.3322134194415637e-17,-1.04744143520903e-11,1.336824254131964e-11,5.0626055458604615e-15,18.83801224625964,89.06236267790787,0.1555998412814392,48.79759610369246
0.05,31.22221599164764,131.01039201704114,3.002326315126219,5.772385609593056,-4.395076213712875e-06,71.20344550265034,4.905512691849684e-05,3.349217396035405,761.6984298824663,0.8326471944351852,0.3620326097059287,70.00000001316391,-1.0866255162484559e-10,120.00000000231074,0.4245281043148827,1.274,1.027093426565204,0,0,0,0.0024469331205246,-5.0245994431125096e-18,-7.32924164976824e-07,2.217344936947165e-11,1.895424184525467e-09,5.772385609594774,84.74112356985832,0.8326465040582279,71.28217104309611
0.06,31.22221596664444,131.01039206837547,3.015081730143309,4.056581213689704,3.169093567502233e-05,53.16249142470188,0.0001203825427859,3.3481235983850643,590.4875390737236,1.657216205300742,0.6755452977614796,69.99999964391398,-3.9285905645317736e-10,120.0000000287861,1.6816755551786196,1.274,1.027050317124926,0,0,0,0.0048701272653724,3.095757869075056e-13,-7.483541766772344e-06,3.074135420506017e-11,3.8518749565858254e-08,4.056581213813337,79.59316473687034,1.657221183301277,53.26781792157489
0.07,31.22221592883117,131.0103921460222,3.034593611434361,4.115662018628709,6.450869598349036e-05,81.18203554989698,0.0001593212642178,3.347059402768047,855.2937749779172,2.099899704220947,0.8579771146174259,69.99999543281565,-8.233801910783518e-10,120.00000006883089,2.700101932075157,1.274,1.027003201295312,0,0,0,0.006171060252819,3.4704292086287e-12,-2.6327204536316785e-05,1.9541142932033486e-10,1.7170712165327165e-07,4.115662019133419,76.90111966094352,2.099909837223217,81.2510043180746
0.08,31.22221588914193,131.01039222747755,3.0542761843835606,3.459696193892355,8.037433511260004e-05,16.298214211652088,0.0002413456836072,3.344878926597744,241.2171988638792,3.051964775152957,1.2149999716613011,69.99998042886442,-1.0128995578004475e-09,120.00000011111383,5.703497661025892,1.274,1.0269597189470347,0,0,0,0.0089689344021769,1.458982438104473e-11,-5.702803872814215e-05,7.043261397829576e-10,5.405702492731987e-07,3.459696194824858,71.30331929508368,3.051977400323993,16.63790856991177
0.09,31.2222158241468,131.01039236098703,3.0886872184095737,4.313676956300389,0.0001337561018991,50.35975918308536,0.0002293282821279,3.344215841840564,563.0937377043203,2.893161298572128,1.191209213966114,69.99994788602814,-7.098432023887522e-10,120.00000018106356,5.125380275808925,1.274,1.026918932011013,0,0,0,0.0085022553945842,3.8672912027154325e-11,-0.0001115933708951,2.016054215232918e-09,1.0027525988343615e-06,4.313676958370176,72.2316578138625,2.893182308931483,50.47067588835877
0.1,31.2222157788302,131.01039245392113,3.109877853389092,4.035124630954496,0.0001457499816535,47.804664812504015,0.0002878217657545,3.341734392237128,538.7437595981891,3.5677148583138303,1.4531247507621967,69.99988403958329,1.9248461973355822e-09,120.0000002323013,7.7939962029572305,1.274,1.0268846934974103,0,0,0,0.0104845969583028,8.579678749070606e-11,-0.0001726817043215,3.984565639703107e-09,1.913455350430327e-06,4.0351246335824245,68.43243098813296,3.567737752667411,47.92132267234452
0.11,31.222215703308,131.01039260899836,3.148841432727305,4.043401107254707,0.0001752764476999,37.67622367577205,0.0003286462930162,3.3392563999062723,442.86563930529127,4.034183355956686,1.6436552022667772,69.99978525353545,7.302513231814865e-09,120.00000031883242,9.96528118825134,1.274,1.026848594915519,0,0,0,0.0118554331868328,1.5870341853361987e-10,-0.0002596204409236,7.232030302688121e-09,3.252930323390323e-06,4.04340111104746,65.92012987243639,4.034210888316708,37.82391391539392
0.12,31.222215627491828,131.01039276462643,3.186995101203875,4.17874459224363,0.0002066711490009,41.15991989399172,0.0003576945202315,3.336766085769504,475.58594813540793,4.361857560629481,1.7865750500940407,69.99963665601238,1.781774420198147e-08,120.00000041104812,11.649831899889556,1.274,1.0268114448194128,0,0,0,0.0128183893919737,2.682972478760441e-10,-0.0003710216542429,1.2215991071490164e-08,5.026311388647148e-06,4.178744597345269,64.21681651392016,4.361890024457652,41.29495143136631
0.13,31.22221554594398,131.01039293200228,3.2277173449026786,4.202734874672792,0.0002327160860324,45.44886120763352,0.0003953741266062,3.333578629398489,515.9156326236897,4.792165672014363,1.9646716520715424,69.99942424225341,3.613383418913551e-08,120.00000051758742,14.061726603124043,1.274,1.026779572895131,0,0,0,0.0140829618979635,4.248908088871395e-10,-0.0005056103199642,1.908859219307828e-08,7.5253154423526356e-06,4.202734881104192,62.048594618540655,4.792202226971676,45.570952718869485
0.14,31.222215454191247,131.01039312033683,3.2737880595608355,4.184830647080848,0.000257138757548,42.32232525579263,0.0004369426767266,3.329727443445437,486.2390860568421,5.269261304374574,2.158791628597544,69.99913473613935,6.515851355725497e-08,120.00000064630268,17.000925061330125,1.274,1.0267449573927567,0,0,0,0.0154850332441425,6.382432869666793e-10,-0.0006690086306358,2.8426433029675884e-08,1.0948547100483978e-05,4.184830654966803,59.74181173116622,5.269301695636157,42.45310707234106
0.15,31.222215353826755,131.0103933263496,3.3242182719560263,4.21963947489699,0.0002846467688673,40.886944113003565,0.0004726792395108,3.325585650885676,472.5421858721398,5.6781946837482895,2.329510773545807,69.99875162806286,1.0876776246115984e-07,120.00000079954532,19.742017654108928,1.274,1.0267115958081523,0,0,0,0.0166867950518804,9.204756288136623e-10,-0.000865746478554,4.08948221429571e-08,1.526771148078443e-05,4.219639484480408,57.84996018384879,5.678239395958187,41.02196629910223
0.16,31.222215247130432,131.01039354534575,3.3775922280208457,4.253495568077899,0.0003118339050386,32.26872905470846,0.0005078415214353,3.32090791922544,391.1218908297597,6.081244877834229,2.4981889727471702,69.99825581174558,1.7187028096464329e-07,120.0000009800088,22.644030778355887,1.274,1.026675762255412,0,0,0,0.0178712695992133,1.2856146928958252e-09,-0.0010961187242953,5.6923362293832417e-08,2.0702404729358337e-05,4.253495579487569,56.06022383757386,6.081293860589489,32.43916312841722
0.17,31.22221513260033,131.01039378041813,3.4348437275053194,4.364838523348639,0.0003448792023946,40.840448242802736,0.0005326487904353,3.3162727284953744,471.78125980632416,6.362544479165355,2.6250789114832647,69.99762801982864,2.5997588617291615e-07,120.00000119506798,24.78723182122683,1.274,1.0266409836796937,0,0,0,0.0186979513961862,1.747791994374917e-09,-0.0013624931601664,7.706724512977917e-08,2.6923621797558364e-05,4.364838536947241,54.85936171416122,6.362598652663785,40.97486885600156
0.18,31.222215014088988,131.01039402363364,3.4935801365785646,4.353948305387995,0.0003681615230806,33.992183768165326,0.0005718025428208,3.310131992647221,407.1015672119096,6.81502088160835,2.810667639293692,69.99684761766231,3.794979223522764e-07,120.00000144728236,28.437950785509614,1.274,1.0266048342046536,0,0,0,0.020027681385988,2.3221419748804155e-09,-0.0016616990447559,1.0147209890543081e-07,3.517105786247627e-05,4.353948320923495,52.99157233768714,6.815078712285162,34.152972512863755
0.19,31.22221488419521,131.01039429023237,3.558399965607869,4.432620772533925,0.0003996774584738,38.45149959021069,0.0005986099513107,3.304145139297767,448.95313283182486,7.1223367465208405,2.946425726785696,69.99589577323147,5.440084577183829e-07,120.00000176148238,31.060341085698347,1.274,1.026566130444714,0,0,0,0.0209308229359413,3.022391489754689e-09,-0.0020041563310821,1.3135864879722746e-07,4.433199397898183e-05,4.432620790516937,51.77883352025967,7.122399527709208,38.59320142454953
0.2,31.222214751373183,131.01039456280608,3.624052454705669,4.443889400961181,0.0004246617145652,35.23432408779927,0.0006337972852267,3.2968110145188256,418.5156301991588,7.530482904611057,3.1167566004785483,69.99474776398331,7.478025600151903e-07,120.00000211715036,34.72195181863731,1.274,1.026529240027363,0,0,0,0.0221302820454282,3.866698391504749e-09,-0.0023849544920781,1.668144671071589e-07,5.57780533277244e-05,4.443889421210987,50.22448880200342,7.530549610317194,35.38822625098952
0.21,31.222214608673173,131.01039485566503,3.6948551453492566,4.493351735844891,0.0004538195602194,33.79371564104691,0.0006629296043866,3.2891790438445727,404.8187610144608,7.868284042829251,3.2629204975089228,69.99338155599101,1.0150082652278477e-06,120.00000255293388,37.906665490338085,1.274,1.0264923657015164,0,0,0,0.0231230169900677,4.871073773182836e-09,-0.0028117605859743,2.089322918608601e-07,6.870935089180403e-05,4.493351758715364,48.992529909481824,7.868355328639073,33.95340801819282
0.22,31.22221446109996,131.01039515850383,3.767700382407304,4.5412639153933885,0.000482649303782,41.008966751568416,0.0006914639179131,3.2808061382386606,472.5421858721387,8.20057841132235,3.4071691679735228,69.9917708347139,1.3454961520984431e-06,120.00000305929996,41.175744234065135,1.274,1.0264494137127138,0,0,0,0.0240995709751246,6.054779813287368e-09,-0.0032829112061357,2.580881224843564e-07,8.3609968899004e-05,4.54126394098788,47.82515604752711,8.2006542256977,41.13999323561041
0.23,31.22221430675399,131.0103954752338,3.843768625625224,4.52371495179584,0.0005047555656171,33.98493478127787,0.0007294889663961,3.2705214710765107,406.340642146096,8.647938096586296,3.5908865300848416,69.98989017772566,1.7539876018835507e-06,120.00000365514876,45.79040229326471,1.274,1.0264133390858623,0,0,0,0.0254142776666487,7.436335125872812e-09,-0.0038001790077148,3.1489825108822685e-07,0.0001020628978177,4.523714979897577,46.31461705147579,8.648017383405135,34.14194053232237
0.24,31.222214142622448,131.0103958120587,3.92493179063287,4.57837522350066,0.0005351929930195,35.051650311058864,0.0007555049947555,3.26053011385611,416.2328240017099,8.954297884844461,3.72617527247482,69.98771316795013,2.25257161141768e-06,120.0000043564586,49.09180568115741,1.274,1.0263750048312463,0,0,0,0.0263146218848643,9.034877387788232e-09,-0.0043732521010013,3.809642748985157e-07,0.00012161410144,4.578375254714954,45.32798984252032,8.954381952763216,35.20297212911011
0.25,31.22221397517227,131.0103961556623,4.0071748888306855,4.6034117733065,0.0005618935542827,36.03738579534623,0.000785606492708,3.249069743648399,425.3640807915084,9.311611941121669,3.8789349536029696,69.98520781816889,2.8559738498748624e-06,120.00000517181904,53.08749562138344,1.274,1.0263373768840591,0,0,0,0.0273647110956883,1.0873791100894836e-08,-0.0049950711786164,4.5609738277273444e-07,0.0001444478241125,4.603411807525074,44.2165428352526,9.311700203154778,36.183554686886296
0.26,31.22221379934012,131.01039651647062,4.09364247475714,4.621386912291471,0.0005881033207375,39.29107511182762,0.0008162761165496,3.236407051295005,455.80158342417656,9.67833954512075,4.034902068846398,69.98234620927953,3.5784678110229355e-06,120.00000612171208,57.350948423913096,1.274,1.0263006300381676,0,0,0,0.0284424679130479,1.2973286442992724e-08,-0.0056712051373577,5.414206381221602e-07,0.0001704578711045,4.621386949630312,43.12063533194282,9.678431924174348,39.42414126789902
0.27,31.222213616776543,131.01039689108487,4.183310605341074,4.617158109135719,0.0006115457810536,35.90419462403674,0.0008503454714941,3.221982799915672,423.8421996598744,10.088790784535757,4.205862468567124,69.97909721779352,4.436165972465058e-06,120.000007221354,62.31798301949865,1.274,1.026260090595354,0,0,0,0.0296487219805601,1.5355910600537293e-08,-0.0064045199323113,6.379142666348734e-07,0.0002006609239367,4.617158149547818,41.94410287616451,10.08888684592241,36.048472443180565
0.28,31.22221342607797,131.0103972823952,4.277051150896916,4.642105655370123,0.0006389739579882,41.51133203546672,0.0008785747638736,3.2071101123224945,476.3468732012228,10.432377224420517,4.35383399240675,69.97542808435722,5.446665372087172e-06,120.00000849080963,66.63429581008447,1.274,1.0262212716723291,0,0,0,0.0306584788590473,1.8045308789081613e-08,-0.0072006835403936,7.469524967369969e-07,0.0002332868227611,4.642105699250441,41.0023231023774,10.432477594215127,41.63503624837164
0.29,31.22221323001776,131.01039768469093,4.373143569786686,4.62134615173668,0.0006600657405645,33.17552944492765,0.0009148746278066,3.1894209319791806,397.9703104221098,10.876662296046485,4.536381530986506,69.9713027936179,6.629751536885327e-06,120.00000994797426,72.43000748232016,1.274,1.026183007522519,0,0,0,0.0319641703260467,2.1067646517035105e-08,-0.0080566154554079,8.688043379161898e-07,0.000272130659453,4.621346198772975,39.83162628795024,10.876765978930557,33.32848872465723
0.3,31.22221302403368,131.01039810736614,4.4744193758467325,4.664362353358112,0.0006905183788532,31.08096762732793,0.0009381960428197,3.172549142946348,378.1859457108735,11.168362145070317,4.66647911311536,69.96668711012893,8.005507138509574e-06,120.00001161892672,76.36634300732833,1.274,1.0261430389738484,0,0,0,0.0328214509167604,2.4447409007156216e-08,-0.0089829108229115,1.0056222251461646e-06,0.0003115527202986,4.664362404357781,39.09908960432563,11.168470611443622,31.242464973103964
0.31,31.22221281503337,131.01039853619727,4.576593712520673,4.700143580504286,0.0007196683316923,32.79732593144512,0.0009620705970519,3.154230688182399,394.1656220930229,11.470279728974068,4.800072153432283,69.96154070456518,9.597499105113692e-06,120.00001352112182,80.55022837857167,1.274,1.0261054058068628,0,0,0,0.0337087616009043,2.8214060606649844e-08,-0.0099686353219717,1.1565909895184251e-06,0.0003550834484269,4.700143635477137,38.36463422765983,11.47039277421126,32.94865339301887
0.32,31.222212598991007,131.01039897947376,4.68216432480395,4.718667719113184,0.0007464384342556,35.7316568886908,0.0009885845337584,3.133859770838664,421.5593934624264,11.808280530415894,4.946054328851105,69.95582953472353,1.14278227255889e-05,120.00001568218067,85.36654007972253,1.274,1.026068246703101,0,0,0,0.0347021168382987,3.2392058795580455e-08,-0.0110163301561155,1.3226102501723267e-06,0.0004039614423012,4.718667778018562,37.5686120062341,11.808397780690962,35.8688218659563
0.33,31.222212376029034,131.0103994369436,4.791055524254013,4.72141404831576,0.0007708346814671,35.42013590291081,0.0010176135371143,3.1111955852784385,418.5156301991632,12.181577273013426,5.104163223586657,69.94951809396906,1.351997394754887e-05,120.00001812674968,90.84831229869296,1.274,1.0260310883392356,0,0,0,0.0357992034445943,3.700677535501642e-08,-0.0121310534481307,1.5051409581878843e-06,0.0004588955105349,4.721414111097893,36.7208578211118,12.181698355442045,35.55651229220977
0.34,31.222212145785647,131.0103999093516,4.903491659547144,4.73024573449122,0.0007962944975467,27.63851074646407,0.0010446307681611,3.0871492806781062,345.4656368807584,12.53557620048282,5.2556261014174765,69.94256797855994,1.5899658158227497e-05,120.000020882338,96.20413272674828,1.274,1.0259901535019136,0,0,0,0.0368395817555172,4.208561016221623e-08,-0.0133180771902383,1.7057647550599631e-06,0.0005184333231541,4.730245801363397,35.94841996438923,12.535701282129995,27.810389570354005
0.35,31.222211909310875,131.01040039453565,5.018822212845608,4.780248518778662,0.0008286678570753,30.332092807652543,0.0010618579815451,3.063967690608957,370.5765700527057,12.774786382148209,5.367579971644358,69.93493776125636,1.8594985713558667e-05,120.00002397748868,99.9096898192772,1.274,1.025950003202184,0,0,0,0.0375426220587071,4.7658312175989686e-08,-0.0145774693288123,1.9252724355785177e-06,0.0005782798420984,4.780248590437683,35.44790728185619,12.774916548990808,30.486451961956565
0.36,31.22221166933814,131.0104008868675,5.135354490370708,4.798132156899578,0.0008554457330409,34.32674769697476,0.0010851169437774,3.0374319611165923,407.8625232777224,13.09301701329486,5.506730645516068,69.92658597246795,2.163521613217148e-05,120.0000274401514,104.94818266210537,1.274,1.0259105142325406,0,0,0,0.0384778908056978,5.3755109608570216e-08,-0.0158991451700967,2.162609490834569e-06,0.0006464142451675,4.798132232978766,34.796094028187134,13.09315138639638,34.46087058603792
0.37,31.222211421355144,131.01040139563804,5.255882891363927,4.797392186816851,0.0008791822061288,32.551601855236584,0.00111162791192,3.0078619428913056,391.1218908297639,13.457513730739372,5.661815946371007,69.91747693543164,2.5047738471809164e-05,120.0000313040604,110.87154396328836,1.274,1.025872170958032,0,0,0,0.0395491312153729,6.040098808671168e-08,-0.0172926678053148,2.420031948898497e-06,0.0007226353721561,4.797392267189059,34.07332166419882,13.457651832357364,32.69027405888565
0.38,31.22221116634284,131.01040191882743,5.379799334000849,4.811698494594017,0.0009057112478668,34.02947987649063,0.0011338447913587,2.9774881690446744,404.81876101445977,13.77554886562956,5.800899861213392,69.90756948297444,2.886339581486796e-05,120.00003560072224,116.17243393848278,1.274,1.02583050512925,0,0,0,0.0404838339452728,6.762496638941508e-08,-0.0187646375218858,2.69955777313946e-06,0.0008026686661094,4.8116985796350695,33.46655348088405,13.775691134419684,34.15949264475229
0.39,31.222210906095896,131.01040245274032,5.505993307722699,4.813508003664984,0.000929862892873,29.00025983045028,0.0011579891265804,2.9442136901860865,357.6406249338268,14.124492165837273,5.950648592462506,69.8968186645841,3.311602501056718e-05,120.00004036395212,122.13093644173792,1.274,1.02579027384009,0,0,0,0.0415093739609825,7.545934774906889e-08,-0.020311592409804,3.0013532510753577e-06,0.0008908380763632,4.813508093268025,32.821616487639595,14.124638228358922,29.149330452482886
0.4,31.222210638473225,131.0104030017851,5.635788650457906,4.841647069358873,0.0009592124397379,27.71178845184976,0.0011749448424961,2.91135549588368,345.4656368807565,14.390874239274588,6.07193451174791,69.8851815212744,3.783947407715338e-05,120.00004563180136,126.77947425345651,1.274,1.0257493418632293,0,0,0,0.0422922854866381,8.39343718693383e-08,-0.021938519432511,3.3271332720311508e-06,0.0009803271643914,4.841647164150728,32.348088166612904,14.391024912012275,27.864299944624147
0.41,31.22221036681104,131.01040355909262,5.767123077463226,4.86553909860892,0.0009876699832274,31.306062598221665,0.0011918093836199,2.876450850006428,378.9468707766882,14.663028799871563,6.195223154320929,69.87261222561014,4.307011032901644e-05,120.0000514391194,131.6183642808765,1.274,1.025708445186429,0,0,0,0.0430921644173401,9.308325447883581e-08,-0.0236371933433427,3.6760977501392174e-06,0.0010761942383903,4.865539198612839,31.87689439156756,14.663183942709727,31.437931330109585
0.42,31.22221008906472,131.01040412887247,5.901259531771367,4.867510642114694,0.0010118258958528,35.308283402190774,0.0012128114559048,2.8374461227958245,416.23282400171047,14.9952917972178,6.33928625560071,69.85906967380902,4.884273094936628e-05,120.00005782486392,137.64909586091787,1.274,1.0256701057426505,0,0,0,0.0440686959134695,1.0293499639582845e-07,-0.0254093547296826,4.049238334851429e-06,0.0011830797791891,4.867510747027452,31.315270489291198,14.995450734457847,35.422111438762386
0.43,31.222209804115888,131.01040471342728,6.038886819939341,4.854590670645608,0.0010330089741511,31.00586934514032,0.0012363751872706,2.794478603999558,375.90313951343126,15.369430568701889,6.497852263156962,69.8445117629242,5.519340856908871e-05,120.00006482835984,144.60167924299955,1.274,1.0256308158337524,0,0,0,0.0451682983415116,1.135186446762958e-07,-0.0272634397889413,4.449073329427772e-06,0.0013010625065656,4.854590780289497,30.70250814963406,15.369592833372094,31.13154422839874
0.44,31.22220951192321,131.01040531284193,6.180028459770617,4.866912332640401,0.0010595850174406,28.57707721036899,0.0012525768202179,2.752165534925872,353.07501253892326,15.659290812546615,6.627318538707029,69.82889155423543,6.216182865383864e-05,120.00007249162944,150.1053167542629,1.274,1.025586171750536,0,0,0,0.0460202245100907,1.2486676023179565e-07,-0.0292060158163984,4.8779154055816594e-06,0.001420032405556,4.866912447705031,30.24619499837236,15.659457251771938,28.709297424144207
0.45,31.222209215425703,131.01040592106523,6.322872201489905,4.881836476567178,0.0010866574689855,33.31904824532484,0.0012669045761511,2.7082028218433374,397.2093853562887,15.934249290371609,6.751662050993672,69.81215834018458,6.97909417564726e-05,120.00008085697964,155.42080512416243,1.274,1.0255397023523487,0,0,0,0.0468283602442113,1.3701614206272197e-07,-0.0312276295846745,5.334643585560923e-06,0.0015449645531859,4.8818365972149325,29.82567893138932,15.934419982127675,33.428929688274074
0.46,31.22220891307435,131.0104065412864,6.468371919199588,4.869610441729251,0.0011078049156487,38.95909776354321,0.0012868374716666,2.6582856015412624,449.7140588976424,16.292139278621757,6.904766425053949,69.79426683863348,7.812149592850748e-05,120.00008996920153,162.4785746623087,1.274,1.02549635315424,0,0,0,0.0478802236363867,1.499987870203256e-07,-0.0333272350234362,5.819761874615242e-06,0.0016858511402973,4.869610567434908,29.29014635640275,16.292313292210977,39.04968351401366
0.47,31.22220860266524,131.01040717804253,6.6178810515614845,4.838450928223533,0.0011247917292402,26.253747818137555,0.0013104398935566,2.6026193242279367,331.0078106302504,16.710658191447514,7.078951441335346,69.77517236812905,8.719457259907165e-05,120.0000998741591,170.9309671061642,1.274,1.025453319323251,0,0,0,0.0491102725711187,1.6384464803343264e-07,-0.0355167087264168,6.3368207228363735e-06,0.0018427306558807,4.838451058652396,28.68386015667837,16.710834873319172,26.382435512333956
0.48,31.222208284201663,131.0104078313267,6.771393590864176,4.869339340099417,0.0011561785713505,25.860860976019296,0.0013165328518772,2.5543454292827983,327.20312230115803,16.911139899671,7.177575416403102,69.75482343794755,9.70562828082882e-05,120.00011062072316,175.0543877818846,1.274,1.0254092882449153,0,0,0,0.0496995461609974,1.7858865391586845e-07,-0.0378054080201581,6.88909442277235e-06,0.0019849793891693,4.869339477030596,28.40887970825325,16.911321511776286,25.986704537635287
0.49,31.22220796480208,131.01040848648364,6.924537656029012,4.881367714530694,0.0011829003785372,32.565703383222065,0.0013261973190012,2.5011623511055703,389.6000096981238,17.169005224738054,7.296160258358563,69.73316318155707,0.0001077573203115,120.000122255028,180.4309832312717,1.274,1.025367445590036,0,0,0,0.05045746454003,1.942747077649401e-07,-0.0401641298712614,7.47069711110948e-06,0.002140948887153,4.881367857509675,28.058569663954906,17.169191034294997,32.66161128464712
0.5,31.222207637929923,131.01040915697027,7.081324512896956,4.862566137860805,0.001202418260511,33.47759680712428,0.0013425340759632,2.4399894027711366,397.970310422106,17.52898693231981,7.450304424940405,69.71015149227495,0.0001193385310595,120.0001348274002,188.0736471953394,1.274,1.0253278572281015,0,0,0,0.0515154948878309,2.109295159784217e-07,-0.0426011733481599,8.084173008518589e-06,0.0023184335011768,4.862566286171007,27.57768313050809,17.529175807738486,33.56639745442473
0.51,31.22220730314019,131.01040984370235,7.24202048914867,4.8479762258125,0.001223054804074,25.49162310288008,0.0013562860883156,2.3767006597692686,323.39843497208153,17.86914397471067,7.597652147346554,69.68574349602717,0.0001318441288964,120.00014838524436,195.4407439266201,1.274,1.025286455263166,0,0,0,0.0525152689856776,2.2858192086249162e-07,-0.0451315948093539,8.734206149830708e-06,0.002503767471626,4.847976379721193,27.13799345359824,17.86933609171003,25.602178740977283
0.52,31.222206962738102,131.01041054193402,7.405210501673173,4.865306299521403,0.0012516517170965,30.733671928447727,0.0013599291289974,2.317711624364424,372.098451184342,18.08534843773428,7.701914987606457,69.65988568649581,0.0001453248538387,120.00016298000436,200.19561780583155,1.274,1.0252426840672306,0,0,0,0.0531507657929359,2.4726951523704535e-07,-0.0477531686556663,9.421346966092632e-06,0.0026812161964639,4.865306460134566,26.8699055233151,18.085545046726228,30.820940596104087
0.53,31.222206619320115,131.01041124632013,7.569307468221277,4.848802699234936,0.0012715119568563,32.301199055744725,0.0013711327835325,2.2490252325653923,386.55624643486095,18.41963113311156,7.8474319110539055,69.6325258319474,0.0001598315062727,120.0001786629144,207.6614205945027,1.274,1.0251993415311351,0,0,0,0.0541332845214831,2.67031759303889e-07,-0.0504479325599339,1.0141887756417996e-05,0.0028848299490111,4.848802865552398,26.45837260670532,18.419830861742675,32.37940050117613
0.54,31.22220626697288,131.01041196903336,7.737918664599091,4.831496690588052,0.0012913635058467,28.31291960103712,0.0013809098107221,2.177242866245296,349.2703242098436,18.75116898748492,7.992112829440902,69.60362200959217,0.0001754082864028,120.00019548734956,215.20067397992847,1.274,1.0251561018460285,0,0,0,0.0551077428911958,2.878941684235108e-07,-0.0532336286085667,1.090122304443916e-05,0.003098869611663,4.831496862756785,26.061835558272342,18.751371834390056,28.396510432451375
0.55,31.222205908994248,131.01041270328463,7.909026079894722,4.829858156700976,0.0013153276235379,30.04529939777837,0.0013847067781156,2.106809907035716,365.2500005919912,19.01522787584637,8.113323699629928,69.57312211246325,0.0001921068626005,120.00021350480982,221.3007393633208,1.274,1.025112921033824,0,0,0,0.0558838924747792,3.0989272306468813e-07,-0.0561100530405476,1.1700476995263424e-05,0.0033122565171532,4.82985833537981,25.75621796122609,19.01543448702631,30.11907478333187
0.56,31.222205546564343,131.01041344664463,8.081909946161325,4.814622724114658,0.0013355665446206,28.01666703118506,0.0013905160388576,2.0302832120056538,346.22656194657776,19.324988278808167,8.250649412137356,69.54097415464405,0.0002099796112633,120.00023276987916,228.56570377712484,1.274,1.0250709539098009,0,0,0,0.056794358727942,3.3306542554193896e-07,-0.0590668110947103,1.2537804018326444e-05,0.0035435397118748,4.814622908920088,25.404202316225007,19.3251980691104,28.090134983491602
0.57,31.222205176947885,131.01041420474334,8.25822918658366,4.807264557295992,0.0013580733738853,27.705412657187487,0.0013923590771554,1.9534524812328569,343.1828296833045,19.59573267535151,8.374431410632893,69.5071321139326,0.0002290750238011,120.00025333725902,235.01103028106965,1.274,1.0250279191823897,0,0,0,0.0575901660954431,3.574421808159361e-07,-0.062110816519577,1.341601677505886e-05,0.003778295597873,4.807264748676519,25.105128384718807,19.595946001018213,27.774194300467894
0.58,31.22220480267612,131.01041497237023,8.43644224524447,4.796552645719353,0.0013795903192799,36.640003237091214,0.0013933182329529,1.8732523483478487,426.12500585731766,19.87186649589076,8.5002387570463,69.47154599614451,0.0002494448230023,120.000275259511,241.67689016279087,1.274,1.024981594484354,0,0,0,0.0584018169598962,3.830586939839005e-07,-0.0652356448064629,1.4334366326853924e-05,0.0040242353894789,4.796552843655403,24.80653539162783,19.87208320143134,36.68785784855776
0.59,31.22220442248133,131.01041575213443,8.617313865993093,4.75166198809004,0.0013913514170695,29.61858851167668,0.0014018629390857,1.7789055439859167,360.68438819710633,20.283031404980164,8.673711050642803,69.43416949578682,0.0002711383856922,120.0002985908427,251.7769601851903,1.274,1.0249386802161349,0,0,0,0.0596103191798736,4.099463177629738e-07,-0.0684417572692351,1.5293890231947073e-05,0.0043092950237456,4.751662191326123,24.36920719652948,20.283249957949664,29.671961383158838
0.6,31.22220403269073,131.01041655159474,8.803055136365547,4.740592059544229,0.0014130738826732,26.28023283542153,0.0013989194750215,1.692946493292442,329.4859594986072,20.5446546137279,8.79471114272922,69.39495604794014,0.0002942053937733,120.00032338844716,258.30939539889715,1.274,1.024891335813742,0,0,0,0.0603793368284324,4.3813073723054214e-07,-0.0717504748649349,1.6301952425628848e-05,0.0045758111425808,4.74059226966763,24.10169163435057,20.54487657885432,26.334705384152198
0.61,31.22220364052781,131.0104173558837,8.989300790451122,4.730829899045655,0.001434996914842,30.88385571439261,0.0013936705973515,1.605349872592541,372.0984511843332,20.791288900535264,8.910568636492588,69.35384684954795,0.0003187053631501,120.00034970841143,264.543791231141,1.274,1.0248423929069768,0,0,0,0.0611043065374599,4.676589508821791e-07,-0.07513688658901,1.735251303307827e-05,0.0048492135386597,4.73083011618877,23.854835289310472,20.79151430932352,30.92555082683527
0.62,31.222203242454707,131.01041817228256,9.178182776460352,4.699577096304874,0.0014505017721833,38.518310050321965,0.0013924040839968,1.50698785817424,442.86563930529206,21.12330104255792,9.056789054693184,69.31079739236779,0.0003446871998502,120.00037760713164,273.05519728668486,1.274,1.0247996097896497,0,0,0,0.0620802018795654,4.985618221717127e-07,-0.0785976350311517,1.8445357640050787e-05,0.0051534740161539,4.699577319647842,23.52681262368487,21.12352888684347,38.54777845059567
0.63,31.222202836560253,131.01041900472384,9.3708390133474,4.646704121971921,0.0014594241795772,21.657127542493203,0.0013950086054287,1.3960444825932463,286.11251274707456,21.54642961502899,9.235545063253934,69.26576508850873,0.0003721980693297,120.0004071374938,284.09884362331496,1.274,1.024756158874558,0,0,0,0.0633238907472829,5.308634823719185e-07,-0.0821458271419176,1.958559018863366e-05,0.0054939108952599,4.6467043506551855,23.118540239250976,21.546658860843017,21.702076295489466
0.64,31.22220242197097,131.01041985500433,9.567779780963464,4.655260373906368,0.0014875616381693,21.26551502794491,0.0013781039458019,1.3093947345535524,282.3078244179702,21.67936404356861,9.311535444552488,69.21869983824688,0.0004012911993093,120.00043835785809,287.6098127866908,1.274,1.024708534665538,0,0,0,0.0637147200141548,5.645923326311727e-07,-0.0857957622243173,2.077910291305736e-05,0.0057733109819915,4.655260611054004,22.997848784229483,21.679597709204295,21.305789022559054
0.65,31.222202008761737,131.0104207023913,9.762977892200457,4.64446903293422,0.0015092823173388,37.92467839937346,0.0013647571465185,1.2129851141372447,436.7781447787504,21.89039146235328,9.415408902762003,69.16954332673205,0.0004320269654975,120.000471322595,293.2307686781931,1.274,1.0246641738210605,0,0,0,0.0643350622081308,5.998052470803215e-07,-0.089497099125741,2.2011114679099008e-05,0.0060808868583748,4.644469277627523,22.80422156655781,21.89062853986527,37.94407155861881
0.66,31.222201587905047,131.01042156546148,9.961824911626705,4.578668472751354,0.0015134010505185,32.20162456768998,0.0013644051281875,1.0869652304129576,383.5125151715984,22.352354685486723,9.608991385692676,69.11826612126171,0.0004644420110091,120.00050608130864,305.7318966816527,1.274,1.0246195561629028,0,0,0,0.0656929026406374,6.365167832531859e-07,-0.0932615149370997,2.3285826492169047e-05,0.0064702623394266,4.578668722333233,22.3830238530942,22.35259240996781,32.21996461935027
0.67,31.22220115533153,131.010422452587,10.166717913416496,4.546558544584856,0.0015287069904519,22.048912478067983,0.0013521596787241,0.9744382749174056,289.15624401033847,22.645648988658788,9.742683823470305,69.06483208858694,0.0004985775944597,120.00054268333972,313.8016250664985,1.274,1.024572383541697,0,0,0,0.0665550396762615,6.747335358924524e-07,-0.0971305457002515,2.4618264721471005e-05,0.0068269732168913,4.546558801046781,22.12495482297185,22.64588911739129,22.070434369206733
0.68,31.22220072089953,131.0104233434825,10.371791640188428,4.537163550798998,0.0015513467895504,27.64703110097711,0.0013314055100708,0.8727674979339788,340.89999248584934,22.815578784241232,9.832415966659822,69.00918126878673,0.0005344952683476,120.00058118494655,318.5224694445963,1.274,1.0245245285832842,0,0,0,0.0670546145561932,7.145075915669469e-07,-0.1010733906471348,2.5999828529750395e-05,0.0071572695264429,4.537163815462628,21.979820643031022,22.815822469225065,27.660803559847754
0.69,31.22220028315,131.0104242411504,10.577918886340187,4.498604833600009,0.0015640425425174,34.14849854193182,0.0013164611416977,0.7530033675121843,401.0140726853658,23.11973201715491,9.970536992626243,68.951271372463,0.0005722418932957,120.00062163894908,327.06501276851174,1.274,1.024479631064582,0,0,0,0.0679486739651409,7.558764026932139e-07,-0.1050666621061541,2.742334392644222e-05,0.0075390770444266,4.498605104928573,21.720322417676293,23.119977696382957,34.15679973991817
0.7,31.22219983648837,131.0104251571004,10.788390798283007,4.444800334436892,0.001571581101797,28.583521440941176,0.0013031292095949,0.6210663123629555,349.270324209851,23.49311868784975,10.133927573311013,68.89107351876277,0.0006118519820419,120.0006640895184,337.70777936966687,1.274,1.0244351749185203,0,0,0,0.0690462178095987,7.988478042148372e-07,-0.1091316040970456,2.8897072663657448e-05,0.0079570646120502,4.444800611717076,21.408222781530924,23.49336555123192,28.590267977534623
0.71,31.222199382436617,131.01042608820006,11.002289444492748,4.411293614659908,0.0015861993960981,23.428572832575075,0.0012817173916789,0.4995663069161911,301.3312640634036,23.750794981195725,10.255929783846218,68.82854664046303,0.000653370145015,120.00070858416385,345.14938251440464,1.274,1.0243880468141104,0,0,0,0.0698036962443701,8.434425085995924e-07,-0.1132780440891605,3.042599341899112e-05,0.0083498109967943,4.411293899276536,21.19838711941868,23.751044140814187,23.43389837626425
0.72,31.22219892510452,131.0104270259942,11.217197162749766,4.384725987189734,0.0016031555925811,28.787251054176696,0.0012561219835825,0.3816499886217101,350.7922053414578,23.95903337143708,10.360306494003218,68.76364403436916,0.0006968460502332,120.00075517321072,351.2209566295952,1.274,1.024337302174265,0,0,0,0.0704158805605686,8.897013908513448e-07,-0.1174832042920155,3.2003328530505275e-05,0.0087355220769983,4.384726279692388,21.03170960164924,23.959285194528658,28.789780852723673
0.73,31.222198463078687,131.01042797339028,11.433940634749792,4.336443850168035,0.0016121973824889,36.528875797953134,0.0012338573530036,0.2469514607612555,422.3203185282354,24.27302474212673,10.50335047849962,68.69633205921318,0.0007423174391155,120.00080390028955,360.479518768692,1.274,1.024292465384646,0,0,0,0.0713388793286993,9.376507590291984e-07,-0.1217358428026004,3.362590378665514e-05,0.0091701642865918,4.336444149285834,20.783317199713203,24.273277985499345,36.529710560154484
0.74,31.222197992801217,131.0104289377061,11.65457873273908,4.270552717176505,0.0016147618405794,22.73845113636868,0.0012134102754252,0.0960694945584763,294.4828134710563,24.67600690621209,10.679225398689727,68.62658351921779,0.0007898154494439,120.0008548044138,372.5403875960894,1.274,1.0242470321640116,0,0,0,0.0725234320641352,9.872970684823277e-07,-0.1260517060797177,3.530066125964135e-05,0.0096527078175179,4.270553021894055,20.471553891698026,24.67626055240884,22.73865411367118
0.75,31.2221975140932,131.0104299193081,11.879191639468612,4.245654833547876,0.0016326955605016,26.62185988362346,0.0011797502874157,-0.0238567225961511,330.24688556441737,24.83403745159268,10.766105112756616,68.55436218969686,0.0008393789695555,120.00090792947408,377.3191886257161,1.274,1.0241984712898409,0,0,0,0.0729880729406309,1.0386535529066064e-06,-0.1304433986661059,3.7033994601890176e-05,0.010052767059227,4.245655146905193,20.351828360933453,24.834293914811564,26.62187059915783
0.76,31.222197035730545,131.0104309001462,12.10269553429701,4.196463192988383,0.0016410964473451,28.695413318614687,0.0011499295431962,-0.1642921009808583,349.2703242098581,25.118826947573087,10.899658933861929,68.4796246059261,0.0008910536641663,120.00096331723316,386.0144968999434,1.274,1.0241522053390697,0,0,0,0.0738252650202199,1.0917752298071912e-06,-0.1348644511065611,3.880949340025262e-05,0.0105124442033838,4.196463513303324,20.13839820280711,25.119084730400196,28.69588365502815
0.77,31.222196547893645,131.0104319004157,12.330754875803896,4.143301499783722,0.0016480824383945,26.82105384896749,0.0011184410116503,-0.3095937816470847,331.76876669606884,25.41518812013541,11.037891097382564,68.40235396595595,0.0009448597572611,120.00102100225122,395.16825866579273,1.274,1.0241065975906936,0,0,0,0.0746964748802566,1.1466569561502828e-06,-0.1393339348222459,4.063533386697043e-05,0.0109887319546259,4.143301826991231,19.920186414513324,25.415447000319425,26.822840623799685
0.78,31.222196054581804,131.01043291189043,12.561042395185344,4.094398427716197,0.0016566346011895,21.98441816968692,0.0010833095407838,-0.4519455484051404,286.8734378128874,25.67308603077929,11.162378470065192,68.32252251267703,0.0010008269227159,120.00108101461475,403.2198873639742,1.274,1.0240588105546735,0,0,0,0.0754546454310759,1.2033140010610044e-06,-0.1438502997808834,4.251245450889277e-05,0.0114597882394925,4.094398762290979,19.73323031512902,25.673346254333893,21.989063149937586
0.79,31.22219555637636,131.0104339333743,12.793217912311734,4.053372044035694,0.0016682609085759,31.385972324996448,0.0010439339827751,-0.5865572061847202,373.6203323159581,25.867886972613995,11.26390200137702,68.24010338402623,0.0010589838665256,120.00114338724129,409.353038170638,1.274,1.0240083170932772,0,0,0,0.0760273755154852,1.2617672619401903e-06,-0.1484030767904358,4.443790420737316e-05,0.0119119242200672,4.053372386768835,19.59328890496376,25.86814902242469,31.39145280536357
0.8,31.22219505432829,131.01043496270583,13.026675946618772,3.98416993956882,0.0016682638981667,31.81443731133925,0.001008427007971,-0.7504830861075237,377.42502064505805,26.22739180746468,11.426965580368057,68.15507571539398,0.0011193530247748,120.0012081459994,420.8008229195256,1.274,1.0239625010683884,0,0,0,0.0770841862678744,1.3220372072934412e-06,-0.1529774961334521,4.6406695151479446e-05,0.0124494732976708,3.984170288275988,19.34089163996291,26.22765385774498,31.82328781437571
0.81,31.22219454211145,131.01043601289135,13.26498873799926,3.919533473896605,0.0016701987806975,20.632235720407326,0.0009689723156695,-0.9111661604399252,273.9374926939922,26.54634360648608,11.575525034707477,68.06742711956431,0.0011819478493976,120.001275315191,431.0879227497143,1.274,1.0239149950770308,0,0,0,0.0780218182655349,1.3841063143293311e-06,-0.1575981796610204,4.84303579388949e-05,0.0129811836706935,3.919533829195412,19.12116919203392,26.54660596069701,20.65234552135157
0.82,31.22219402501379,131.0104370730573,13.505138997188345,3.878091457937432,0.0016817796423655,26.58159721650764,0.0009221079813911,-1.044916772509392,328.725004432774,26.695749600318354,11.661153721950765,67.97713107848531,0.0012467954678898,120.00134492161608,435.9439525287141,1.274,1.0238644186635044,0,0,0,0.0784611469668273,1.447995383899462e-06,-0.1622535262086566,5.050582420998087e-05,0.0134395471347039,3.878091822042016,19.017583438183056,26.696013773646783,26.602127029476446
0.83,31.22219350638533,131.01043813631648,13.745245327439884,3.813006825012211,0.0016830144574259,33.84859819354941,0.0008778163028828,-1.205655742253963,395.6875032246518,26.98988730140496,11.80145008744342,67.88416772501827,0.0013139165727884,120.00141698743953,445.59319065958766,1.274,1.0238188483711983,0,0,0,0.0793258583305734,1.5137414090177608e-06,-0.1669098663098448,5.261966712302859e-05,0.0139772404740216,3.813007195894643,18.81967748815432,26.99015166869769,33.87006356958527
0.84,31.222192978136,131.01043921929923,13.989829568003358,3.7349063420646575,0.0016785889763657,20.84228921785834,0.0008331852396104,-1.3836448263780123,275.45937482564227,27.36303708219025,11.972140428730349,67.78853650640812,0.0013833117100975,120.00149152555252,457.9887397940665,1.274,1.0237739661568126,0,0,0,0.0804228031258149,1.581318427938047e-06,-0.1715875850789411,5.478183151444261e-05,0.0145672749350976,3.7349067187365614,18.57466075591561,27.36330075433004,20.88816635180346
0.85,31.22219244207444,131.0104403182856,14.237843188448268,3.6868976284366313,0.0016874737229214,22.75620065441475,0.0007804318815548,-1.5210175237303418,292.9609323393965,27.50519699401072,12.056049024644132,67.69022517001756,0.0014549929507422,120.0015685508832,462.74888190064325,1.274,1.0237227741398531,0,0,0,0.0808408520550376,1.6507174642441936e-06,-0.1762950244081152,5.699797828276356e-05,0.0150443222381092,3.686898014077393,18.479284602988947,27.50546206176324,22.806976194589126
0.86,31.222191906355008,131.01044141651442,14.4847570817307,3.6237357468924256,0.0016892202601849,28.54429022860793,0.000728322862428,-1.676840845015152,346.2265619465616,27.740824473885564,12.175796462960468,67.58921667079478,0.001528977875504,120.00164807774166,470.70009868330953,1.274,1.023674789281455,0,0,0,0.0815336147239259,1.7219872711032888e-06,-0.1809881844659371,5.9249453360171454e-05,0.0155767590457434,3.6237361400859194,18.326165476992013,27.74108981598351,28.59350101692634
0.87,31.22219136224744,131.01044253192904,14.73539578829854,3.548391130134081,0.0016853587133617,26.579454740012096,0.000675700236146,-1.8493795355518985,327.9640783669946,28.05348383280427,12.3254987199956,67.4855192079683,0.0016052574950584,120.001730110008,481.3585729572992,1.274,1.0236288969245204,0,0,0,0.0824527912929312,1.795101728117499e-06,-0.185677972565945,6.154208777610367e-05,0.0161601075877549,3.548391529864764,18.127972046813923,28.053748568331866,26.643716321103565
0.88,31.222190810926072,131.0104436621138,14.989074120233594,3.478691003441256,0.0016840304519377,22.964657384783333,0.0006196997805852,-2.012175787611981,294.4828134710421,28.307790220048293,12.453508903282923,67.37913471125125,0.0016838290306204,120.0018146478542,490.1132727151323,1.274,1.0235805388426191,0,0,0,0.083200468552784,1.87004047980699e-06,-0.1903718292614673,6.388108648063063e-05,0.0167184161624498,3.4786914105587554,17.967950994329154,28.308054746933067,23.052642811286592
0.89,31.22219025534066,131.010444801006,15.244162740606797,3.4124124170072863,0.00168416027384,25.208470372776567,0.000561073109926,-2.166930205717368,315.02813424808807,28.51772626699841,12.564991469582184,67.27006084364075,0.0017646948594767,120.0019016953444,497.3975933133447,1.274,1.0235293752791452,0,0,0,0.0838177405527935,1.946812163493123e-06,-0.1950546142992383,6.626075477860361e-05,0.0172562715212575,3.412412832115596,17.836077482178297,28.51799081427556,25.301434057507638
0.9,31.22218969506008,131.01044594949116,15.500890539110044,3.337752085223124,0.0016800591073119,27.86369894117289,0.0005013481749199,-2.333146887907544,339.3781423542166,28.779245558774377,12.6969421353949,67.15830394971205,0.0018478484169611,120.00199125067766,506.54961489508014,1.274,1.0234837388140003,0,0,0,0.0845866287579169,2.025417206438964e-06,-0.1997137521720757,6.867614358545423e-05,0.0178300478754683,3.337752507573904,17.675582753086047,28.7795094618418,27.96121051271246
0.91,31.22218912776918,131.01044711232495,15.760490543989528,3.2578733126903536,0.0016732502238071,21.188894383652546,0.0004398382286727,-2.5065389573536465,277.7421810230785,29.069279647834097,12.84062801173208,67.04387758308954,0.0019332754863171,120.0020833059542,516.7980807102921,1.274,1.023436404813438,0,0,0,0.0854393338042542,2.1058305791831805e-06,-0.20435178714536,7.112988730441307e-05,0.0184275252876911,3.2578737419194894,17.50104606678936,29.0695424813646,21.33663476136224
0.92,31.22218855398508,131.01044828844334,16.022656750703927,3.18899852110178,0.001671889435272,25.250131975062803,0.0003753791510844,-2.6558925015304315,315.0281342480675,29.246064707389007,12.94079070790316,66.92679383389985,0.0020209640755432,120.00217785283624,523.0898473589585,1.274,1.0233859136578225,0,0,0,0.085959188070821,2.1880320953260307e-06,-0.2089672325871426,7.362293358175123e-05,0.0189578463497575,3.1889989589080128,17.39253891167514,29.246327327167343,25.389425552357107
0.93,31.22218797772036,131.01044946960263,16.285231041614036,3.1075970567864526,0.0016638059113057,30.05352616163342,0.0003099604940532,-2.826016801994979,359.16250706547066,29.516950199390685,13.078355750580224,66.80706563696127,0.0021109023029828,120.00227487954652,532.8113053535188,1.274,1.0233407575091376,0,0,0,0.0867556239023701,2.272034120586071e-06,-0.2135367310266853,7.614448037168795e-05,0.019551338373688,3.107597501749978,17.23277657399615,29.51721154941205,30.18610285891867
0.94,31.22218739300796,131.01045066805915,16.55137643378603,3.0190178798531084,0.0016518278212261,21.80204875333659,0.0002425964237138,-3.008530136153066,283.06875048378083,29.83947406722804,13.237022549406696,66.68471933015408,0.0022030637909008,120.00237436939366,544.5047766865616,1.274,1.0232914783978162,0,0,0,0.087703842908616,2.357790361565276e-06,-0.2180686283252079,7.870025577405546e-05,0.0201839273812467,3.019018331326009,17.047337308344257,29.83973353573541,22.008647924892152
0.95,31.222186801068474,131.01045188130365,16.820407271718253,2.943983871432604,0.0016469962417215,28.261839568641708,0.000173018844781,-3.157210971049593,342.421873617488,30.014399450735123,13.338047243241132,66.55977645496479,0.0022974286955113,120.00247630525249,550.8932620752746,1.274,1.0232418269359267,0,0,0,0.0882182493929227,2.445266185854701e-06,-0.2225640974486066,8.12929509703816e-05,0.020720243941189,2.943984331728809,16.94365806869402,30.01465816029976,28.437643308637472
0.96,31.222186207356124,131.01045309813367,17.0894449672789,2.85322021471674,0.001633193411882,27.69316839946977,0.0001017712448011,-3.3376766127505126,337.09533515678265,30.32726459256361,13.494506323081277,66.43225787224027,0.0023939798465943,120.00258066854452,562.4234285682102,1.274,1.0231951201821403,0,0,0,0.0891380924385837,2.5344796337271305e-06,-0.2269950744667587,8.390850957517985e-05,0.0213524911376273,2.853220681753162,16.768215068167546,30.327521133984806,27.893577418162952
0.97,31.222185603362234,131.0104543360219,17.362925531715092,2.7649055802166225,0.0016206891252411,17.696937072214965,2.8558415491004127e-05,-3.5084610077019245,245.0218871929888,30.59934460137526,13.63553274461222,66.30220055055383,0.0024926823116204,120.00268743640676,572.5451830495798,1.274,1.0231476260761452,0,0,0,0.0899380692873004,2.6253611471622e-06,-0.2313747819305296,8.655599844170643e-05,0.0219591546114992,2.7649060548429234,16.616740832802034,30.599599178627702,18.041365812524194
0.98,31.222184994739585,131.01045558335832,17.637869187851987,2.6884089301301457,0.0016147691418315,25.81488859995577,-4.520884436217364e-05,-3.642387589798612,319.593746642963,30.724494376144435,13.718211726059044,66.16963385381979,0.0025935121347431,120.00279658292142,577.2228799294495,1.274,1.0230935628253934,0,0,0,0.0903061916043574,2.7178943297083367e-06,-0.2356904286018768,8.923017963638358e-05,0.0224596349093626,2.688409414722593,16.542184352659344,30.72474802348806,26.070586122764656
0.99,31.2221843845108,131.010456833937,17.912718483108012,2.5946672478817807,0.0015983723497436,28.221776644455616,-0.000121511448321,-3.816905809174513,341.66094855170127,31.02118817046181,13.87068624114362,66.03459448011317,0.0026964388892873,120.00290807804372,588.4091808388964,1.274,1.0230490803133316,0,0,0,0.0911785240863306,2.81208972069823e-06,-0.2399158843401971,9.191662581217327e-05,0.0230824534465023,2.594667739861574,16.381554910843473,31.02143924220336,28.47871919417051
1.0,31.2221837635774,131.01045810643635,18.19212350780997,2.500038717574796,0.0015813116489117,25.250656744380063,-0.0001996656718608,-3.9895358149080336,314.2672081822764,31.313410947844336,14.022283760566657,65.89713412351064,0.0028014150562174,120.0030218860816,599.5310566428608,1.274,1.022999484445133,0,0,0,0.0920377253061828,2.9078529223159465e-06,-0.2440673866935366,9.462680429843e-05,0.0237024376076256,2.5000392173588684,16.22576298078072,31.313659339697267,25.56388198378342
1.01,31.222183137218416,131.01045939001645,18.473342055295507,2.4086451782554663,0.0015659488279597,26.417533541691245,-0.0002786710970047,-4.146418785794555,324.92031610370094,31.54910220379724,14.15167395754538,65.75729514553515,0.0029084073893051,120.00313797165776,608.573742108571,1.274,1.0229507481225095,0,0,0,0.0927307734370549,3.005146978691468e-06,-0.2481371357865133,9.735825918830711e-05,0.0242783922337391,2.408645686996066,16.099883398366305,31.54934818246389,26.740958607559858
1.02,31.22218250597981,131.01046068355603,18.756089697217536,2.313224361104612,0.001547733078541,22.035407625014248,-0.0003595501562969,-4.3097474330082575,284.59063161543185,31.817138060090983,14.295102053453729,65.61512438628904,0.0030173801729002,120.00325630184518,618.9415401526129,1.274,1.0229039803623294,0,0,0,0.0935188968255649,3.103949009362008e-06,-0.2521108174232064,0.000100103650212,0.0248760804577091,2.3132248786021306,15.960187476615538,31.817381177434417,22.45290877071685
1.03,31.22218186737008,131.0104619921677,19.04160049769627,2.2217811134561014,0.0015319041956785,17.983878358078787,-0.0004403196605155,-4.452089809570921,247.3046933904342,32.01369411385389,14.409864812574932,65.470676893439,0.0031282897995684,120.00337683836028,626.5952226310703,1.274,1.022853416101322,0,0,0,0.0940969296580788,3.2042011611060104e-06,-0.2559851316047457,0.0001028628177792,0.0254137049019643,2.221781641310512,15.856256338213251,32.013934744802214,18.526764009522584
1.04,31.22218122506701,131.01046330830212,19.32801125558723,2.131583744342267,0.0015166207956638,28.676461224594387,-0.0005209129483968,-4.58097364645522,345.4656368807608,32.17144564861105,14.509178274021512,65.32400959290608,0.0032410935358875,120.00349953731292,632.7682854783301,1.274,1.0228049544826707,0,0,0,0.0945609098029573,3.305879277626969e-06,-0.2597449216644984,0.0001056272932201,0.0259133252519054,2.1315842836307635,15.771628062706965,32.17168387884852,29.040054204262997
1.05,31.22218057842891,131.01046463327577,19.61563399087009,2.027740558121064,0.0014915100010435,17.244798351195932,-0.000606739709969,-4.755415455627052,240.4562587980608,32.50974533635748,14.68452337017032,65.17518810347003,0.003355740092517,120.00362435002847,646.1281885406313,1.274,1.022755494436122,0,0,0,0.0955555776740305,3.4089431043611687e-06,-0.2633796628420722,0.0001083909737632,0.0265515153184209,2.027741106434015,15.60477287671968,32.50997962220056,17.888461272483994
1.06,31.222179920604173,131.01046598114524,19.907811588560588,1.93751295551654,0.0014759480766675,24.62762736669648,-0.0006876534990755,-4.865707967098964,308.1796836557233,32.62330793689496,14.766633801411304,65.02428408670929,0.0034721727233685,120.00375122843514,650.6319066601857,1.274,1.0227013895379469,0,0,0,0.0958896872565222,3.5132663125593684e-06,-0.2669017601411096,0.0001111654006013,0.0269998127865278,1.937513517471792,15.542681092660205,32.62353977827667,25.103687860687224
1.07,31.22217926430685,131.01046732582333,20.198286804519352,1.835549529989012,0.0014511779196391,29.02386135792944,-0.0007737500820549,-5.018165376461702,348.5093681440431,32.9047109738654,14.920098011820365,64.87136205704334,0.0035903496597038,120.00388012003216,661.8863281587767,1.274,1.0226540159946436,0,0,0,0.0967171321974083,3.618878601812372e-06,-0.2702815051885091,0.0001139299801567,0.0275767836729903,1.835550103440316,15.4057920369482,32.904938924359946,29.454482043799683
1.08,31.222178596544,131.0104686939655,20.49338478870335,1.7311882400570973,0.0014242756938098,19.48921265585115,-0.0008619076117909,-5.175412587217769,261.0015785751465,33.215188810542635,15.08696477670623,64.71650360255028,0.0037102074806406,120.0040109758552,674.416817209158,1.274,1.0226061614050743,0,0,0,0.0976300477737359,3.7256479889467367e-06,-0.2735287967872936,0.0001166943726387,0.0281706374440968,1.7311888257655783,15.25848223176104,33.21541253524543,20.16467966856418
1.09,31.22217792212076,131.0104700757111,20.790720224005582,1.634987766170448,0.0014034573705087,17.91695872161857,-0.0009450651296573,-5.282322816880008,246.54375332456465,33.36081281800614,15.184494028720213,64.55978460367345,0.0038316959328716,120.00414374238524,680.3239881242689,1.274,1.0225512795791307,0,0,0,0.0980584122401259,3.833497600217201e-06,-0.2766386175224964,0.0001194579061035,0.0286150111831998,1.6349883683639632,15.185318011280197,33.36103327257436,18.679409655207603
1.1,31.22217724640992,131.01047146003972,21.08771289368285,1.5363731569487031,0.0013802032141468,36.08943085089513,-0.0010289020600138,-5.391029742221249,413.1890617384087,33.530578039709034,15.292961732231342,64.4012838144642,0.0039547661818244,120.00427836701236,687.2460141381215,1.274,1.0224981043155532,0,0,0,0.0985577384155964,3.942428677362275e-06,-0.279589813504814,0.000122204577859,0.0290666169370047,1.536373776754048,15.102643975905304,33.53079484152291,36.489864645976624
1.11,31.22217656412847,131.01047285778628,21.38687825227571,1.423689451921398,0.0013442599661862,26.37691918459356,-0.0011244100023417,-5.5755304715276734,324.1593910379213,33.98075578209561,15.523352605828636,64.24109213079653,0.004079353999915,120.00441479133498,705.8033863275916,1.274,1.0224548851875197,0,0,0,0.0998813006306746,4.0523569673690936e-06,-0.2823786890580062,0.0001249327290923,0.0297498359227877,1.4236900864217306,14.902478508438591,33.980966937957305,26.959755321104293
1.12,31.22217586682951,131.01047428626958,21.69214705463609,1.3214700669568666,0.0013173011031684,9.86011701584228,-0.0012111611932143,-5.68757407241114,172.7328179403806,34.19455598696136,15.652639430702136,64.0793025723956,0.004205396102176,120.00455296122672,714.691922101882,1.274,1.0223979224661404,0,0,0,0.1005100802808811,4.16308161045453e-06,-0.2850187645834899,0.0001276598191401,0.0302160236235851,1.3214707234128271,14.804906558058423,34.19476290813476,11.382899800234444
1.13,31.22217517013229,131.010475713459,21.996142573638284,1.226491775109294,0.0012967125786403,31.11789216624788,-0.0012883196226354,-5.735692827934169,367.5328077894322,34.209306557702234,15.695649357354794,63.91600036366788,0.004332851328176,120.00469282132892,715.287765234479,1.274,1.0223460397860296,0,0,0,0.1005537824449432,4.274633426843238e-06,-0.2874850391380827,0.0001303650932917,0.030489740489284,1.226492460481508,14.790832236275202,34.20951024483776,31.642082528594955
1.14,31.222174473139148,131.01047714119758,22.299327768543,1.115401423913699,0.0012593446204258,17.160773687665916,-0.0013836770106197,-5.8951846414728495,239.6953177322812,34.62548714578364,15.9153859235083,63.75128508689788,0.004461658578316,120.0048343115969,732.7762620351738,1.274,1.0223022138470996,0,0,0,0.1017774390606357,4.387023990590864e-06,-0.28975952678512,0.0001330301387634,0.0311039236401015,1.115402134755637,14.613110901385364,34.62568496317402,18.145119383208982
1.15,31.22217375756746,131.0104786069648,22.61011448484297,1.0154581653070012,0.001233310857604,16.9128444390602,-0.0014637029179372,-5.956057688718872,237.4125115347709,34.72619575320645,15.997231485575602,63.58526666469239,0.0045917399590906,120.00497737158824,737.0230348123279,1.274,1.0222426194541194,0,0,0,0.1020738178342414,4.499973206053992e-06,-0.2918599930946133,0.0001356797762613,0.0314195798815876,1.0154589141785704,14.56559076189893,34.726389481222924,17.93094900872854
1.16,31.2221730472166,131.01048006196916,22.91750689427184,0.9127318989825888,0.0012033116747131,44.49672958518303,-0.0015458987018205,-6.029657671385185,490.043774385954,34.89305166422654,16.108948266387177,63.41804475560348,0.0047230482734331,120.00512192995592,744.1007245831017,1.274,1.02219674531104,0,0,0,0.1025646281359567,4.613548723649751e-06,-0.2937631808781586,0.0001382891162175,0.0317754777887534,0.9127326921157402,14.492481452459884,34.89324067998239,44.903404300796616
1.17,31.222172328106968,131.010481534868,23.2279226120976,0.7983328454324617,0.0011580481120201,7.755187385374247,-0.0016506579228852,-6.220413383770046,153.70937929500428,35.474947923331484,16.407193375243327,63.24973241997056,0.0048555126462842,120.00526792901914,769.102821495243,1.274,1.022149394360584,0,0,0,0.1042754191382896,4.727626845303651e-06,-0.2954675790550426,0.0001408583507733,0.0324918489193017,0.7983336853001206,14.258664076996022,35.47512982910354,9.94165362361438
1.18,31.222171588675444,131.01048304935512,23.546498784318576,0.7018670085820479,0.0011357514772431,21.55830467610309,-0.0017164193051165,-6.1986078573202406,280.0250182204742,35.368001372228875,16.39757325653553,63.08044357900872,0.0049890662031706,120.00541531270704,764.4491803217238,1.274,1.0220864142162576,0,0,0,0.1039614331159144,4.8418972320180624e-06,-0.296982123790367,0.0001434112794382,0.0325589478925313,0.7018679274641114,14.294908655746584,35.36817977565372,22.43174631682999
1.19,31.22217086563377,131.01048453019328,23.856723526800856,0.595833742694642,0.0010986250540909,37.76615852430532,-0.001802825526403,-6.286070771876755,428.40781305479993,35.65186986123375,16.564524962496883,62.9102869362515,0.0051236717777296,120.005564006494,776.7464296426201,1.274,1.0220468515919483,0,0,0,0.104796208884714,4.95662768712075e-06,-0.2982765261528751,0.000145899845436,0.0329623360760229,0.5958347555037274,14.18117422481818,35.65204243285369,38.28573387937316
1.2,31.22217012225472,131.0104860526471,24.17504233782028,0.4872083137323796,0.0010558570826702,3.7438557807526873,-0.0018996344884002,-6.418501382559656,117.18437413578772,36.10994606260062,16.812099148773704,62.739388698003246,0.0052592440628464,120.00571395990016,796.8104863795398,1.274,1.021993001444649,0,0,0,0.1061430735250605,5.071509202315162e-06,-0.2993586537121423,0.0001483438717265,0.0335059527495996,0.4872094578081731,14.00455256077696,36.11011191624332,7.430586767786695
1.21,31.22216936782928,131.010487597671,24.497197436882303,0.3886646954472787,0.0010303694961295,30.284055647163704,-0.0019578423276835,-6.364905199842849,359.92343213123,35.97679725735423,16.79064651084867,62.567870469707344,0.0053957235711838,120.00586510198256,790.9206596507507,1.274,1.021934467415424,0,0,0,0.1057520748664933,5.1863400907097214e-06,-0.3002250146297397,0.0001507509203701,0.0334779802815149,0.3886660612030721,14.051236355406258,35.97695910741619,30.945695152583678
