Time,Latitude,Longitude,Altitude,Angle of Attack,Angle of Sideslip,X-Acceleration,Y-Acceleration,Z-Acceleration,Thrust,True Velocity,Ground Velocity,Pitch,Roll,Yaw,Dynamic Pressure,cp,parachute_deploy_gain,Wind Speed,Mach,omega_x,omega_y,omega_z,Cmq,Angle of Attack(total),Angle of Attack(gust),True Velocity(gust),Acceleration
0.0,31.222216000000007,131.010392,3.000000004412624,0.0,0.0,0.0,0.0,0.0,2.2828121974499247,0.0,0.0,71.99999999612658,-1.0292491154817412e-14,119.99999999354436,0.0,15.288,0.0,0.0,0.0,0.0,0.0,0.0,-0.0,0.0,90.0,0.0,0.0
0.01,31.22221599999862,131.01039200000284,3.0000009727369523,0.0,0.0,0.0,0.0,0.0,34.24218696174923,5.916279387578309e-11,5.734623670548936e-11,71.99999999613168,-5.86671995824671e-13,119.9999999935449,2.1432944861733093e-21,15.288,0.0,0.0,1.7386402909615473e-13,-3.4220131069073734e-19,7.115076756936125e-19,5.488773498207866e-19,-1.1574302492039043e-31,0.0,89.99999999962336,5.916279387578309e-11,0.0
0.02,31.22221599999738,131.01039200000537,3.0000018317022668,0.0,0.0,0.0,0.0,0.0,25.871876237766408,1.2265415415436536e-10,1.1895038237325684e-10,71.9999999961369,-1.1836364828043265e-12,119.99999999354544,9.211895886571454e-21,15.288,0.0,0.0,3.6044858651615574e-13,-6.979551485375437e-19,1.4162390878091906e-18,1.0909784360635388e-18,-4.776231873571785e-31,0.0,89.99999999921916,1.2265415415436536e-10,0.0
0.03,31.22221599921969,131.01039200159065,3.0001883335529382,18.80143492628821,-0.0001350810307892,10.931161642028636,-1.75114298675875e-05,3.026590975169265,180.34219359854663,0.0798232026864394,0.0478175828508887,71.99999999765336,-5.341802909786072e-12,119.99999999436793,0.0039016003969354,15.288,0.0,0.0,0.0002345795854893,3.788270153300133e-17,-7.771883375645477e-10,1.1422790048099072e-11,1.7057759223764537e-13,18.80143492675591,89.51882325913425,0.079801984207741,11.342422482672777
0.04,31.222215995131297,131.01039200995308,3.001692634342189,9.19442604083399,-4.49173898918486e-05,52.29595764159784,6.445392950801871e-06,3.026413589912948,548.6359724538078,0.3504174083926908,0.1601447499964056,72.00000000319055,-3.111420077280171e-11,119.99999999870242,0.0751892535633216,15.288,0.0,0.0,0.0010297854387864,2.0082066977226968e-15,-1.520937588847922e-08,2.5623342884322286e-11,1.4654248781413086e-11,9.19442604094277,87.798916624545,0.3504103527855857,52.383455068075136
0.05,31.222215983575865,131.01039203366796,3.0074067499493786,5.158590039700252,1.707592688632746e-06,76.26884281015512,5.843947534199429e-05,3.0258124765658088,761.6984298824644,0.9592973585397016,0.3772700771701255,72.0000000004862,-1.3608731808076822e-10,120.0000000109612,0.5634958029902841,15.288,0.0,0.0,0.0028191251099456,2.086299069701397e-14,-1.0551247853743037e-07,3.973493515691201e-11,2.783064866637575e-10,5.158590039700515,83.94063169874748,0.959297626767734,76.32884071402438
0.06,31.222215961742712,131.0103920785344,3.019291017943491,4.109521257467909,3.140103977270004e-05,57.06876634333886,0.0001151069734147,3.024834864051463,590.4875390737208,1.6257536642597354,0.6118982818704327,71.99999992547217,-3.5903296759057166e-10,120.00000003412836,1.6184272268450337,15.288,0.0,0.0,0.0047776672697797,1.0694899894620088e-13,-3.741090980393931e-07,5.521401959501359e-11,1.6723176417636091e-09,4.109521257587776,79.78719176344794,1.6257585967235286,57.148873286519276
0.07,31.222215929936205,131.01039214392435,3.0371334573469446,3.649087515174788,5.707077112564807e-05,86.89643797254193,0.0001728541558773,3.0234947746384675,855.2937749779139,2.3057260079826607,0.8506307413593818,71.99999965378231,-6.907496536790437e-10,120.00000006788592,3.255354923652711,15.288,0.0,0.0,0.0067759305364855,3.495199904512709e-13,-9.036515915819006e-07,7.594816279105379e-11,5.728932851326001e-09,3.6490875156204896,75.6601668283889,2.305734972638426,86.94902215090157
0.08,31.222215886364623,131.01039223353447,3.0621840248716574,3.4254446680114707,8.413075603463509e-05,17.831756866644035,0.0002285946601282,3.021841001032126,241.2171988638848,2.961944911520492,1.0819695676346892,71.99999900671328,-1.141745983122182e-09,120.00000011415082,5.371998197385977,15.288,0.0,0.0,0.0087043901031071,8.800530155962314e-13,-1.829098470920821e-06,1.0943386634701918e-10,1.4896287129277132e-08,3.4254446690434226,71.81713637501419,2.9619581267487467,18.085991154451033
0.09,31.22221583454733,131.01039234010327,3.0919888289029,3.389560809024919,0.0001118726864415,54.09031716446879,0.0002748660999733,3.020060228038602,563.0937377043176,3.504225426410036,1.2780161667917422,71.99999774508822,-1.634190085504106e-09,120.00000016921716,7.519080503822694,15.288,0.0,0.0,0.0102980157586766,1.865782139518716e-12,-3.1503298654458527e-06,1.6284478329871028e-10,3.03536411425607e-08,3.389560810868955,68.76526501308032,3.504242999330529,54.17456206384468
0.1,31.22221577423132,131.0103924641528,3.1267248829165366,3.4447939461814814,0.0001419149103147,51.372195336549765,0.0003131602029306,3.0182021883815127,538.7437595981919,3.950569597142709,1.4443465951180965,71.99999562056465,-2.1287748602259068e-09,120.00000023339832,9.55649523509932,15.288,0.0,0.0,0.0116097108366932,3.485956000178229e-12,-4.949356763187612e-06,2.4573266549165286e-10,5.3761299442583966e-08,3.444793949101151,66.34639928474206,3.9505918890846927,51.460781166288626
0.11,31.222215706113143,131.01039260424562,3.165907002780892,3.4691423802630394,0.0001702373452339,40.591037561894986,0.0003534470100582,3.016051659024047,442.8656393052949,4.421478635995476,1.6182620895289603,71.99999235067894,-2.5564479031457968e-09,120.00000030601664,11.970509656144712,15.288,0.0,0.0,0.0129935974697161,5.942887149865172e-12,-7.273722517324353e-06,3.67769289312894e-10,8.842679949465076e-08,3.4691423844348632,63.88798785789768,4.421505376815134,40.70293476011277
0.12,31.222215630588888,131.0103927595646,3.2092596514826863,3.4852659299808075,0.0001974376474727,44.30042894095728,0.000394069215595,3.013641598889868,475.58594813540446,4.896982486381051,1.793579340340896,71.99998761802138,-2.8337988279882726e-09,120.00000038673312,14.683611096353944,15.288,0.0,0.0,0.0143909889875706,9.464337642181618e-12,-1.017558359402848e-05,5.395790443954697e-10,1.3700793350599625e-07,3.4852659355662303,61.5068242157714,4.897013499814194,44.40281567867803
0.13,31.222215548046687,131.0103929293088,3.256512891171917,3.5606043721293616,0.0002276507019012,48.86766833507025,0.0004268800875964,3.0112558910133567,515.9156326236895,5.278566579338586,1.939796541405244,71.99998107389406,-2.8573058577484587e-09,120.00000047523812,17.061052093156064,15.288,0.0,0.0,0.0155123760833565,1.4300406003001044e-11,-1.3705268062305584e-05,7.724776992181392e-10,1.989112774124932e-07,3.560604379397528,59.67313531776262,5.27860233862722,48.960358155653
0.14,31.222215458587108,131.01039311327068,3.30759734332425,3.6000732663755977,0.0002555702913645,45.540290862247225,0.0004629468001456,3.0085404980032777,486.2390860568404,5.70011779273801,2.098362647205908,71.99997235012626,-2.508533681468686e-09,120.00000057154703,19.894788765881632,15.288,0.0,0.0,0.0167512184495524,2.071534240530911e-11,-1.7917736259613292e-05,1.0787346240473087e-09,2.8081526258393346e-07,3.6000732754351943,57.72385750323359,5.700157937625502,45.639559681930805
0.15,31.222215362317904,131.01039331122794,3.3624387479639086,3.651605404442164,0.0002842753491325,44.01308509501,0.0004965057129938,3.005703619811542,472.54218587214,6.091938849578711,2.2476968067377374,71.99996103728932,-1.6446954747148112e-09,120.00000067569304,22.723773683610247,15.288,0.0,0.0,0.0179026934683374,2.9002783512213203e-11,-2.287326399669318e-05,1.47199345427166e-09,3.831202693354572e-07,3.651605415492516,55.98561718911576,6.091983503446133,44.115597174664394
0.16,31.22221525912812,131.01039352340948,3.421115382839859,3.67540086436193,0.0003108411545024,34.83804992586084,0.0005330990866742,3.002517946501868,391.1218908297564,6.521183188362317,2.4085903880902046,71.99994669525161,-1.0153513453738144e-10,120.00000078796704,26.03872642002185,15.288,0.0,0.0,0.019164148528834,3.9478358970291335e-11,-2.864207894220033e-05,1.9677461746207517e-09,5.135466997084602e-07,3.6754008774883777,54.15946979122355,6.521232015176687,34.96719658394182
0.17,31.2222151493826,131.01039374906244,3.4833737923187487,3.7139589864597298,0.0003384978477213,43.96471427482637,0.0005668629535037,2.999235483723449,471.78125980632376,6.916861975403744,2.559060925010733,71.99992884100092,2.3206494032971838e-09,120.0000009081849,29.29426197817256,15.288,0.0,0.0,0.0203269651395979,5.248754693205839e-11,-3.5267097947693114e-05,2.580363454062817e-09,6.706952682968329e-07,3.713959001863866,52.549031795895466,6.916915146521327,44.06689817851128
0.18,31.22221503253009,131.01039398932429,3.549599475912623,3.7380363034619775,0.0003650282082698,36.67395661481795,0.0006021794701355,2.9956556354306425,407.10156721191447,7.332140201215607,2.71556808256092,71.99990696207136,5.837017536380516e-09,120.00000103716444,32.917216366714264,15.288,0.0,0.0,0.0215473823438242,6.839750892601699e-11,-4.285557247677198e-05,3.331016495775474e-09,8.639362741436378e-07,3.738036321259578,50.93050624815799,7.332197539712479,36.796100973258795
0.19,31.22221490871209,131.01039424390297,3.619694897703461,3.747799769666444,0.0003901520189829,41.42208371271829,0.0006393759928961,2.991742733214697,448.9531328318269,7.771071983754382,2.879366399937307,71.99988049019642,1.0709144790974043e-08,120.00000117502664,36.97605053227239,15.288,0.0,0.0,0.0228373144884866,8.761416506509219e-11,-5.146771415177372e-05,4.238406957677133e-09,1.0996552116864756e-06,3.747799789945131,49.29705748437159,7.771133268690212,41.529983675580546
0.2,31.22221477769685,131.01039451327668,3.693822889232993,3.7700519460961166,0.0004166800650969,37.99697972290605,0.0006740224661302,2.987733789228414,418.51563019916136,8.179966026035371,3.0338260708461373,71.99984881140107,1.723179577184912e-08,120.0000013223286,40.969302182777255,15.288,0.0,0.0,0.024038975990988,1.1057590044953188e-10,-6.120032215177249e-05,5.3263847350253015e-09,1.376394225587184e-06,3.7700519690893857,47.8457752505109,8.180031477986942,38.11426270718793
0.21,31.222214639876928,131.01039479663547,3.771710975053407,3.7926098867321474,0.0004432924407074,36.46301043881366,0.0007080907240332,2.983530483977461,404.8187610144644,8.582757448615462,3.1863584283669346,71.99981127559042,2.5745201416596626e-08,120.00000147900325,45.103059028532826,15.288,0.0,0.0,0.0252227064089584,1.3774582723633048e-10,-7.20875523136271e-05,6.61341033873124e-09,1.7010673350603349e-06,3.792609912601061,46.47936953648762,8.582827080829217,36.584868250565684
0.22,31.22221449507626,131.01039509434258,3.8534832466471007,3.782921298925821,0.0004660920499522,44.14577847155813,0.0007479176313898,2.978724032883548,472.5421858721365,9.056569122268344,3.360845972992861,71.99976720416048,3.661811567390422e-08,120.00000164562512,50.21995530074818,15.288,0.0,0.0,0.0266151520780326,1.6960703048385348e-10,-8.421592474264931e-05,8.124635526119773e-09,2.0969540034515424e-06,3.7829213275976334,44.9464484092354,9.056642335836344,44.24615863872642
0.23,31.22221434283448,131.01039540734791,3.9394622486964206,3.813874679301352,0.0004940771488601,36.66675459308932,0.000779455230549,2.974212905336642,406.3406421461021,9.430647902846331,3.5044030163419806,71.99971583979395,5.0272885112871524e-08,120.00000182313076,54.45382429059888,15.288,0.0,0.0,0.0277145095638672,2.0669790509245914e-10,-9.77285871729516e-05,9.894576563683824e-09,2.5339062472561444e-06,3.813874711257219,43.79476959007253,9.430725512303388,36.78718303164376
0.24,31.222214184153326,131.01039573358457,4.028950821673608,3.829256049377765,0.0005200487408944,37.802126339316736,0.0008136255607606,2.9692962675112065,416.2328240017114,9.837806876534357,3.658163422426286,71.9996564062533,6.718950080713476e-08,120.0000020109434,59.25679777340223,15.288,0.0,0.0,0.0289110855155543,2.4956955046738006e-10,-0.0001125744417092,1.1934277804843484e-08,3.0448209172448607e-06,3.829256084638984,42.59361542722471,9.83788856559955,37.91856374864305
0.25,31.22221401888584,131.01039607335582,4.122052964664892,3.851417709838087,0.0005469594058717,38.85163035360012,0.0008459008130282,2.964283881833675,425.36408079150686,10.22297576958679,3.8050691648373967,71.99958811418384,8.786880969336211e-08,120.00000220974424,63.98709205399403,15.288,0.0,0.0,0.0300430411774988,2.987811646313829e-10,-0.0001288461362054,1.4273117985167728e-08,3.621333387698252e-06,3.8514177486178034,41.50703126619192,10.223061685769354,38.96455005232871
0.26,31.222213847358866,131.0103964259872,4.218542267117083,3.8780574625554745,0.0005745172425185,42.3164797140743,0.0008766626387865,2.959162938653076,455.8015834241788,10.590779679138215,3.946551912391076,71.99951013710364,1.1286401474734325e-07,120.00000241975916,68.67355887153568,15.288,0.0,0.0,0.0311239685467471,3.5491769188178554e-10,-0.0001465721578858,1.6932703957058654e-08,4.267712643344226e-06,3.8780575050466,40.51245375834074,10.590869924095635,42.41981967733593
0.27,31.22221366913008,131.0103967923915,4.318728802515264,3.886188503202341,0.0005994342651313,38.70936050721014,0.0009111181036949,2.953518013741325,423.84219965987256,11.004860953238978,4.102320296019413,71.99942161756776,1.4276417094868828e-07,120.0000026420792,74.14786134434608,15.288,0.0,0.0,0.0323408987462391,4.1858405402174807e-10,-0.0001658847815307,1.995072923688136e-08,5.018832267232506e-06,3.886188549362022,39.43841359495857,11.00495511215316,38.8218734782956
0.28,31.22221348431185,131.01039717233687,4.422535913956003,3.90556090261878,0.0006261175699806,44.68030766832924,0.0009425767186621,2.947879457547137,476.3468732012221,11.38358114165448,4.247086834352694,71.999321619057,1.7823531611327881e-07,120.000002877279,79.33831935330025,15.288,0.0,0.0,0.033453914386159,4.904408325040897e-10,-0.0001868529238516,2.3357766479368094e-08,5.847713054408178e-06,3.9055609527288775,38.49894431917428,11.383679491972384,44.77744842575601
0.29,31.222213292835256,131.0103975659655,4.530013412817602,3.9242599519377537,0.0006528240665589,35.802573724660256,0.0009737210635801,2.942037024315898,397.97031042211177,11.759725774384751,4.391004157029451,71.99920917567837,2.1999186079018322e-07,120.00000312617878,84.66717879828003,15.288,0.0,0.0,0.0345593650464213,5.711677680739745e-10,-0.0002095620322847,2.7188189988316943e-08,6.77505090435382e-06,3.9242600061534456,37.60352534239979,11.759828319749328,35.92324968749781
0.3,31.222213095024976,131.0103979726075,4.64093665799555,3.936939025755682,0.0006785438093183,33.570228713727204,0.0010059102294455,2.93586442972183,378.1859457108711,12.149968255527943,4.539237002744259,71.99908328532703,2.6880857935396905e-07,120.00000338923812,90.3787563598417,15.288,0.0,0.0,0.0357062504417728,6.614698865958865e-10,-0.0002340353597042,3.1467140861055e-08,7.817263716758327e-06,3.9369390841381695,36.71173884615234,12.150074840940263,33.698361337808635
0.31,31.22221289105846,131.01039839189684,4.755183729044857,3.9598342215431432,0.0007060286581592,35.396825578217346,0.0010350810412898,2.9297385597941448,394.1656220930212,12.504537499407316,4.6763673222047455,71.99894291513503,3.255120771695107e-07,120.00000366712923,95.72967338626896,15.288,0.0,0.0,0.0367483036680869,7.620720834468404e-10,-0.0002603234137215,3.622454560346964e-08,8.948994505138873e-06,3.9598342843844345,35.934338386209795,12.504648402129598,35.5178635353378
0.32,31.222212681031937,131.01039882363492,4.872689374180126,3.985461429033668,0.0007340760463279,38.52097867048992,0.0010630242168685,2.9235095146848846,421.55939346242695,12.84534566718622,4.809181081594425,71.99878701464397,3.909756427278764e-07,120.0000039606604,101.01782231644016,15.288,0.0,0.0,0.0377499198995686,8.737098716736534e-10,-0.0002884807530145,4.1491545539590986e-08,1.0187112828155184e-05,3.98546149652875,35.21473736963424,12.845460975581933,38.631757748577954
0.33,31.22221246496604,131.01039926777932,4.9934410812554,4.010606629086,0.0007621365968788,38.18822026147908,0.0010905599149574,2.917102431053817,418.5156301991682,13.18247167592885,4.940798912752974,71.99861449732019,4.661299779655886e-07,120.000004270781,106.38859400029033,15.288,0.0,0.0,0.0387407190563976,9.971421990244511e-10,-0.0003185760672934,4.7302669734505256e-08,1.154498667827874e-05,4.010606701382261,34.52805863348922,13.182591392065536,38.299473293007864
0.34,31.222212242662028,131.01039972474007,5.117579377337869,4.019339771238816,0.0007871574969313,29.898022638335373,0.0011220389395318,2.910051232417875,345.46563688075645,13.569536737955724,5.0878303926024735,71.99842423285973,5.519675040347761e-07,120.0000045987411,112.72655675097128,15.288,0.0,0.0,0.0398782837956187,1.1331556132162459e-09,-0.0003507224668667,5.37022358302301e-08,1.308298593306914e-05,4.019339848191799,33.76700548046532,13.5696603843662,30.039310197084795
0.35,31.22221201433324,131.01040019407705,5.2449575244483055,4.033762873683395,0.000813261106463,32.76415525156106,0.0011515840876071,2.902959820469776,370.5765700527033,13.934300103976534,5.227895396154902,71.99821502296155,6.495674834876441e-07,120.000004945438,118.8669740701126,15.288,0.0,0.0,0.040950312688979,1.2825853697215452e-09,-0.0003849609961885,6.072234695821837e-08,1.4746020857580124e-05,4.033762955530055,33.07785186209504,13.934427850732408,32.89250745069162
0.36,31.22221177990305,131.01040067594835,5.375631006350063,4.051723629010647,0.0008401329464575,37.01692984301412,0.0011797030485285,2.8957873473716007,407.8625232777193,14.282998147928636,5.362923567977223,71.9979856440668,7.600645476620651e-07,120.00000531213882,124.88900300695136,15.288,0.0,0.0,0.0419751331662584,1.4462801652534363e-09,-0.0004213876232777,6.84067806399068e-08,1.654507199147348e-05,4.051723715967022,32.44322602189087,14.283130115703262,37.13002398000203
0.37,31.222211539445663,131.01040117020102,5.509550188388412,4.071639898917391,0.0008674922629137,35.12417761390579,0.0012067983861697,2.88849906286036,391.1218908297666,14.620581431527652,5.494447309446232,71.99773482653193,8.846681943540367e-07,120.00000570002652,130.86067091914967,15.288,0.0,0.0,0.0429672939311924,1.6251202388969355e-09,-0.0004600660652957,7.679415042686734e-08,1.849041957573993e-05,4.071639991174516,31.85023865502424,14.620717696893658,35.24274792557624
0.38,31.222211292895075,131.01040167697127,5.646763233102716,4.08264881385344,0.0008930259828975,36.695642158537446,0.0012360471443664,2.880711738179021,404.8187610144602,14.986392916850402,5.634654729559426,71.99746126698146,1.0246533537040716e-06,120.0000061105033,137.4891296153862,15.288,0.0,0.0,0.0440424171304414,1.8200057922063743e-09,-0.0005010869196581,8.592980519823866e-08,2.0642694281337543e-05,4.082648911356968,31.228847973200924,14.986533193043764,36.808540518115166
0.39,31.22221104018777,131.0104021963902,5.787316652586672,4.096641430700089,0.0009192713382325,31.335681548387896,0.0012640110027448,2.872831219844713,357.64062493382744,15.337978856701952,5.770390286512262,71.99716358743511,1.1813915463769678e-06,120.00000654506955,144.01394309468844,15.288,0.0,0.0,0.0450757388736732,2.031886352449547e-09,-0.00054455673306,9.586443829735616e-08,2.295945663566148e-05,4.096641533664766,30.65298398882095,15.338123255506089,31.4670954954126
0.4,31.222210781536543,131.01040272801887,5.931064331106764,4.109028969993624,0.0009451871856381,29.95928076777898,0.0012920492774571,2.8646905607053603,345.465636880754,15.692185018814769,5.906873567965718,71.99684037970908,1.3563276523471372e-06,120.00000700500496,150.74021066990193,15.288,0.0,0.0,0.0461167659598875,2.2617341782092324e-09,-0.0005905037520737,1.0663253249436129e-07,2.5471259834659164e-05,4.1090290785164525,30.09246700352443,15.692333488470696,30.095929256306363
0.41,31.222210517064383,131.01040327160345,6.077922766619747,4.122888296344507,0.0009714525997821,33.78425365340317,0.0013192264430821,2.85640971467756,378.94687077668647,16.03742529732769,6.0405139809190125,71.99649020751959,1.5509747261474075e-06,120.0000074917568,157.44375780268788,15.288,0.0,0.0,0.0471314487675864,2.5105374204052982e-09,-0.0006389770219162,1.1827345344180344e-07,2.816813594418537e-05,4.122888410595805,29.56469007160549,16.037577892745222,33.904791300285986
0.42,31.22221024682894,131.0104038270252,6.227854084363214,4.14444025865494,0.0009995884754813,38.04468161607466,0.0013435485656724,2.8482703202464488,416.2328240017114,16.348862540904037,6.163613566771559,71.99611159893284,1.766920641656551e-06,120.00000800692096,163.6157044470786,15.288,0.0,0.0,0.0480467946810589,2.779304965995011e-09,-0.0006900467934588,1.308321832549104e-07,3.100973487310896e-05,4.144440378988911,29.104646754454564,16.34901955589459,38.15115260238947
0.43,31.222209970843565,131.0104043942566,6.380851271439565,4.1618082623168045,0.0010268052928652,33.45815353250911,0.0013687230309017,2.8397750580998298,375.9031395134336,16.67263197205097,6.290467308135904,71.99570306121484,2.005818691215035e-06,120.00000855220898,170.15779512382937,15.288,0.0,0.0,0.0489983878509763,3.0690566816849196e-09,-0.0007437862329608,1.443552931671376e-07,3.4086145072160934e-05,4.161808388761201,28.640125213458976,16.672793262249197,33.57845085853367
0.44,31.22220968892116,131.01040497368373,6.537047157143216,4.164954087655709,0.0010505545842624,30.86574023822051,0.0013980747538988,2.830419582421933,353.0750125389216,17.050421620730056,6.433992917638883,71.99526304125902,2.269416145406482e-06,120.00000912964636,177.9537948947602,15.288,0.0,0.0,0.050108743779844,3.380847125286677e-09,-0.0008003278134917,1.589055036683518e-07,3.750784460406397e-05,4.164954219916419,28.113519280259386,17.050586641458253,30.99524475496968
0.45,31.22220940081287,131.01040556582012,6.696617751072218,4.165241899529329,0.0010735835484822,35.912216710755274,0.0014280646808282,2.820677244966047,397.2093853562869,17.438293672974723,6.580571293039616,71.99478987454265,2.5595995397253085e-06,120.00000974147088,186.13940823302417,15.288,0.0,0.0,0.0512487363629523,3.7158016249566814e-09,-0.000859850913876,1.745604864109677e-07,4.121350642664912e-05,4.1652420376426775,27.591357195572936,17.43846231108416,36.02281959036367
0.46,31.222209106468902,131.0104061707686,6.859600379555308,4.174585124444534,0.0010989881252456,41.916816790010685,0.0014546917035209,2.811153314474766,449.7140588976434,17.786187321601275,6.714685486378061,71.99428180697711,2.8783880229668832e-06,120.0000103898448,193.6374175079873,15.288,0.0,0.0,0.0522712438446989,4.0751091178509895e-09,-0.0009224765531151,1.9138630415982226e-07,4.50966024037632e-05,4.1745852688465686,27.13985967570823,17.786359950252297,42.01097612387663
0.47,31.22220880579083,131.01040678873238,7.026066274755745,4.1823089530633855,0.0011240727220223,28.37640408484148,0.0014814747534716,2.801325368441072,331.0078106302534,18.138167428286582,6.849989708801916,71.99373704967608,3.2278903746588286e-06,120.00001107707628,201.37401505997488,15.288,0.0,0.0,0.0533057667609836,4.459978104761035e-09,-0.0009883252835099,2.094509673354327e-07,4.927107017839778e-05,4.182309103852639,26.69716826759888,18.13834399721685,28.514342615617974
0.48,31.222208499300592,131.0104074186346,7.195654207463586,4.189479568102716,0.0011490100608361,27.95074823096412,0.0015080719422187,2.7912412472910484,327.2031223011574,18.48995085190441,6.98515976370584,71.99315377257649,3.6103201777021456e-06,120.00001180491516,209.25751230436188,15.288,0.0,0.0,0.0543397174489847,4.8716620260348906e-09,-0.0010573190976925,2.2877013380347535e-07,5.373205427420879e-05,4.189479725385959,26.268461765425428,18.4901313379827,28.089773168283216
0.49,31.222208187201936,131.01040806005494,7.368224738812109,4.202723284133339,0.001175611380853,35.08821363242469,0.0015321405723077,2.781292092003844,389.60000969812296,18.812014261754847,7.111044804193205,71.99253015042137,4.027946338669921e-06,120.0000125755114,216.60722913930897,15.288,0.0,0.0,0.0552863302793499,5.311396446020465e-09,-0.0011294854492155,2.4938633613154685e-07,5.8398320167141767e-05,4.202723448262914,25.88860807032205,18.81219892635871,35.1982716047702
0.5,31.22220786953184,131.01040871291724,7.5437546994244835,4.220815778795054,0.0012036252596423,36.05491615971072,0.0015540388599792,2.7714444106710974,397.97031042210494,19.10875420627192,7.229005658018125,71.99186435180009,4.483102820610566e-06,120.00001339126192,223.4908652241728,15.288,0.0,0.0,0.0561585257949344,5.7804122391526605e-09,-0.0012048912160576,2.713531252030471e-07,6.327866493526626e-05,4.220815950099865,25.54902500917784,19.108943271285572,36.161276053538906
0.51,31.222207546379583,131.0104093770373,7.722184419225251,4.232567510615346,0.0012298790840397,27.54004661432325,0.0015777580800203,2.761017323676155,323.3984349720841,19.430597746636646,7.354673636736509,71.99115452520388,4.978202222778502e-06,120.00001425458936,231.07869697977367,15.288,0.0,0.0,0.0571045034845869,6.2799518101633574e-09,-0.0012835871653678,2.947201005874635e-07,6.854585242460463e-05,4.232567688976395,25.189423168613605,19.430790935591396,27.678103017910345
0.52,31.22220721759077,131.0104100523401,7.903538929793965,4.2391779169258665,-20.869286241831343,33.58906258030418,1.3232562002287338,2.749950267049245,372.0984511843415,21.152022749613906,7.483351359226368,71.99039114475313,-6.756783420669706e-05,119.99993831934624,273.83177081548325,15.288,0.0,7.5428735706485055,0.0621637194942982,6.793595398241262e-09,-0.0013877872704077,-0.0002234423120184,8.067461405096748e-05,21.27664494501216,4.032763347663061,17.94588829177315,33.727412567024444
0.53,31.222206882162894,131.0104107387143,8.08795627195881,4.2476065719021925,-20.59317697545413,35.25452094794132,1.3567433252805063,2.7388502088858724,386.5562464348624,21.46750457364117,7.611847240401492,71.98957478291659,-0.0008163827954623,119.99915127780405,282.05607809226194,15.288,0.0,7.571898608645785,0.0630910208751749,7.137066659466706e-09,-0.0014733650745871,-0.000673160910006,8.69253276776423e-05,21.008025639861,4.051869284129194,18.301932989922392,35.38676730341783
0.54,31.22220653987824,131.01041143632247,8.27551153298757,4.255839562853882,-20.325813042679016,30.999558168112824,1.3906266194695058,2.7275137205405686,349.2703242098436,21.78154585383009,7.73968531681699,71.98870843792098,-0.0023667278582934,119.99752140804368,290.3634252234187,15.288,0.0,7.600862588656249,0.0640140947460458,7.270515565231649e-09,-0.001562651937098,-0.0011344068575609,9.354003618299928e-05,20.748116072070367,4.070107525030241,18.65532244535634,31.15037367526632
0.55,31.22220619101697,131.01041214453548,8.465999244777366,4.265079231855821,-20.07183799270022,32.83912470308509,1.4245141471163028,2.716028457226002,365.2500005919907,22.0886884771116,7.865076617855704,71.98778996768655,-0.0047384515708252,119.99502782970669,298.6045563416545,15.288,0.0,7.629729526876861,0.0649169000670633,7.189894631586397e-09,-0.0016556186298127,-0.0016067165081956,0.0001005006501911,20.50168285573144,4.088291104096873,18.99990584964728,32.982027869743995
0.56,31.222205835564825,131.01041286333344,8.659419557740865,4.2761850391025895,-19.83429591775525,30.67140830172236,1.4580916501578656,2.704469458725875,346.2265619465787,22.38470664530517,7.986643289600224,71.98681720229155,-0.0079510679030274,119.99165001346464,306.6558953626814,15.288,0.0,7.658497301312577,0.0657870174851677,6.89128238501313e-09,-0.0017523628786635,-0.0020902580721981,0.0001077968381538,20.271863573709098,4.107043591278997,19.33099720593178,30.82491643986086
0.57,31.22220547358401,131.0104135925399,8.855719658358264,4.285090707478336,-19.595289793047733,30.332660632597456,1.492697462190545,2.6925253441049537,343.1828296833023,22.688274140636103,8.11055361603557,71.9857879221107,-0.0120240708090559,119.987367449771,315.0237085271411,15.288,0.0,7.687151834635678,0.0666793278363249,6.370824022160599e-09,-0.0018529403199425,-0.0025849929152642,0.000115527473886,20.04034856615036,4.123859337169244,19.669907030271247,30.488491918994697
0.58,31.222205105036785,131.0104143321851,9.054916544026312,4.289145206807441,-19.34371515095644,39.84616089435252,1.5293142939185775,2.6799558039673075,426.1250058573153,23.01241905808656,8.241082340752012,71.98469984432715,-0.0169771188291765,119.98215945484708,324.0832300069049,15.288,0.0,7.715691849367813,0.0676321201581278,5.6246726020440474e-09,-0.0019574533883996,-0.0030911042262217,0.0001237849315254,19.79574432870175,4.13700371837603,20.031309535619062,39.965453873807434
0.59,31.22220472948131,131.01041508313105,9.25730836424179,4.2982669327507965,-19.120857929677182,32.35814219725492,1.5645323736973895,2.667570445528755,360.68438819711065,23.310110742535542,8.362760749376662,71.98355054558111,-0.022831120087884,119.97600402997504,332.5157676669095,15.288,0.0,7.744160135588019,0.0685071745908552,4.64870032520218e-09,-0.0020662179681735,-0.003609753665017,0.0001323506589822,19.58037406705308,4.152925345700524,20.362053857958244,32.50558505992432
0.6,31.222204347126773,131.01041584489698,9.46273977744488,4.299221900833406,-18.871685346015248,28.791670893705987,1.6030519379955297,2.6542363217456866,329.4859594986058,23.64519542357499,8.496559953423137,71.98233748649903,-0.0296072351256698,119.96887891134828,342.1376113132825,15.288,0.0,7.772528558594812,0.0694921316800854,3.438813176441957e-09,-0.0021792235742167,-0.0041405706609132,0.0001415929944281,19.33779432375495,4.162968633440127,20.73414687729898,28.958160487487145
0.61,31.22220395790663,131.0104166175709,9.671247599164246,4.298647421494224,-18.62371547912228,33.68825695491057,1.6426184119470346,2.6404851552687663,372.0984511843297,23.986396496665147,8.632194243832771,71.98105815345457,-0.0373271337471097,119.96076129074568,352.07592160665723,15.288,0.0,7.800800856192842,0.0704950716155789,1.9908236329813692e-09,-0.0022966036778263,-0.0046838495691442,0.0001513698704578,19.09621702894959,4.1714616856735285,21.112232314336744,33.831479627154096
0.62,31.22220356192616,131.0104174008858,9.882748851768552,4.3097777707982425,-18.429495296324,41.81702773614845,1.6781943187858563,2.6275635544534404,442.86563930529206,24.266907445854223,8.747821429798584,71.97970981768592,-0.0460129323105489,119.95162789603977,360.3515175958025,15.288,0.0,7.828975943642611,0.0713196523823759,3.0050536373315445e-10,-0.0024184273949288,-0.0052395905321596,0.0001612601435953,18.909659090439717,4.187470213483667,21.421670242713724,41.93309236259718
0.63,31.222203158977884,131.01041819522456,10.097379514904654,4.316824896160449,-18.224962173349272,23.8404857941958,1.7156435192166553,2.61402930101547,286.11251274707894,24.56525524226725,8.869158466459446,71.97828974813969,-0.0556859233200168,119.9414563199952,369.2590084048068,15.288,0.0,7.857033171671693,0.0721966616727916,-1.6360947054513627e-09,-0.0025448828340645,-0.0058083048636766,0.000171774889268,18.712328117773986,4.200400164798891,21.75051635557235,24.044653143159483
0.64,31.222202749661715,131.01041899930166,10.314712556997804,4.317537022694516,-18.001635144162513,23.410700560469067,1.7559770422181649,2.599614058270664,282.30782441796754,24.894039955252328,9.00029999460417,71.97679525720045,-0.0663676044911002,119.93022392903472,379.20166727474407,15.288,0.0,7.884984430465288,0.0731631309831169,-3.822942319412176e-09,-0.002675732774191,-0.0063886579680757,0.0001830204677459,18.495467313421123,4.208586210148365,22.11264273019426,23.619956590914864
0.65,31.22220233394385,131.0104198131432,10.534763397518295,4.326885285139323,-17.817529165693927,41.15530124588148,1.793237529002021,2.585820511765374,436.7781447787475,25.17563084100829,9.115927805093854,71.97522347054571,-0.0780789080064836,119.91790869327453,387.8207306625756,15.288,0.0,7.912752296610319,0.0739909051612081,-6.2637940995805834e-09,-0.0028111095373737,-0.0069809405619017,0.0001944511401422,18.31880528198476,4.222571363150593,22.42175156074806,41.27542839503597
0.66,31.222201911280504,131.01042063783163,10.757903685767491,4.33369662324346,-17.628972551522715,35.048766614531985,1.8318733963068736,2.5715275533708897,383.51251517160017,25.467776899034536,9.234876596108874,71.9735715592119,-0.0908409834264904,119.90448834464048,396.8652419826125,15.288,0.0,7.940436777466054,0.0748497076719638,-8.962379367112809e-09,-0.0029514145991276,-0.0075865545582637,0.0002065210458535,18.13739079137665,4.234536645717947,22.74211026179993,35.19068847433614
0.67,31.22220148185169,131.01042147295013,10.983999516401292,4.334888076971704,-17.424404373481234,24.217141915401807,1.8732633978590267,2.556366216184071,289.1562440103425,25.787609735122462,9.362710726838,71.9718364670255,-0.1046764078233262,119.88993911365743,406.8869302996085,15.288,0.0,7.968029738356996,0.0757898885833599,-1.1922747312760431e-08,-0.0030966446419054,-0.0082051776322954,0.0002193997296835,17.939286483509495,4.24222608660094,23.092584835541217,24.423637864571212
0.68,31.222201045819908,131.01042231811843,11.212929442037211,4.337223424227345,-17.229291350911588,30.171034603494192,1.914612770400299,2.5410496641116977,340.8999924858462,26.09927167833977,9.487765713676678,71.9700150788259,-0.1196076678876602,119.87423732299987,416.772246478082,15.288,0.0,7.9954387848816,0.0767060623958908,-1.5148871679316196e-08,-0.0032468172824317,-0.008836586404639,0.0002328146572258,17.750755341533978,4.250538227205795,23.433504268870585,30.338325670697554
0.69,31.222200603254937,131.01042317315017,11.444637139553096,4.344268049619339,-17.056605401777773,37.09048785473883,1.9542968035082848,2.526015912751704,401.0140726853634,26.382730618799894,9.603542704112622,71.9681042296975,-0.135656890755573,119.85735967119103,425.8648909900491,15.288,0.0,8.022742086036928,0.077539354204786,-1.8644576356691543e-08,-0.0034019876953045,-0.0094807161471731,0.0002465851392472,17.585204340986753,4.262102045093538,23.742883524814115,37.2277359194755
0.7,31.222200154001104,131.01042403832858,11.679224353371456,4.350608001846472,-16.8858349412263,31.149497845037377,1.9946476761168177,2.5106529621384723,349.27032420985284,26.66734801442037,9.719587392959632,71.96610070664966,-0.152845920479104,119.83928315165936,435.0931292176589,15.288,0.0,8.04994550397244,0.0783760576478839,-2.241352370161012e-08,-0.0035623547901703,-0.0101380765829361,0.0002609886578074,17.42147546849335,4.273012769845768,24.053157302600503,31.314105665755825
0.71,31.22219969810136,131.01042491352504,11.9166540647223,4.353186168645862,-16.705633107021267,25.64275242397517,2.037094377812802,2.494565419847813,301.33126406340574,26.97052921194479,9.841548092785272,71.96400117762818,-0.1711971169773863,119.81998421210017,445.032371384164,15.288,0.0,8.07696087608178,0.0792673277230023,-2.6459470514545645e-08,-0.0037279900353981,-0.0108086565956305,0.0002762224315045,17.247844394370933,4.281038068182266,24.383437020029262,25.84421331778744
0.72,31.222199235544544,131.0104257987231,12.15692710623352,4.351343955665003,-16.514036338885873,31.34114512275308,2.0820879921838062,2.4776220682605974,350.79220534145287,27.29684019031378,9.97088023957718,71.96180214689926,-0.1907332693111729,119.79943884877764,455.85571074313054,15.288,0.0,8.103870841713174,0.080226584563197,-3.0786204503580695e-08,-0.0038990170383861,-0.0114926509415756,0.0002923830704189,17.062243601566188,4.285582747118004,24.73858813694095,31.507793942543756
0.73,31.22219876631378,131.0104266939173,12.40004815387064,4.35854838647225,-16.35909578588342,39.58254219268718,2.1232181251992666,2.461571473227845,422.320318528234,27.56879371036585,10.08250260246549,71.9595000532829,-0.2114779806532342,119.77762219295607,464.97331944789937,15.288,0.0,8.130680564669929,0.0810260898726443,-3.5397648750084584e-08,-0.0040755770745834,-0.0121903194221225,0.0003086607784742,16.914423259118777,4.29684437277008,25.03388504812092,39.7158033503144
0.74,31.222198290330454,131.0104275992349,12.646066077557704,4.362255160179447,-16.19554761681124,24.8726382579989,2.166398549418429,2.444796537060537,294.48281347105944,27.8582940506184,10.199702012001632,71.95709129800537,-0.2334539645318609,119.75451030974337,474.77876021750944,15.288,0.0,8.157340686844064,0.0818771733849578,-4.02974407974454e-08,-0.0042578100799928,-0.0129019004932746,0.000325840539766,16.75754479216214,4.305405983160183,25.34804571281066,25.086220255267953
0.75,31.22219780796017,131.0104285138783,12.894718627438708,4.363577804892036,-16.02744764972181,28.997606268716435,2.2111888153268007,2.427407281547297,330.24688556441487,28.159441043114,10.32056445569172,71.95457215582631,-0.2566840792647624,119.73007910935172,485.08733441602334,15.288,0.0,8.183841225861228,0.0827624943770474,-4.548932588381869e-08,-0.004445557426524,-0.0136264995533189,0.0003438778454221,16.595795946053055,4.312081624859461,25.674560677745607,29.18292020005945
0.76,31.2221973190746,131.01042943808,13.14608991925308,4.367835102072065,-15.87328271289402,31.19595957249137,2.254912403066484,2.410151284103081,349.27032420986166,28.440660444770096,10.434887589981717,71.95193886898029,-0.2811909649187404,119.70430472573592,494.8125958844212,15.288,0.0,8.210222531161836,0.0835892542046505,-5.097678513624609e-08,-0.0046390358765262,-0.014364654421287,0.0003624189244367,16.448352375015197,4.32096957485104,25.97906392426086,31.37007097228635
0.77,31.22219682360163,131.0104303719564,13.400224972559858,4.372510771546871,-15.724037944471874,29.185976976347263,2.298804983622604,2.3926857555612018,331.7687666960708,28.716612883344897,10.547413295876956,71.94918748053207,-0.3069974576079269,119.67716308801698,504.4489474527135,15.288,0.0,8.236487344123406,0.084400541306927,-5.6763295246132086e-08,-0.0048384120741209,-0.015116698043298,0.0003816532162523,16.305877108546383,4.330162600088374,26.27757408368536,29.37398000852908
0.78,31.22219632159779,131.01043131535698,13.65707891576625,4.373877237034119,-15.566839450548247,24.016805526578725,2.344837069136751,2.374442218473044,286.8734378128899,29.01005773185797,10.6654862737924,71.94631405451847,-0.3341264619627201,119.64863004104852,514.7984925939893,15.288,0.0,8.262583754162598,0.0852632474895769,-6.285236144289844e-08,-0.0050437405227564,-0.0158825415226021,0.0004019050621365,16.155000897349634,4.336771938297503,26.59479671777017,24.247539760379144
0.79,31.22219581314424,131.0104322680796,13.916589599022348,4.373211924979966,-15.406187715637913,34.024953757896945,2.3924329876426262,2.355575278891844,373.6203323159534,29.31371714655872,10.786750365689947,71.94331450199559,-0.3626011158763279,119.6186811817518,525.6189846680368,15.288,0.0,8.2885330525162,0.0861559828989145,-6.924749672747386e-08,-0.0052550718311987,-0.0166620860781728,0.0004231173885609,16.00038341706554,4.341762159236006,26.922775036995304,34.1902025253129
0.8,31.222195297997715,131.0104332306009,14.178922855654733,4.377837781145831,-15.266515166966236,34.47113838481437,2.437561818778713,2.337250754840084,377.42502064505743,29.581900745065624,10.896487531710552,71.94018453193556,-0.3924451758896362,119.5872914544982,535.2669972855488,15.288,0.0,8.314374403405985,0.0869444589842261,-7.595210211577065e-08,-0.0054727484449276,-0.0174562807132962,0.0004446639736024,15.867452714668316,4.350947859726084,27.212117065556512,34.63616361920573
0.81,31.222194776255314,131.0104342026879,14.444005889278884,4.378485973216652,-15.116715214718676,22.537808985071603,2.485317203380414,2.317991836126166,273.9374926939919,29.8723490920348,11.01329630470418,71.93691974049848,-0.4236821719277318,119.55443603818532,545.8156851206899,15.288,0.0,8.340094474112524,0.0877983811991442,-8.296968508377234e-08,-0.0056967810759939,-0.0182648660375806,0.0004673994886239,15.723839767062756,4.356985183018116,27.52527365001383,22.79260234377243
0.82,31.22219424810428,131.010435183918,14.711702509842604,4.377295972429368,-14.963977093041084,28.865066436524625,2.534609698317784,2.298103387855148,328.72500443277005,30.17214275391052,11.133013252343714,71.93351577778614,-0.4563356193782185,119.52009011136312,556.8117648424815,15.288,0.0,8.365681609908915,0.0886797782100383,-9.030375934876368e-08,-0.0059271265148544,-0.0190874033649141,0.000491166245702,15.577018887758094,4.3615608664963865,27.84823746548659,29.067122077857285
0.83,31.222193713516862,131.0104361743203,14.982027930136637,4.382612455223798,-14.83522365153655,36.60119424789068,2.580518047299323,2.2790358401203608,395.68750322465047,30.42748064795832,11.2383500742477,71.9299679770995,-0.4904291142057703,119.48422877464922,566.2612070381209,15.288,0.0,8.391094448923427,0.0894305216285606,-9.79576262948098e-08,-0.006163949725402,-0.0199241903087264,0.0005151004984569,15.45509071089406,4.371457568484392,28.123119906551544,36.76275966416037
0.84,31.22219317237306,131.01043717412207,15.255063320483975,4.38622375608586,-14.703592482436283,22.72430163494789,2.6277792476579567,2.25939656628715,275.4593748256452,30.690794136089423,11.34616333981486,71.92627177128338,-0.5259856518844894,119.4468277446397,576.0891357308614,15.288,0.0,8.416382611583181,0.0902047138173825,-1.0593436953881945e-07,-0.0064074558320031,-0.0207756465377194,0.000540068996908,15.330043118336702,4.38005265903287,28.406426804491964,22.98703942255869
0.85,31.222192624973584,131.01043818266518,15.530593232759133,4.383910945029398,-14.555712569514176,24.749359781253304,2.679066503306564,2.2383703491054296,292.96093233939376,30.99026988887473,11.465501298495028,71.92242241449564,-0.5630280552678096,119.4078629176538,587.3712129306076,15.288,0.0,8.441528136542848,0.0910851998305582,-1.1423731690834537e-07,-0.0066574676558924,-0.0216408791935295,0.0005666024283248,15.18789134141501,4.383882281662839,28.72837835894003,24.994369540574777
0.86,31.222192071126976,131.0104392003277,15.808749378669628,4.385449733151762,-14.422758165758038,30.907815641957143,2.7284415565911035,2.217736528100593,346.2265619465587,31.2617719491428,11.575766953338013,71.91841498402765,-0.6015799404600753,119.3673093481092,597.6921072631451,15.288,0.0,8.466548236213162,0.0918834747740313,-1.228694589294748e-07,-0.0069143209455758,-0.022520754035729,0.0005936022406416,15.061209180124578,4.390931910455392,29.02010060730342,31.107166640390375
0.87,31.22219151085059,131.0104402270501,16.08951666427906,4.388644406767077,-14.297468177666868,28.802172976127164,2.777159959036529,2.1971235107607847,327.964078366998,31.519287555646773,11.681459686832357,71.91424446347249,-0.641664628635154,119.32514239331437,607.5631343609667,15.288,0.0,8.491441584262134,0.092640648847883,-1.3183387695985926e-07,-0.0071781189079283,-0.0234153295996645,0.0006213091316189,14.942429515691156,4.399444888091134,29.29668181866137,29.01904783597083
0.88,31.222190944174383,131.01044126274775,16.372871435072625,4.388730558983278,-14.164880532591184,24.93579577531569,2.8282679207778045,2.175597758248128,294.4828134710418,31.7948423584046,11.792851815919628,71.90990573287543,-0.6833052207839417,119.28133763472972,618.2158890350207,15.288,0.0,8.516202170831287,0.0934508509403787,-1.4113360163423925e-07,-0.0074489254299258,-0.0243245311981836,0.0006503680235191,14.81589109765608,4.405496397097961,29.59242429659092,25.189804206973243
0.89,31.222190371176417,131.0104423072344,16.658756070660747,4.385774135017278,-14.02532335981296,27.31499656958217,2.8818276849693234,2.153123781915172,315.028134248087,32.088564006819425,11.90997861172482,71.90539353318502,-0.7265249119022384,119.23587054705445,629.6735512747337,15.288,0.0,8.5408102049175,0.0943144567559534,-1.507716455618978e-07,-0.0077267994137372,-0.0252482703715714,0.0006808428393375,14.68192164083269,4.409127350439484,29.907407532336546,27.55086042980128
0.9,31.222189791770848,131.01044336067113,16.94722908348316,4.389471069069844,-13.90844328125007,30.13539381132728,2.931382595502237,2.131701216617345,339.37814235421445,32.333745844928046,12.011470016853576,71.90070240737661,-0.7713475125050556,119.18871594940369,639.3150015023292,15.288,0.0,8.565277909352977,0.0950354026277918,-1.6075089207668905e-07,-0.0080119766762149,-0.0261870350427573,0.0007113455485585,14.571621515401842,4.418441740919311,30.170406056374663,30.352580024800588
0.91,31.22218920602556,131.0104444228971,17.238240922583024,4.390101437561191,-13.784367013345108,23.00777146313064,2.983374261830285,2.109333544917652,277.7421810230789,32.597075458242244,12.118692141226548,71.8958268791424,-0.8177957065103775,119.1398498373256,649.7525495863407,15.288,0.0,8.589615157138839,0.0958096960848018,-1.7107417798156276e-07,-0.0083044909284199,-0.0271406429730868,0.0007433005195093,14.45366174102728,4.425334454595787,30.45265916036744,23.296080307414698
0.92,31.222188614144365,131.01044549346057,17.531645226635135,4.387753433089372,-13.653495636545983,27.325398790339023,3.0378511444446614,2.085989749099321,315.02813424806214,32.8785145900798,12.231629110236284,71.89076132734837,-0.8658922234568817,119.08924814925896,661.0021249977057,15.288,0.0,8.61381041032894,0.0966372251146435,-1.817445003257557e-07,-0.0086042251083686,-0.0281084397063732,0.0007767557881271,14.328446262980693,4.429859026131741,30.754069034649884,27.572763950322653
0.93,31.222188016027754,131.01044657255778,17.827511574877644,4.391484087124915,-13.542847785357496,32.43800560006302,3.088440450015897,2.063681744281625,359.1625070654728,33.11405534342997,12.329799894338416,71.88549998757387,-0.9156597865439072,119.0368868212598,670.4877980627633,15.288,0.0,8.637876033568778,0.0973298563976234,-1.927642870842271e-07,-0.0089114562086909,-0.0290910300742927,0.0008102317405849,14.224388365028611,4.439682161403503,31.006503107101828,32.649983982610095
0.94,31.22218741155802,131.01044766042946,18.12592366211913,4.3892127336991695,-13.416384782077923,23.63027714468915,3.1436982102879387,2.039695612645678,283.0687504837787,33.3892194894432,12.440563638769977,71.88003701674454,-0.9671204900279609,118.9827424413358,681.6575123689671,15.288,0.0,8.66181168785372,0.0981389578161274,-2.041358943757797e-07,-0.0092263984075717,-0.0300887994055753,0.0008458127531574,14.103582144425006,4.444588853883368,31.30098479490855,23.9255761595083
0.95,31.22218680102948,131.01044875642953,18.4266706264446,4.387504539412256,-13.29360290550488,30.507219074383844,3.198985126293256,2.015495844680216,342.4218736174873,33.657620858786586,12.549085153970983,71.87436633632117,-1.0202971825780072,118.92679079301968,692.6406478998251,15.288,0.0,8.685607732432532,0.0989281897943707,-2.1586233077977457e-07,-0.0095488636430999,-0.0311008806209085,0.000882385411486,13.986538861245586,4.450142668506374,31.58815113895307,30.740626945308357
0.96,31.22218618413561,131.01044986120627,18.72997148385725,4.38872523328956,-13.181268790861637,29.893398587085816,3.252493769851549,1.9916689566788,337.09533515678345,33.90168840427196,12.649748236350218,71.86848175442326,-1.075212324900697,118.86900805796633,702.7019384944513,15.288,0.0,8.709282727219106,0.099645906547239,-2.2794548110353802e-07,-0.0098793620416056,-0.0321285684102268,0.0009195191779121,13.88040411590926,4.458396835544347,31.84939523593301,30.135705401438763
0.97,31.222185560893788,131.01045097471336,19.035814227025632,4.388153306063403,-13.06555890286646,19.225270704972367,3.307713187035387,1.9670881392417068,245.02188719299323,34.15562985338552,12.753487065069512,71.86237687931073,-1.1318887149138828,118.80937005139404,713.2476272461605,15.288,0.0,8.732834315834179,0.100392653171228,-2.403878535665085e-07,-0.0102180012010589,-0.0331718946122657,0.0009581335624878,13.770608276947684,4.465323941218355,32.12103765967494,19.606668150267193
0.98,31.22218493159684,131.01045209630863,19.343989284732697,4.381880157507734,-12.93538243119332,27.8704504429245,3.3677732174651904,1.940715633094038,319.5937466429581,34.44891996770602,12.869714752203173,71.85604519770236,-1.1903487543368283,118.74785299334096,725.527879280629,15.288,0.0,8.756246573911893,0.1012550644059017,-2.531924281280812e-07,-0.0105645147125985,-0.0342297636198502,0.0009991026568842,13.64542159848592,4.467532997805187,32.434251721507614,28.140189791547638
0.99,31.222184296089328,131.01045322631904,19.654608540308512,4.384678012659356,-12.832817208267135,30.43145114870116,3.4211131173932654,1.916336287239592,341.6609485517054,34.67162106416741,12.96332523902798,71.849479981848,-1.250615217480927,118.68443269997216,734.916880016375,15.288,0.0,8.779537194319653,0.1019100027524452,-2.663611130403937e-07,-0.0109193022324107,-0.0353030993067587,0.0010393002430528,13.549314185408162,4.477817533892838,32.672658100882586,30.683050349396108
1.0,31.22218365436892,131.01045436474746,19.967675571613785,4.381926140160831,-12.716213260912388,27.25660128972784,3.4792273471490365,1.8901755023532567,314.2672081822764,34.932647387549785,13.069094236476756,71.84267451526722,-1.3127092885307774,118.61908664784546,746.0017893444023,15.288,0.0,8.80269912517651,0.1026775979377143,-2.79896046098914e-07,-0.0112824371847609,-0.0363918242116784,0.0010819155433483,13.43826353770175,4.483529965193898,32.951547162521905,27.542695950651588
1.01,31.222183006617385,131.01045551119236,20.283060628035543,4.379883271983163,-12.60327925114294,28.49412666682309,3.537153420959734,1.8638603014865256,324.9203161036979,35.18526577435857,13.172105455231838,71.83562180336767,-1.3766529908908962,118.55179141686357,756.807426567015,15.288,0.0,8.825729072403812,0.1034204877011061,-2.937997122232164e-07,-0.0116538407922441,-0.0374954198315949,0.0011255782613707,13.330997688941952,4.490105964942964,33.22147390680232,28.773263354229098
1.02,31.222182352756025,131.01045666582328,20.60082241534848,4.3790468970606575,-12.495294709542623,23.8152763107518,3.594431203104921,1.8375459829599463,284.59063161540416,35.42541539963913,13.271064831998531,71.82831476904231,-1.4424675001029197,118.4825244656544,767.1501277947848,15.288,0.0,8.848632631237084,0.1041267358302806,-3.080738450856193e-07,-0.0120337547079671,-0.0386143092195205,0.0011701691162117,13.22888307686913,4.498005253661739,33.47818046631406,24.154997343630622
1.03,31.222181692853948,131.01045782848948,20.9209135173452,4.374364881060489,-12.378294651301022,19.48701902442127,3.6553285968039946,1.8097946741600217,247.30469339049705,35.69204124449379,13.3783949109201,71.82074621209472,-1.5101734624221363,118.4112637953656,778.7174003549502,15.288,0.0,8.871405641201257,0.1049108142213702,-3.227204478610281e-07,-0.0124221997165304,-0.0397482626096665,0.0012169957651733,13.1171070397159,4.502796157657065,33.76275337166312,19.90931175031893
1.04,31.2221810269724,131.01045899905463,21.24329166354791,4.372994362611231,-12.271916398476792,30.883975818433736,3.713776923178444,1.7826447541124548,345.46563688072297,35.92980313606495,13.47644889722811,71.81290866350301,-1.5797921397655024,118.33798674417784,789.1023460197636,15.288,0.0,8.894051317135359,0.105610059910807,-3.3774146567542505e-07,-0.0128192601703931,-0.0408972401783277,0.0012642225292485,13.016511622746329,4.5107921606650025,34.016839991263666,31.15750188490883
1.05,31.222180354826936,131.01046017815048,21.56816674719924,4.368485266149069,-12.158535324415748,18.689012471973857,3.7753265490450048,1.754215878134476,240.45625879819983,36.18881283215576,13.581199892741164,71.8047945501866,-1.6513440340382346,118.26267143497812,800.4952887659156,15.288,0.0,8.916582058587526,0.1063717685252248,-3.531378218776438e-07,-0.0132254871413971,-0.0420625188096392,0.0013136455176973,12.908377709096923,4.516312159932959,34.29325632150072,19.147050714839022
1.06,31.22217967665537,131.0104613652542,21.89536894241932,4.3612892401843215,-12.03949087397078,26.555151887420475,3.839737001297927,1.724570758235498,308.17968365593924,36.466146879040686,13.69171624427748,71.79639598108189,-1.7248505409375248,118.18529503292751,812.7859961989568,15.288,0.0,8.938988311004989,0.1071873475105224,-3.6891204086405617e-07,-0.0136406649432787,-0.0432431866531554,0.0013652240923464,12.794111932786857,4.5197374573051725,34.588874449715725,26.886684739909246
1.07,31.222178992342712,131.01046256062313,22.22498505765732,4.359706125198061,-11.936948646428272,31.24187982542896,3.899456043665273,1.6963000703521942,348.5093681440308,36.69545645520293,13.786855019355984,71.78770482028061,-1.8003332984813738,118.10583443136312,823.0141411727385,15.288,0.0,8.961282879101713,0.1078617734467548,-3.850654424618106e-07,-0.0140651797287923,-0.0444400340402525,0.0014165188430135,12.697317626798984,4.528498231535085,34.83394002437382,31.52995791928209
1.08,31.22217830179168,131.01046376448352,22.55709067933272,4.356714505727181,-11.83202602144232,21.07105705550241,3.9607929064031295,1.6672396620645265,261.00157857466235,36.93245013316125,13.884368139664872,71.77871285705578,-1.8778128251211152,118.02426768434592,833.6525739711514,15.288,0.0,8.983467144070225,0.1085587940058953,-4.015993782229321e-07,-0.0144992994662177,-0.0456534935430952,0.0014696234120348,12.5979010253842,4.536353811550739,35.087061629138844,21.50481373958892
1.09,31.22217760527765,131.0104649762294,22.89148872380173,4.347328572995544,-11.711709824553804,19.387860761268108,4.028549653591878,1.635702307138143,246.54375332474407,37.21822391586375,13.9973474760766,71.7694116787711,-1.957309473429608,117.9405730016916,846.576472401381,15.288,0.0,9.005528047026537,0.1093992068039991,-4.185163822108746e-07,-0.0149427006230185,-0.0468823639947367,0.001526236067683,12.481961234444809,4.538793875793394,35.391337137885614,19.869420707392347
1.1,31.22217690287771,131.0104661956948,23.228126638359903,4.340974136235566,-11.60079837749306,38.76688269586455,4.093886329770312,1.6047521172272696,413.1890617385841,37.47629342582364,14.10143278463417,71.7597926685061,-2.0388434013983003,117.85472877911936,858.329668246569,15.288,0.0,9.027469856365297,0.1101581945143459,-4.358179941656636e-07,-0.0153954600567556,-0.0481265647044362,0.001583332884027,12.375955369920408,4.54431594827224,35.66646928828663,39.015462685885815
1.11,31.22217619419964,131.0104674237739,23.56729784283709,4.340872245645604,-11.507393878913769,28.411730157916928,4.1534239606626615,1.5755953184253126,324.1593910376397,37.67891180440378,14.187787680583556,71.74984696625947,-2.122434815950144,117.76671334140546,867.6077390802653,15.288,0.0,9.049313378834334,0.110754196925548,-4.5350408097492614e-07,-0.0158584320739106,-0.0493881077981872,0.0016397112595069,12.288577767368006,4.555918206093545,35.88346229781471,28.756909461392695
1.12,31.22217547931116,131.01046866033477,23.908959365394296,4.328577884214883,-11.383928883785304,10.790099007463436,4.225454653338225,1.5417743133542563,172.73281794065943,37.97964513221186,14.30530541060004,71.739565624503,-2.2081027830040627,117.67650619346227,881.4836606404853,15.288,0.0,9.071049110654164,0.1116386093161934,-4.7157632605471643e-07,-0.0163315969240962,-0.0506666037908913,0.0017020569352018,12.168941079404904,4.556805168039917,36.20320377944355,11.690071498994351
1.13,31.22217475879257,131.01046990406843,24.252686578222537,4.322637317852063,-11.27809919625127,33.45851005343246,4.291531953911317,1.5097936238002925,367.5328077900705,38.224105644238,14.40484552913047,71.72893917017343,-2.295868362641135,117.58408471812282,892.8382507326941,15.288,0.0,9.09266269357917,0.1123576203572485,-4.900383086378617e-07,-0.0168141450225602,-0.0519595905497167,0.0017635684100699,12.068084890825808,4.563887079126101,36.46396395613938,33.766382961364855
1.14,31.222174032003743,131.01047115645196,24.598960319306435,4.3211065261863775,-11.184644541586694,18.57513876525144,4.353336123531991,1.4790848694741692,239.69531773195544,38.42715736110011,14.49113287240158,71.71795833008373,-2.3857493204910765,117.48942974641652,902.3191921432184,15.288,0.0,9.114182594068524,0.1129549209148663,-5.088881683362735e-07,-0.0173074100648418,-0.0532702923458848,0.0018248874578303,11.980415965067094,4.575482158003885,36.68141435590666,19.13569982007198
1.15,31.222173299425148,131.0104724164124,24.947431701667103,4.307222214581664,-11.061338700700608,18.30472544808997,4.428453508625729,1.4433314387042726,237.41251153546767,38.732560056515496,14.609929390376198,71.70661364724052,-2.477762903549906,117.392522631372,916.6879993862254,15.288,0.0,9.13558284177864,0.1138530862934587,-5.281290857458994e-07,-0.017810568084473,-0.054596211045729,0.0018928019805047,11.860616791091749,4.576096719108644,37.00582204664943,18.888022126468517
1.16,31.222172561193407,131.01047368364675,25.298003921397832,4.306440599330242,-10.972011851544297,47.728782797490254,4.489950907378137,1.412213040333924,490.0437743845894,38.92144897709633,14.691586615433328,71.69489513552665,-2.571928192725548,117.29334277107112,925.61954195471,15.288,0.0,9.156872470550695,0.1144087716948037,-5.477621978371905e-07,-0.0183236483124616,-0.0559371338933475,0.001956759854329,11.77722964904805,4.589318238761304,37.20848381783741,47.960303503542974
1.17,31.22217181647708,131.01047496010426,25.651307066910263,4.2990595175649045,-10.867408350511976,8.54345191412583,4.558810524304867,1.3781664837392056,153.70937929486794,39.16341632346414,14.790057181987912,71.68279298402393,-2.6682611540973475,117.19187282065624,937.1323175080468,15.288,0.0,9.178079365870882,0.115120488564057,-5.677843133239496e-07,-0.0188483981820753,-0.0572972432881415,0.0020252416969938,11.677338267207212,4.596911937784485,37.46658473386109,9.78124055845654
1.18,31.222171066390487,131.01047624323144,26.00651514224944,4.282948739247357,-10.74258388835274,23.25695751956133,4.6377993048023445,1.340131972618677,280.02501822196746,39.47927464539264,14.911983598582518,71.67029693720214,-2.7667788951021928,117.08809420524943,952.2769828013384,15.288,0.0,9.199155345489666,0.1160494162889442,-5.882017404101322e-07,-0.0193826756371966,-0.0586707071720965,0.0020993744981062,11.555571116684032,4.596768268759033,37.80170281158222,23.75270951201863
1.19,31.22217031044175,131.01047753418743,26.364003330480248,4.285404706124696,-10.664232841697403,40.55117401694121,4.696159966388624,1.3093641922292465,428.4078130529292,39.62671453512007,14.980262551972489,71.6573964041498,-2.867498821062508,116.981988011433,959.3700947859332,15.288,0.0,9.220108254267824,0.1164832861171578,-6.090118289469614e-07,-0.0199278567981799,-0.0600607429753189,0.002166410594343,11.48381108241545,4.614642162103458,37.96123592758102,40.84318874879937
1.2,31.222169548218844,131.0104788339797,26.72409373534969,4.272522525115459,-10.549679299755413,4.260814074095928,4.772250244793768,1.2717970651355974,117.1843741360236,39.906704121136045,15.090642328608228,71.64408107929788,-2.970434484069921,116.87353935766949,972.9415345836912,15.288,0.0,9.240970218051425,0.117306796166253,-6.302131228560626e-07,-0.0204848165534608,-0.0614691978875817,0.0022426165795491,11.372921659266163,4.618584824360885,38.25891207514295,6.5227583695730775
1.21,31.222168780826795,131.0104801400387,27.085959710902543,4.260217431486823,-10.437729612441029,32.56362748215756,4.848116465263193,1.233999481314201,359.92343213200894,40.17869310995516,15.198428616129988,71.63033989226574,-3.0756025113380967,116.76273009263411,986.2148500847886,15.288,0.0,9.261706437100928,0.1181067972177549,-6.5181194461264e-07,-0.0210513696343227,-0.0628902765242503,0.0023202680246272,11.264739592787905,4.623557499081272,38.54819196627126,32.94566470383268
1.22,31.222168007441617,131.01048145433643,27.450234017860325,4.26066749758016,-10.35728234863309,23.59498783897673,4.908992504713059,1.2014887033397623,283.0687504825761,40.33033128105603,15.267859068956987,71.61616189032473,-3.1830167371376032,116.64954498073116,993.638262067378,15.288,0.0,9.28235892418228,0.1185530307748343,-6.7380296464258e-07,-0.0216296408220912,-0.0643289566587526,0.0023929184137458,11.19054721754381,4.641322297882789,38.71225926109467,24.130172681459243
