Time,Latitude,Longitude,Altitude,Angle of Attack,Angle of Sideslip,X-Acceleration,Y-Acceleration,Z-Acceleration,Thrust,True Velocity,Ground Velocity,Pitch,Roll,Yaw,Dynamic Pressure,cp,parachute_deploy_gain,Wind Speed,Mach,omega_x,omega_y,omega_z,Cmq,Angle of Attack(total),Angle of Attack(gust),True Velocity(gust),Acceleration
0.0,31.222186000000004,131.010384,3.000000003643237,0.0,0.0,0.0,0.0,0.0,2.2828121974499247,0.0,0.0,69.99999999623421,0.0,113.69999999388332,0.0,15.288,0,0.0,0.0,0.0,0.0,0.0,-0.0,0.0,90.0,0.0,0.0
0.01,31.22218600000153,131.01038399999584,2.99999882256592,0.0,0.0,0.0,0.0,0.0,34.24218696174923,7.502283530665459e-11,7.190531319924593e-11,69.99999999623329,-4.83564628150269e-13,113.69999999388072,3.446445726795683e-21,15.288,0,0.0,2.204725565824978e-13,-3.659182332138578e-19,7.589415207398531e-19,4.811147140404426e-19,-1.5108918610345807e-31,0.0,89.9999999995224,7.502283530665459e-11,0.0
0.02,31.22218600000288,131.01038399999217,2.999997775701936,0.0,0.0,0.0,0.0,0.0,25.871876237766408,1.5320717031631675e-10,1.4674636035870463e-10,69.99999999623222,-9.67129256300373e-13,113.69999999387804,1.4372842949972735e-20,15.288,0,0.0,4.5023593667086093e-13,-7.284483346386986e-19,1.5178830414797062e-18,9.757819552369542e-19,-6.170906918166791e-31,0.0,89.99999999902465,1.5320717031631675e-10,0.0
0.03,31.22218599928065,131.01038400193067,3.000201659671132,18.81500467334555,-0.00012974450181,11.96616230539064,-1.8916256735984712e-05,3.349833086198469,180.34219359854663,0.0882870268161719,0.0553390044312322,69.99999999799445,-4.212591857125379e-12,113.69999999488518,0.0047728553458352,15.288,0,0.0,0.0002594525584132,3.2187251995663407e-17,-7.20264389268894e-10,1.2365134327422308e-11,1.6874092354518158e-13,18.815004673776716,89.46786891739345,0.0882666465974854,12.426199017587786
0.04,31.22218599548236,131.0103840121632,3.001799604587872,9.46752327608497,-4.6177622759613696e-05,55.21900012092241,3.931876292165237e-06,3.349616504302861,548.6359724538078,0.3767519978512604,0.1853356633749705,70.00000000507204,-2.4624598767003407e-11,113.70000000019972,0.086915163246288,15.288,0,0.0,0.0011071759353184,1.6174128009138757e-15,-1.3693172015529268e-08,2.7753303060112748e-11,1.3689612277852356e-11,9.467523276196548,87.63554493451223,0.3767447442872393,55.32050167054111
0.05,31.222185984749512,131.01038404118162,3.00777936418888,5.376730308971262,-2.257790939128127e-06,80.28807156553681,5.266841443842784e-05,3.348887800834877,761.6984298824644,1.018787885905993,0.4366201147110198,70.00000000894464,-1.1355399380652658e-10,113.70000001523856,0.635552918586145,15.288,0,0.0,0.0029939522895272,1.6418815498809788e-14,-9.32122351075408e-08,4.303264669380585e-11,2.5199270302492604e-10,5.3767303089717045,83.57022052969386,1.0187875312530217,80.35788377762394
0.06,31.22218596447235,131.01038409608267,3.0201664202003013,4.296730121134882,2.4863835723705905e-05,60.21296515808257,0.0001057204249726,3.347700952379021,590.4875390737208,1.721098934225416,0.7081674028809783,69.99999995523842,-3.0560354507026086e-10,113.70000004366592,1.8138247671743823,15.288,0,0.0,0.0050578622752421,8.328976953118383e-14,-3.2824985336199985e-07,5.923438275930214e-11,1.4991363363716091e-09,4.296730121206683,79.20467073327266,1.7211028398275985,60.305955550063224
0.07,31.22218593493329,131.01038417609837,3.038741944736831,3.8204913578752526,4.8016684030909405e-05,91.4060317508128,0.0001597686613101,3.346072557365335,855.2937749779139,2.4375792548422868,0.9844712334613328,69.99999973536046,-5.939103491363046e-10,113.7000000850886,3.6383156301599167,15.288,0,0.0,0.007163413150771,2.709313825263564e-13,-7.906546256197275e-07,7.920022733617308e-11,5.114174483651565e-09,3.820491358176508,74.87999294483174,2.437586797285377,91.46725557277466
0.08,31.222185894468456,131.01038428575305,3.0647976109320942,3.588632851766762,7.220043782492885e-05,19.18449428359557,0.0002119618497595,3.3440615022685813,241.2171988638848,3.1292508166901074,1.2522236515868983,69.99999919480445,-9.914748373602156e-10,113.7000001418522,5.996012698481753,15.288,0,0.0,0.0091960591623389,6.80386533246681e-13,-1.5973238302190878e-06,1.0839624626357699e-10,1.3263625118823921e-08,3.58863285249208,70.86684630658345,3.1292621579083604,19.473766155861934
0.09,31.22218584634549,131.01038441616095,3.0957981580345013,3.551302481506045,9.685468678862004e-05,57.102946699906326,0.0002554087225869,3.341892818148368,563.0937377043176,3.701810007254615,1.479132491047967,69.99999812344194,-1.4359264356978275e-09,113.7000002093888,8.390904013834115,15.288,0,0.0,0.010878666406854,1.440096519545733e-12,-2.748643691533636e-06,1.5214952332699618e-10,2.6999776649034504e-08,3.5513024828250237,67.68737872952666,3.701825221153239,57.20065357568538
0.1,31.222185790329306,131.01038456796124,3.1319266121977414,3.608446747536112,0.0001234669721807,54.26147302645416,0.0002914860332524,3.3396271157106168,538.7437595981919,4.174070299823608,1.6716491241860567,69.9999963052332,-1.902380107712657e-09,113.70000028805804,10.668380938744466,15.288,0,0.0,0.0122665227999911,2.687800116751415e-12,-4.315796035622946e-06,2.1749089204950437e-10,4.7802076800548326e-08,3.608446749645647,65.17160335282355,4.174089693970246,54.36414778470795
0.11,31.222185727066616,131.0103847393952,3.172681775073216,3.633547373470009,0.0001485939126744,42.987553988990406,0.0003293995000288,3.337005588796181,442.8656393052949,4.672024955140527,1.8729475711242067,69.99999349387662,-2.3433348587116544e-09,113.70000037699285,13.365573690709628,15.288,0,0.0,0.0137298902182575,4.5789425819531184e-12,-6.340230783164189e-06,3.1157625832417107e-10,7.860218435507205e-08,3.6335473765043056,62.62546922225161,4.672048296217748,43.116880735560244
0.12,31.22218565692512,131.0103849294629,3.2177790417108385,3.650108937861461,0.0001727442530266,46.86777100765684,0.000367618259785,3.334068179146888,475.58594813540446,5.17479364099247,2.0758708919414386,69.99998941286465,-2.702771525550512e-09,113.70000047573096,16.396890189902592,15.288,0,0.0,0.0152074069417046,7.288473386564583e-12,-8.86736416607888e-06,4.42271554299792e-10,1.217615295152289e-07,3.6501089419435786,60.16906436414164,5.174820775596283,46.986210423745625
0.13,31.222185580265183,131.0103851371844,3.2669395832841857,3.7280113734654137,0.0001995014041665,51.64515456841877,0.0003986198234033,3.3311573548369657,515.9156326236895,5.579364582999854,2.2451120211463422,69.99998375846928,-2.9114380666036422e-09,113.70000058383452,19.060875702782603,15.288,0,0.0,0.0163963474924215,1.100846422415094e-11,-1.1941028436408576e-05,6.179653149059831e-10,1.7678562106638216e-07,3.728011378795934,58.279338776943774,5.579395920607139,51.75247433579817
0.14,31.22218549718016,131.01038536230575,3.320091807147376,3.768719651034081,0.0002242721760019,48.1660778383537,0.0004326225136175,3.32784677779744,486.2390860568404,6.025734265159953,2.428648685938864,69.99997621008868,-2.890941335368725e-09,113.70000070125378,22.232643351545065,15.288,0,0.0,0.0177081261985351,1.5941871344608664e-11,-1.560901486259027e-05,8.477542742712431e-10,2.495765160917323e-07,3.7687196576976176,56.27980129251342,6.025769493750979,48.280903250602165
0.15,31.22218540777004,131.01038560455507,3.377159065217065,3.821894709649632,0.000249725644238,46.56959330999435,0.0004643042952466,3.324387732286376,472.54218587214,6.441023336496372,2.6014999612196745,69.99996641132823,-2.546763407193136e-09,113.70000082794672,25.402620271850456,15.288,0,0.0,0.0189285691155931,2.2314099732464315e-11,-1.992367942778425e-05,1.1417519574710292e-09,3.4051816697623295e-07,3.821894717796148,54.501255563441134,6.441062563308839,46.68809885900716
0.16,31.22218531193176,131.01038586421257,3.4382223512025254,3.8463320955387794,0.0002733212404609,36.974247749122085,0.0004987816203583,3.3205066466509234,391.1218908297564,6.895451966878468,2.7877331692857847,69.99995397923414,-1.77088415515292e-09,113.70000096417354,29.113317717489338,15.288,0,0.0,0.0202640360420561,3.0367358387834494e-11,-2.4945905791363795e-05,1.5114297685186711e-09,4.5643121540033697e-07,3.846332105235269,52.641145594326446,6.895494900078523,37.12304892183151
0.17,31.222185210004127,131.010386140357,3.503019838429153,3.8860314262554336,0.000297865039677,46.520531453299206,0.0005306403365217,3.31650761597812,471.78125980632376,7.314788342774694,2.9619016331667103,69.99993849340957,-4.3039914767238207e-10,113.70000110959404,32.761746921137856,15.288,0,0.0,0.0214963781445172,4.0366633128431416e-11,-3.0713078585132897e-05,1.96747427715988e-09,5.961228045584824e-07,3.886031437653654,51.00464968745696,7.314835131305714,46.63860064094784
0.18,31.22218510147516,131.01038643438045,3.571950002194137,3.9107265153396016,0.0003214293682635,38.895647526122765,0.0005639254295027,3.312149448254175,407.10156721191447,7.754626295791602,3.1430587898572058,69.9999195084231,1.6149322372810674e-09,113.70000126508234,36.81988229018681,15.288,0,0.0,0.0227889722876034,5.2593391349219385e-11,-3.731786027786564e-05,2.525509173087448e-09,7.6786585232224e-07,3.9107265285284982,49.36615848311875,7.754676785798701,39.036415444581515
0.19,31.222184986476247,131.0103867459258,3.644912152926752,3.920599115663931,0.0003437679584038,43.86258669386953,0.0005989384366483,3.307389681300437,448.9531328318269,8.219206165926856,3.332657190859447,69.99989653019398,4.538529095696477e-09,113.70000143063515,41.36350714675367,15.288,0,0.0,0.02415428010977,6.735860419174937e-11,-4.481243905342629e-05,3.199401151670645e-09,9.773118416308382e-07,3.92059913071168,47.71893898797248,8.21926016487149,43.987104227715655
0.2,31.222184864792144,131.01038707557822,3.722074668489528,3.943376465171875,0.000367328732016,40.28070981710589,0.0006315894240138,3.30251450988504,418.51563019916136,8.65238089736321,3.511445117640573,69.99986902534273,8.534090245934178e-09,113.7000016067622,45.83799876721736,15.288,0,0.0,0.025427299120469,8.499785987217288e-11,-5.328041996372527e-05,4.006766070954748e-09,1.2232205148646746e-06,3.9433764822533854,46.2587826635041,8.652438597225508,40.41586552155969
0.21,31.22218473678744,131.01038742234647,3.803156063113743,3.9664546506877016,0.000390962054969,38.67679184347145,0.0006636984664108,3.297405915846789,404.8187610144644,9.079179692250786,3.688002035198235,69.99983642883521,1.3827831253856693e-08,113.70000179318536,50.47126980736161,15.288,0,0.0,0.0266815841422463,1.0586558589671407e-10,-6.275155280099118e-05,4.961340042512481e-09,1.5117124669161171e-06,3.9664546699249135,44.88773728276958,9.079241104426773,38.817098210937615
0.22,31.2221846022986,131.01038778667507,3.8882846911135607,3.956175711337521,0.0004112685792646,46.713636108302936,0.0007011135033803,3.291572407481395,472.5421858721365,9.580256326712124,3.889976788904857,69.99979815126248,2.0662823443484168e-08,113.70000199039316,56.195522894218605,15.288,0,0.0,0.0281541581291438,1.3033127211465288e-10,-7.330053770532661e-05,6.0817207473359025e-09,1.8632831045819008e-06,3.956175732680424,43.35679625546934,9.580320928629488,46.8294591882524
0.23,31.222184460898035,131.01038816972698,3.977794004014759,3.9879066397329104,0.0004360962274406,38.89105719050748,0.0007308686121188,3.286096544282012,406.3406421461021,9.977039034039262,4.056142701351626,69.99975353557706,2.9316661139418326e-08,113.70000219928508,60.9462612310605,15.288,0,0.0,0.0293202403623685,1.5880617816859538e-10,-8.505067486192354e-05,7.393319440773217e-09,2.2514912291167663e-06,3.987906663538912,42.20670487756048,9.97710753587448,39.0296395118868
0.24,31.222184313516166,131.01038856897196,4.070963590490852,4.003523997322975,0.000459165577055,40.0792299321398,0.0007630441688766,3.280134925833028,416.2328240017114,10.408422364424831,4.234121060914368,69.99970190737699,4.010976417051318e-08,113.70000241888,66.32994780718496,15.288,0,0.0,0.030588009649109,1.91711512587616e-10,-9.795845222523724e-05,8.904557280909524e-09,2.7052895870113487e-06,4.003524023611085,41.011349410369874,10.408494489985014,40.21323112692186
0.25,31.22218416001652,131.01038898478134,4.167901030441617,4.0261356185860135,0.0004830526730531,41.17760020658354,0.0007934613160587,3.2740610008587527,425.36408079150686,10.816813039390448,4.4041629376391525,69.99964258149416,5.3372865854010094e-08,113.70000264972064,71.63651430352668,15.288,0,0.0,0.0317882126436337,2.2947426169209347e-10,-0.0001121037688082,1.0637152702866709e-08,3.217380562698304e-06,4.026135647516394,39.93186687113378,10.816888917126896,41.30755663120434
0.26,31.222184000702686,131.0103894163294,4.26837241014618,4.053359329950934,0.000507503069958,44.80261175215926,0.0008224724146494,3.2678597736729302,455.8015834241788,11.207047269494833,4.567925492611352,69.99957484039399,6.947299261165984e-08,113.70000289176392,76.89781807056055,15.288,0,0.0,0.0329350617559806,2.7254099134167665e-10,-0.0001275114371842,1.260720913253598e-08,3.7915697709142366e-06,4.053359361668992,38.945390435244384,11.207126987890645,44.921630958721536
0.27,31.22218383516388,131.01038986473338,4.372698316214008,4.0614460923241,0.0005296455772492,41.029837477288126,0.0008548809954683,3.2610328932384265,423.84219965987256,11.645685385842508,4.748226940060522,69.99949794024376,8.879821051920497e-08,113.70000314600205,83.0342688744587,15.288,0,0.0,0.0342241635563461,3.2137296827284217e-10,-0.0001442952656441,1.4842505534226832e-08,4.458527942364847e-06,4.061446126801262,37.8838346421185,11.645768582375233,41.15922617924542
0.28,31.222183663504484,131.01039032970942,4.48079961904222,4.081133040992532,0.0005533279247169,47.27661484082626,0.0008845140695959,3.254218495915602,476.3468732012221,12.047344998676092,4.915789434712848,69.99941106884992,1.1178948978424788e-07,113.70000341275257,88.85982357848233,15.288,0,0.0,0.0354045979054623,3.764736350660473e-10,-0.0001625146963723,1.7365685655384934e-08,5.194620655212288e-06,4.081133078439725,36.956255322213885,12.047431915223257,47.38848224631549
0.29,31.22218348566054,131.0103908114315,4.592727908358551,4.1001100265020245,0.0005770279952742,37.989969791857405,0.0009138463939581,3.247164755122801,397.97031042211177,12.446314684600782,5.082367374004485,69.99931338876085,1.3891902435864665e-07,113.70000369260468,94.8417675268915,15.288,0,0.0,0.0365771315767517,4.3836067907166327e-10,-0.0001822432988888,2.0202163500922312e-08,6.018074062137429e-06,4.100110067036654,36.07377590258778,12.446405323946324,38.12849176886316
0.3,31.222183301933686,131.01039130907952,4.708251093558373,4.112858061667493,0.0005998635114143,35.655053282557844,0.000944131403186,3.2397207148238625,378.1859457108711,12.860033399289696,5.253940723820665,69.99920403105713,1.707002607527005e-07,113.7000039856728,101.2505662360602,15.288,0,0.0,0.03779301412572,5.075709863465428e-10,-0.0002035013069687,2.3370674033523645e-08,6.94335970778e-06,4.112858105337573,35.19685285507256,12.860127625629724,35.80193592228613
0.31,31.222183112488807,131.0103918222051,4.827243246502713,4.136140889545823,0.0006242383343011,37.56633644061071,0.0009716215464757,3.232339252743767,394.1656220930212,13.2364445751808,5.4126574282679245,69.99908210036875,2.0768081583188525e-07,113.7000042923011,107.26326115439352,15.288,0,0.0,0.0388992619788015,5.846561731689753e-10,-0.0002263323252403,2.6893437641668458e-08,7.948283231812338e-06,4.1361409365698805,34.43286455705216,13.236542630309057,37.70514091683033
0.32,31.22218291741533,131.01039235056504,4.949637017503345,4.1622282001352975,0.0006491019906456,40.83513712643371,0.0009979686925508,3.224840963348891,421.55939346242695,13.59846554462374,5.566374262777002,69.99894668612772,2.504388718903276e-07,113.70000461297312,113.2095365840355,15.288,0,0.0,0.0399632243410653,6.701756367872645e-10,-0.00025078340164,3.0793566854276295e-08,9.047716714467492e-06,4.16222825066026,33.72644865222576,13.598567505326,40.96227562489027
0.33,31.222182716732533,131.01039289410716,5.075419569102976,4.187801887681037,0.0006739743721461,40.48743503284469,0.0010239291638211,3.217136801802925,418.5156301991682,13.956637761217308,5.718704299733134,69.99879684673242,2.995902922462564e-07,113.70000494831164,119.25032483364384,15.288,0,0.0,0.0410158804634189,7.647061680070125e-10,-0.0002769136723495,3.509664608790402e-08,1.0253455741189656e-05,4.187801941818244,33.053267359159875,13.956743628864118,40.61505097607
0.34,31.222182510255863,131.01039345333336,5.204736257784645,4.19642921746386,0.0006961879027693,31.814592723444047,0.0010535137542081,3.208669900766693,345.46563688075645,14.367047160772364,5.88887983533068,69.99863160305904,3.557915789971256e-07,113.70000529927128,126.36523219087664,15.288,0,0.0,0.042222056531773,8.688448410811866e-10,-0.0003048202762282,3.9835373705550826e-08,1.1618525957862828e-05,4.196429275109305,32.30947868183619,14.367156517712404,31.97598901989736
0.35,31.222182298183583,131.0103940277045,5.337435501771672,4.210915783240843,0.0007193441544952,34.813487415034444,0.0010813034848195,3.200164272309822,370.5765700527033,14.754132934586384,6.050986755458457,69.99844991734221,4.1975736284587617e-07,113.70000566632532,133.26448209504355,15.288,0,0.0,0.0433596939127697,9.832256819293898e-10,-0.0003345386312107,4.503361101379695e-08,1.309465610343774e-05,4.210915844572415,31.63649055965014,14.75424592890194,34.96026256388454
0.36,31.222182080444604,131.0103946174141,5.4735747500461605,4.22903876037745,0.0007431682866607,39.2632255716727,0.0011077666085529,3.1915717453569297,407.8625232777193,15.124417129017054,6.2072589919251575,69.99825073022951,4.922382611919288e-07,113.70000605036684,140.03566173682628,15.288,0,0.0,0.0444479595865755,1.1084921261805627e-09,-0.0003661511460057,5.0723697896912267e-08,1.4691545926915382e-05,4.229038825557203,31.017264542603208,15.124533865618538,39.39272792946638
0.37,31.22218185710795,131.01039522227452,5.613102797925907,4.249164960780052,0.0007674149135003,37.28328237034959,0.001133274451316,3.1828514669894137,391.1218908297666,15.483077353331511,6.359470679857624,69.99803294268581,5.740349991123437e-07,113.70000645214331,146.75405277514704,15.288,0,0.0,0.0455020695186381,1.245311285088233e-09,-0.0003997125883071,5.6934243389647934e-08,1.641828325195534e-05,4.2491650299519,30.439178816713017,15.483197898584232,37.418894813348615
0.38,31.2221816281124,131.0103958424523,5.756069531572451,4.260095806433531,0.0007900626414612,38.9278000801764,0.0011607546399008,3.1735466295306622,404.8187610144602,15.87126705947922,6.521735074464384,69.99779542676283,6.659911329739736e-07,113.70000687263192,154.20298254405043,15.288,0,0.0,0.0466429667223463,1.3943646956867835e-09,-0.0004353006984059,6.369875435270817e-08,1.8328108041903096e-05,4.260095879559656,29.83470194713067,15.87139116222873,39.05694584372078
0.39,31.22218139339905,131.0103964781077,5.9025231349944285,4.274091258047817,0.0008133283308351,33.320076729592266,0.0011870382950339,3.164143363712209,357.64062493382744,16.24457853509073,6.678818328235205,69.9975369905506,7.690136753559805e-07,113.70000731287368,161.54010621938565,15.288,0,0.0,0.0477401448128051,1.5563705124515804e-09,-0.0004730068442167,7.105463478762673e-08,2.0383860516746246e-05,4.274091335289374,29.274934656826048,16.244706292406182,33.46997636540994
0.4,31.22218115316572,131.01039712870306,6.0523126585892895,4.286421841403391,0.0008363022448449,31.88018820767003,0.0012133780841982,3.1544430614236454,345.465636880754,16.62063299903514,6.836764518435374,69.99725641601981,8.840594270905819e-07,113.70000777359816,169.10340080049767,15.288,0,0.0,0.0488453895716005,1.7320643186450851e-09,-0.0005128553637434,7.9027539265021e-08,2.2612406375611563e-05,4.286421922834417,28.730746964325096,16.620764365084565,32.03586915718869
0.41,31.22218090752676,131.01039779392735,6.205351877049411,4.30025870409831,0.0008595777771371,35.882550741685804,0.0012389121673015,3.1445895889870297,378.94687077668647,16.987310563534386,6.99141560549392,69.9969524610574,1.0121301778427253e-06,113.70000825570062,176.64448930727934,15.288,0,0.0,0.0499230826371405,1.922193031274436e-09,-0.0005548883906878,8.764667734700782e-08,2.5005077415911235e-05,4.300258789847355,28.21875643368965,16.987445585695873,36.020076248499606
0.42,31.222180656535848,131.0103984736348,6.36160173428776,4.322008670726048,0.0008844838439129,40.34064925656127,0.001261804338223,3.134918999355981,416.2328240017114,17.318628721060172,7.133856886815013,69.99662385300175,1.154276942054023e-06,113.70000876021427,183.59942989625057,15.288,0,0.0,0.0508968652507098,2.1275184665783874e-09,-0.0005991661829955,9.694534598491077e-08,2.752657757470936e-05,4.322008761057615,27.772396468009568,17.318767655457478,40.462275036947325
0.43,31.222180400205527,131.0103991677914,6.521055075967404,4.339436441324956,0.0009085827200945,35.541853595187746,0.0012854696362701,3.124839917627212,375.9031395134336,17.662848429084132,7.280642039343927,69.99626930133451,1.3115939750280808e-06,113.70000928827632,190.96736675963504,15.288,0,0.0,0.0519085689713619,2.3488101247838237e-09,-0.0006457514522491,1.0695800287133593e-07,3.0255957891170616e-05,4.339436536261635,27.322335771349252,17.662991148924057,35.67895714766603
0.44,31.22218013836212,131.0103998768696,6.683849332059896,4.342209064313268,0.0009296474314902,32.82948243168077,0.0013129688908547,3.113754688841357,353.0750125389216,18.063580761318697,7.446730341918701,69.99588746395321,1.4852372182848018e-06,113.7000098413532,199.7278270846888,15.288,0,0.0,0.0530863610987301,2.586862292117705e-09,-0.0006947575786514,1.1773083546077225e-07,3.329010177793299e-05,4.342209163639375,26.81344244367223,18.06372678999575,32.9768158972058
0.45,31.22217987077456,131.0104006014978,6.850166573233225,4.3420317510315165,0.0009500780330031,38.11022602597878,0.001341042003417,3.1022288449712887,397.2093853562869,18.47486275310604,7.616350301328129,69.99547690348253,1.6764536248320808e-06,113.70001042108892,208.92306716049887,15.288,0,0.0,0.0542951637545535,2.842521175226318e-09,-0.0007463379956615,1.2932090054593452e-07,3.657529369088674e-05,4.342031854775571,26.30944884471334,18.47501199101448,38.23628058998621
0.46,31.22217959739673,131.01040134180155,7.020045503401754,4.351169003849846,0.0009725797783515,44.3937050866137,0.0013660055515545,3.09098240974522,449.7140588976434,18.844323061800488,7.771531995684422,69.99503610583268,1.8865779683531e-06,113.70001102895836,217.3591612614144,15.288,0,0.0,0.0553810645782081,3.1166808800591503e-09,-0.000800596194505,1.417768495237597e-07,4.001824400409673e-05,4.351169112337076,25.873596578896564,18.844475834274814,44.50118229261506
0.47,31.22217931813738,131.01040209802923,7.193559875579052,4.358630093683735,0.0009947969928181,30.22514089990685,0.0013910994973101,3.079396422776949,331.0078106302534,19.2180591098146,7.9280875671397615,69.99456352718363,2.1170044481277104e-06,113.70001166656292,226.0625808853568,15.288,0,0.0,0.0564795377574197,3.4102493884459798e-09,-0.0008576351980594,1.551487523304888e-07,4.3718862242359527e-05,4.35863020698899,25.44665981168229,19.218215372160817,30.381603425148434
0.48,31.22217903348153,131.01040286886197,7.370336324605091,4.365514409145237,0.001016880998596,29.779838936311712,0.001416009414045,3.067527859335786,327.2031223011574,19.5915905767454,8.084483592791102,69.99405758812365,2.369198154608765e-06,113.70001233476164,234.93171707892955,15.288,0,0.0,0.057577416115756,3.7241711041759195e-09,-0.0009173883913609,1.6944871263079066e-07,4.767297940601472e-05,4.365514527349481,25.03354780044292,19.59175030803913,29.937410312943754
0.49,31.22217874361868,131.01040365378466,7.5502307795521535,4.3786401372577615,0.0010404145545081,37.2489281064929,0.0014385799934191,3.0558405437943126,389.60000969812296,19.93403005898306,8.23012235628909,69.99351671352461,2.644660619562788e-06,113.700013034871,243.21198709852868,15.288,0,0.0,0.0585839249886784,4.059374595909599e-09,-0.0009798792959512,1.8470833984680338e-07,5.180951737438081e-05,4.378640260624215,24.667474291142685,19.934193486919103,37.37406598941686
0.5,31.22217844858332,131.0104044527036,7.733219389747018,4.3946742888760575,-17.18869032443748,38.59900596814619,1.165194973699162,3.0440787215836265,397.97031042210494,21.197236616212912,8.366120773869401,69.99293932307316,2.9449363413826395e-06,113.70001376847225,275.00818702417143,15.288,0,6.262892444746544,0.0622964789184617,4.416673716856832e-09,-0.0010561207172611,2.6601108099191817e-05,5.937820097083604e-05,17.72515487863319,6.405264390844664,18.53756128846645,38.736382850221275
0.51,31.22217814802291,131.0104052652029,7.919263647560254,4.406197559504628,-16.947233280849456,29.68980033807044,1.1928494756820225,3.0317619332670422,323.3984349720841,21.531105614686982,8.51287600434681,69.99231753960386,-0.0001509604654112,113.69985039901528,283.73442547451776,15.288,0,6.287748018349319,0.0632778180651578,4.7448201410306575e-09,-0.0011242580069829,-0.0002511311040396,6.420351241935204e-05,17.494386451430607,6.383867397773398,18.90768779242854,29.86802160180901
0.52,31.222177841331025,131.01040609110916,8.108383246570163,4.414506412395817,-16.708484016733166,35.52807495852614,1.2215783937722933,3.019068503444968,372.0984511843415,21.8739964460412,8.66235595661191,69.99165597846999,-0.0007466947920927,113.69921682764463,292.8382192764628,15.288,0,6.312519542192272,0.0642856779035288,4.937317572823287e-09,-0.0011953311466801,-0.0005357708065319,6.934816184666862e-05,17.265732223846115,6.357842677389442,19.28647533805613,35.67703937631705
0.53,31.222177528362927,131.01040693079705,8.30069030941875,4.422961493853827,-16.4788977428049,37.27055794284285,1.250444651668193,3.0061529557254767,386.5562464348624,22.213613442003787,8.810484573434401,69.99095291021828,-0.0017953985180976,113.69810119441703,301.99648177450354,15.288,0,6.3372107321554605,0.0652839228663267,4.991574973075776e-09,-0.0012694736842074,-0.0008276380962582,7.479171191149518e-05,17.04623253193007,6.332123669233317,19.66065374611445,37.41249867077724
0.54,31.2221772090046,131.01040778451716,8.496262113156515,4.431205282206885,-16.256787991750702,32.817243473493605,1.2795529591406245,2.9929869953373167,349.2703242098436,22.55154271371324,8.957834078222099,69.99020654198013,-0.0033085003731575,113.6964913320114,311.24889688323304,15.288,0,6.361839409236642,0.0662772145126395,4.904961183896193e-09,-0.0013468042011619,-0.001126972450342,8.05532606777918e-05,16.834154472776394,6.306568367277003,20.03205794691272,32.978276124261896
0.55,31.22217688351583,131.01040865150466,8.694886251208258,4.440474996593709,-16.04590632325633,34.741957932793134,1.3085437512620803,2.9796738618349083,365.2500005919907,22.881953671610194,9.102332518360171,69.98941503716154,-0.0052974904216461,113.69437500671113,320.43004342681746,15.288,0,6.386376659992305,0.0672484170746713,4.6748906035079096e-09,-0.0014272977339876,-0.001433470623898,8.661673338314857e-05,16.633415710916463,6.282191958885886,20.39428665776715,34.89404510909902
0.56,31.22217655188283,131.0104095317404,8.896562924374335,4.451654446513428,-15.84868657026178,32.47290383489813,1.3371280406003867,2.966302730925748,346.2265619465787,23.20034258654848,9.242383954395311,69.9885765414038,-0.0077736625265434,113.69174019335908,329.4028938908143,15.288,0,6.410821968003654,0.0681842943381057,4.298866750485612e-09,-0.0015110373381425,-0.0017472384679914,9.29726706517524e-05,16.446576041433733,6.259795091408201,20.742462524470856,32.63550745367688
0.57,31.222176214162847,131.01041042501336,9.101237573099947,4.460564856718008,-15.650557214065476,32.117932457909234,1.3665358105300442,2.95251004940817,343.1828296833023,23.526704761326936,9.385131947015095,69.98768916420265,-0.010748296696096,113.68857488076412,338.7289251685233,15.288,0,6.435164550125295,0.0691436111430589,3.774445963738223e-09,-0.001598070221068,-0.0020682478600764,9.970894895235063e-05,16.258507144486185,6.236414226949648,21.0987783551892,32.28229113746632
0.58,31.22217587032025,131.0104113313656,9.308927824750706,4.464482451642096,-15.442518154590273,42.07414604619733,1.3976605499974046,2.9380167412399167,426.1250058573153,23.874958513215496,9.535527158971062,69.98675096800943,-0.0142327658159551,113.68486695829364,348.8242499139498,15.288,0,6.4594043024229935,0.0701672729805601,3.09919661353229e-09,-0.001688483390157,-0.0023966142220156,0.0001069074410119,16.059819328107704,6.209887387006734,21.47851517571042,42.199753114225295
0.59,31.22217551994398,131.0104122518578,9.519942041318766,4.473600675242048,-15.258015946253929,34.23692204193697,1.427369811528704,2.923772471563323,360.68438819711065,24.194822613373766,9.675654162133169,69.98575990312678,-0.0182391620215997,113.68060354958963,358.22632917417644,15.288,0,6.483569576133525,0.0711075063625358,2.270507075460278e-09,-0.0017825454629209,-0.0027330856637882,0.0001143728053036,15.885358720949185,6.188036794315346,21.82632690228631,34.39117126458482
0.6,31.222175163227703,131.01041318590623,9.734119643750066,4.474319786814641,-15.052463523834662,30.50381853822364,1.4599579759062231,2.908455043319872,329.4859594986058,24.55452665919788,9.829800663200407,69.98471386230558,-0.0227797259799639,113.6757716185088,368.9494093287692,15.288,0,6.507641845787214,0.0721648349018819,1.2857940036924511e-09,-0.0018802472679777,-0.0030774189838466,0.0001224326689971,15.688636017922894,6.16024760035526,22.217196083445995,30.676921837813214
0.61,31.222174800108927,131.01041413362384,9.95149876445952,4.473461786503221,-14.848171676735198,35.628285184784644,1.4933564883650194,2.892687995441835,372.0984511843297,24.920633733528827,9.986054132635704,69.9836106672161,-0.0278669769014832,113.67035783191004,380.0255405122732,15.288,0,6.531627216245671,0.0732409895030139,1.4242988810459216e-10,-0.001981702111229,-0.0034298012285138,0.0001309601528083,15.492897582479737,6.131750053107746,22.614306976657947,35.77670279174228
0.62,31.2221744306848,131.01041509468865,10.171993651810352,4.4846279909434505,-14.687579353007663,44.135861260657926,1.5229921525129335,2.8779245398747,442.86563930529206,25.221867612941065,10.119117309949573,69.98244802962216,-0.0335136955908514,113.6643485798739,389.26011722217805,15.288,0,6.55553312150043,0.0741264911612315,-1.162236427449992e-09,-0.0020869684968478,-0.0037902290915671,0.0001395807921291,15.34256217675958,6.113843790367105,22.939933334375137,44.255804184014934
0.63,31.22217405476184,131.01041606957403,10.395744991343095,4.491593206501968,-14.518834245320528,25.32038915987966,1.554188379684586,2.86248639719922,286.11251274707894,25.542057170613088,10.25877449099457,69.98122378102416,-0.0397322095424187,113.65773072577949,399.19752461258446,15.288,0,6.579321001257916,0.0750677104258642,-2.6306785089197237e-09,-0.0021962061765175,-0.0041590298080589,0.0001487483556694,15.183448474583775,6.093393689441444,23.285773014038583,25.529031260536474
0.64,31.22217367289676,131.0104170567107,10.622311227766648,4.4920461706847,-14.335151395655863,24.870072153494128,1.5878595045647137,2.8460618421144286,282.30782441796754,25.8946126793296,10.40976846764872,69.97993558463297,-0.046534928622683,113.65049105168907,410.28485361083807,15.288,0,6.603011219417788,0.0761040601284699,-4.265356804355417e-09,-0.0023092129527763,-0.0045353386727581,0.000158557630828,15.008399752880342,6.06818315496712,23.66627149695612,25.08270030788911
0.65,31.222173285057444,131.01041805613482,10.851708364771502,4.501371065528343,-14.18333126034926,43.442672649123054,1.6186245462051685,2.8303983116119182,436.7781447787475,26.196787849752603,10.54277567079716,69.97858109514613,-0.0539339544390854,113.64261666735764,419.9070488498872,15.288,0,6.626561237789892,0.0769923497974769,-6.068590831886748e-09,-0.0024261010830539,-0.0049193407022317,0.0001685237489107,14.86652188812299,6.051443957476684,23.99155978790228,43.56485862392782
0.66,31.22217289073788,131.01041906917567,11.084320808054452,4.508086191303344,-14.028070563868171,37.05080547787756,1.650484959504491,2.814197450198394,383.51251517160017,26.51013948149781,10.67960975617326,69.97715802048243,-0.0619415229100468,113.63409453065375,430.0029188780256,15.288,0,6.650016926042909,0.0779134945916737,-8.042665963061891e-09,-0.0025472118006499,-0.0053119374895446,0.0001790488544998,14.720792265100052,6.033351926249835,24.328564344179487,37.194166134620836
0.67,31.222172490104526,131.01042009532705,11.320010145480635,4.509025502053777,-13.86013694197392,25.71294177349717,1.6846792174302871,2.7970337426955427,289.1562440103425,26.852906807134616,10.826715582703656,69.97566381669913,-0.0705706759172422,113.62491074771944,441.1844106206457,15.288,0,6.673396324419707,0.078921100127832,-1.01900770858915e-08,-0.0026725418749456,-0.0057129177717562,0.0001902832104358,14.561469925587094,6.010969781035574,24.69693325827777,25.919431252839534
0.68,31.2221720833076,131.0104211341278,11.558650833468729,4.511139492441071,-13.700005256486108,31.94469402945749,1.7186908933621048,2.7797346824184825,340.8999924858462,27.18689876125648,10.970583210122244,69.97409589702696,-0.0798344036370974,113.6150514783386,452.2170539973053,15.288,0,6.696616752048687,0.0799029226649845,-1.2513261414536252e-08,-0.002802105880806,-0.0061221347746927,0.0002019849010955,14.410102122253347,5.990498690731127,25.055354644470533,32.1114356565885
0.69,31.222171670411136,131.01042218535366,11.800184694477917,4.518091681154835,-13.558060611570689,39.18735098732387,1.7510681438184874,2.762807509953867,401.0140726853634,27.49079966250416,11.10368524559476,69.97245172220147,-0.0897455066662795,113.60450307715072,462.3727907826956,15.288,0,6.719738717501297,0.0807963145899436,-1.5014559154408012e-08,-0.0029359503457725,-0.0065395440194969,0.0002139935584616,14.277659530501865,5.975199559800672,25.38092431869878,39.32362931349377
0.7,31.22217125126964,131.01042324935477,12.04471701465291,4.5243198687567165,-13.41782178610532,32.96844802068525,1.783899681058712,2.745546415579423,349.27032420985284,27.79587672359457,11.237077491385255,69.97072872605011,-0.1003166251059918,113.59325206811296,472.68092741973487,15.288,0,6.742773921701309,0.0816931709277008,-1.769618602388907e-08,-0.0030742440621138,-0.006965471329248,0.0002265547347628,14.14679052452006,5.960097098831624,25.707422465759667,33.13063368070112
0.71,31.22217082592212,131.01042432597734,12.292209580896312,4.52668441416396,-13.270179218610796,27.203953569692,1.8184538147330973,2.7274969807573863,301.33126406340574,28.1206492446248,11.377302108846468,69.96892414125513,-0.1115606751391958,113.58128468814716,483.7797549854802,15.288,0,6.765644336876773,0.0826479208630529,-2.0560404837596368e-08,-0.0032170473917237,-0.0073999067774334,0.0002398429203572,14.007878748074935,5.942384851025055,26.05476049101763,27.40075006050594
0.72,31.22217039435732,131.01042541520468,12.54266332089308,4.524509720753792,-13.113586039769867,33.1687096664694,1.8551209051369293,2.708511624034735,350.79220534145287,28.46994532508281,11.52604498935684,69.9670352309644,-0.1234908529049763,113.5685868657889,495.86085445176167,15.288,0,6.788422913328444,0.0836747550308458,-2.3609509371498225e-08,-0.0033644650333005,-0.0078429732068999,0.0002539430365244,13.859237779835729,5.921218858022774,26.42800506301259,33.330778714706746
0.73,31.222169956558616,131.01042651703355,12.7960831408623,4.531630256071224,-12.986518530441892,41.79571678432824,1.8882070133915063,2.690605117506483,422.320318528234,28.761390532194834,11.654255008148628,69.96505911152741,-0.1361208102106613,113.55514404538728,506.05270129556885,15.288,0,6.811114017325444,0.0845315704115704,-2.68458601814474e-08,-0.0035166166800062,-0.0082948357298911,0.0002681377729729,13.741627149147968,5.909500151789674,26.7388944878128,41.924773382089384
0.74,31.222169512451924,131.01042763162275,13.052519662981805,4.535160263523054,-12.852688103520268,26.39717815119844,1.9229571422437728,2.671918297090983,294.48281347105944,29.07143844481421,11.788904443991836,69.9629929035395,-0.1494636940604155,113.5409422069838,517.0092774918463,15.288,0,6.833664788234056,0.0854430683007526,-3.02716230754533e-08,-0.0036736209021103,-0.0087556451576544,0.0002831217608817,13.616643281825624,5.895304209634826,27.06943225210252,26.60165269120218
0.75,31.222169062376288,131.01042875799973,13.311701712745904,4.536245205509326,-12.715390917693345,30.71516762157861,1.95898573573855,2.652577706402732,330.24688556441487,29.393811082131943,11.92777678204699,69.96083366271968,-0.1635327443328961,113.5259672288444,528.5259091995835,15.288,0,6.856086989909316,0.0863907975063999,-3.3889063434876486e-08,-0.0038353423691618,-0.0092248229203005,0.0002988557523582,13.487757854851369,5.879590409715634,27.412836862352425,30.89167065121281
0.76,31.222168606211365,131.01042989645143,13.573716361049948,4.540348545932604,-12.58938419748121,33.01645709116274,1.993922971771685,2.6334440673050707,349.27032420986166,29.6949641809504,12.059054363041486,69.95857840489671,-0.1783410776300263,113.51020511888667,539.397797352362,15.288,0,6.8784058887765,0.0872761689155745,-3.7700222369141867e-08,-0.0040019649913121,-0.0097027134606932,0.0003150262518605,13.370654112774904,5.867526326664807,27.73330240899697,33.181277783195355
0.77,31.22216814388907,131.01043104712295,13.838610249473671,4.544886039067101,-12.467442676374311,30.91231495998004,2.028858887902896,2.614125545495824,331.7687666960708,29.990479290509743,12.188229477388466,69.95622402875522,-0.1939019319199812,113.49364175669852,550.1730619413247,15.288,0,6.900620258453492,0.0881449778172111,-4.170713733318455e-08,-0.0041736300538319,-0.0101895289954651,0.0003318004455074,13.257674538619275,5.856672132665636,28.04751594730963,31.08892305853714
0.78,31.222167675460906,131.01043220983252,14.10633704765469,4.546030004476195,-12.339264407728695,25.50087162761308,2.065517775361765,2.5939735946771534,286.8734378128899,30.30452078351232,12.323809729474595,69.95376748931511,-0.2102286047652857,113.4762629466315,561.7410798813348,15.288,0,6.922674707202299,0.0890682457912241,-4.59118793471415e-08,-0.0043503834980313,-0.010685210049278,0.000349464773554,13.137853912393169,5.843375697873745,28.381221693571693,25.71555009052343
0.79,31.222167201001287,131.0104333843354,14.376832538575744,4.545093375583773,-12.208509054263745,35.97825061409034,2.103396707532202,2.573167358465997,373.6203323159534,30.62935668214119,12.46306609837048,69.95120551129851,-0.227334509221987,113.45805437897052,573.8333861727501,15.288,0,6.944618900085052,0.0900232481707319,-5.031650051934332e-08,-0.0045322679673021,-0.0111896912501873,0.0003679684761998,13.01506230281469,5.828775174096074,28.72612712179903,36.13142655935722
0.8,31.222166720282743,131.01043457121645,14.650268338949532,4.549597106070753,-12.094620408512016,36.4455515048351,2.138960239483876,2.553040752351732,377.42502064505743,30.91650282510417,12.588949488886872,69.94853484941167,-0.2452334592273981,113.43900130410792,584.6276904664666,15.288,0,6.9664694212018095,0.0908674844730959,-5.4922954267045924e-08,-0.0047195741981662,-0.0117035817841669,0.0003867576704377,12.910080898556716,5.820230128773207,29.030762017835293,36.597423303845446
0.81,31.22216623339444,131.01043577019263,14.926569238261283,4.550022776295343,-11.97279457853579,23.95258873510454,2.1766594483612205,2.5319108563861694,273.9374926939919,31.227227729630453,12.723003654828783,69.9457520661192,-0.2639391228833296,113.41908913531016,596.4224666049288,15.288,0,6.988215097173782,0.0917810301074514,-5.973328822944097e-08,-0.0049123109419446,-0.0122267129074888,0.0004065870211834,12.79641255373767,5.808409841939426,29.36020275623527,24.184187521020494
0.82,31.222165740509485,131.01043698074966,15.20559443931909,4.548568700295924,-11.848713650924203,30.576857186802965,2.215531717786169,2.5101261084906974,328.72500443277005,31.547810118202875,12.8604061811259,69.94285377455302,-0.2834651787308552,113.39830326283472,608.7149000915272,15.288,0,7.009815498950521,0.0927235568527718,-6.474956100109192e-08,-0.005110441138654,-0.0127588009939395,0.0004273170315411,12.680125816978732,5.7954636829276485,29.699856100438627,30.759608406076747
0.83,31.222165241600905,131.01043820292486,15.487359757944224,4.553805020817139,-11.743900994880748,38.67640459592798,2.251317066753326,2.489336492514971,395.68750322465047,31.821225170895783,12.981130335015076,69.93983642548162,-0.3038253696198948,113.37662901203764,619.2949486159198,15.288,0,7.031292837355353,0.0935274603962442,-6.99736560393916e-08,-0.0053141046991088,-0.0133000360136901,0.0004481855451423,12.584315861257092,5.789899740060726,29.98938737544477,38.821765765816735
0.84,31.22216473655561,131.01043943699685,15.771949250959622,4.5572989974336044,-11.636923110104703,24.14832036783056,2.2881226019160046,2.4679621056664605,275.4593748256452,32.10306582913645,13.104702265044091,69.93669658541567,-0.3250331193025082,113.3540520344732,630.2964965066071,15.288,0,7.052664625665064,0.094356136284116,-7.540730859747585e-08,-0.0055234757257244,-0.0138506869007202,0.0004699567930006,12.486010873676062,5.783321755141012,30.287683507286573,24.381708688764714
0.85,31.222164225652463,131.01044068216325,16.059140126324294,4.554719445632225,-11.517152997097012,26.26872102357675,2.328258235186975,2.44507942744664,292.96093233939376,32.423195898229864,13.241604155486124,69.93343057714806,-0.3471017385051601,113.33055811214712,642.9120069759639,15.288,0,7.0739137686222335,0.0952973594644739,-8.105245784874879e-08,-0.0057384034266157,-0.014410178694963,0.0004930987385885,12.373762430428306,5.771322598047751,30.62624427304431,26.484805153724313
0.86,31.222163708711832,131.01044193888677,16.34906872691114,4.556105562907794,-11.409375068602108,32.71686055431587,2.366583078053779,2.422708160881882,346.2265619465587,32.7136419329382,13.367975894659851,69.93003476363333,-0.3700450468759872,113.30613246863132,654.4637479873243,15.288,0,7.095054755330988,0.0961513449411942,-8.69107448267651e-08,-0.0059591729528249,-0.0149790674514973,0.000516642093432,12.274229886193185,5.763986338979715,30.9332823143201,32.891688841235926
0.87,31.22216318574845,131.0104432070955,16.641719528915107,4.559203088484544,-11.307806128679369,30.51274881121997,2.4041878158925427,2.4004275075555306,327.964078366998,32.98923859467191,13.489029431506388,69.9265053072479,-0.3938766818804152,113.28076052875724,665.5185747978633,15.288,0,7.11608649833521,0.0969616938329586,-9.298388636103337e-08,-0.006185871875194,-0.0155573902116415,0.0005407990346592,12.181219862900132,5.759065845251921,31.22452089902675,30.70130308781243
0.88,31.22216265678889,131.01044448668665,16.937068146736973,4.559120217312559,-11.20050807358206,26.465104221319127,2.4436814952765533,2.3771849198133967,294.4828134710418,33.28390514312638,13.616664727552724,69.92283837150008,-0.4186101876662468,113.25442780810992,677.4415496113592,15.288,0,7.1369719215134895,0.0978281012916298,-9.927357995760464e-08,-0.006418554414451,-0.0161450985890543,0.0005661374435577,12.08186239294055,5.751614118084697,31.535717694134902,26.68378400524612
0.89,31.22216212190449,131.01044577743352,17.235055073753642,4.555925414379213,-11.087829674191063,28.95665457112569,2.485121241091439,2.35294429082982,315.028134248087,33.597776676438045,13.750922990487508,69.91903010532597,-0.4442591998894233,113.22711971501954,690.2587610798734,15.288,0,7.157741962518564,0.0987509649724915,-1.0578151879224345e-07,-0.0066572706001755,-0.016742135326512,0.0005927133330542,11.9765002473213,5.74160923496531,31.86695496408012,29.158189559198746
0.9,31.222161581013747,131.01044707953298,17.53574092651092,4.559575948088015,-10.993285395912467,31.910344329250247,2.5229807717669344,2.329957688509164,339.37814235421445,33.86022490704751,13.867047457594536,69.91507641726761,-0.47083770911785,113.1988212838212,701.0645140628757,15.288,0,7.178405897564751,0.0995226934302676,-1.1250924820573993e-07,-0.0069022208050595,-0.0173488144203777,0.0006193042963018,11.89059315046422,5.739273772539604,32.14397930967675,32.09461341122934
0.91,31.222161034178463,131.01044839278867,17.839074543182146,4.5600911740027055,-10.893148593637324,24.448113922512416,2.5627585185853423,2.3059838776759096,277.7421810230789,34.1418583318374,13.989790248160368,69.91097321782398,-0.4983590811738934,113.16951821018507,712.7544997048334,15.288,0,7.19895761445925,0.1003508198459768,-1.1945832759254317e-07,-0.0071534335604919,-0.0179650185651273,0.0006471641594632,11.798468582009596,5.734353474277192,32.441056157159146,24.68998921095002
0.92,31.22216048158728,131.01044971664993,18.144904609410386,4.557562569988356,-10.7877444830946,28.969703776789537,2.6044852748625247,2.2809921885000857,315.02813424806214,34.442627115161734,14.119133907852808,69.90671647704946,-0.5268367631243052,113.13919608696906,725.3463655846083,15.288,0,7.219387444293603,0.1012351982211487,-1.266304737529493e-07,-0.007410807663681,-0.0185903234546499,0.0006763349171761,11.70045616035934,5.726893056211136,32.758086315875524,29.175846274374084
0.93,31.222159923145817,131.0104510513557,18.45330320618057,4.561291456702008,-10.698479465565516,34.32392470981271,2.642757627169352,2.257232155653696,359.1625070654728,34.694797488245975,14.231350929397324,69.9023019146863,-0.5562841860326533,113.10784053210656,735.9846383111136,15.288,0,7.239705803929898,0.1019767427006151,-1.340269029901937e-07,-0.0076745779840632,-0.0192251171431205,0.0007055145817283,11.619826973130936,5.7265557739181965,33.02403264250818,34.49943582676926
0.94,31.22215935874252,131.01045239719812,18.764357042986,4.558872457329863,-10.59680072349074,25.10247087220284,2.6848300881479363,2.2316718306948684,283.0687504837787,34.98886606155177,14.358137086556168,69.89772530158719,-0.5867144677696299,113.0754374854796,748.4913698452922,15.288,0,7.259912434404325,0.1028414452084045,-1.4164881664319753e-07,-0.0079449267276774,-0.0198696478911301,0.0007365359063003,11.52553207461968,5.720425768767839,33.333797874107105,25.344086403970717
0.95,31.222158788650606,131.01045375339007,19.077848068171743,4.557048496152633,-10.498153655698864,32.30432497498124,2.726773122665336,2.20594734437877,342.4218736174873,35.275748871676235,14.482306169667911,69.89298223018794,-0.6181411886097201,113.04197238991304,760.7929330113062,15.288,0,7.27999926127162,0.103685035723769,-1.494979312082941e-07,-0.0082216945846272,-0.0205233608589908,0.0007684200096636,11.434373923319605,5.715501764450447,33.6359143097197,32.49416728334269
0.96,31.222158212582062,131.01045512071943,19.39400299561169,4.558249542277074,-10.40788825220426,31.662762118492484,2.7670585809736847,2.180715767139102,337.09533515678345,35.536868129053154,14.597351007968433,69.88806823421605,-0.6505777406700533,113.00743088376042,772.0743054993505,15.288,0,7.299981907073834,0.1044529089803955,-1.575750454606021e-07,-0.0085053150817594,-0.0211870884672983,0.000800787810116,11.352208613469642,5.7143609796751,33.910977109764495,31.858164407571127
0.97,31.222157630551223,131.01045649912837,19.712809518311207,4.557627473572771,-10.315062638354885,20.49304564071077,2.808638689388007,2.154719404888356,245.02188719299323,35.808405622336025,14.715939320328944,69.88297871768714,-0.6840377470446793,112.97179835306488,783.8942318054154,15.288,0,7.319858417890787,0.1052514131180669,-1.6588147044118673e-07,-0.0087958806304801,-0.0218608541230408,0.0008344472913093,11.267097600185286,5.711901265245876,34.196857836767684,20.796542660586258
0.98,31.22215704283008,131.01045788783452,20.03405092404634,4.551168724482645,-10.210894677371163,29.546788725832894,2.8541388831313164,2.1268052878184087,319.5937466429581,36.12151325256039,14.848977322558504,69.87770901986656,-0.7185346471340285,112.93506037295904,797.6382508695358,15.288,0,7.339605150794567,0.1061721131911482,-1.7441892966863677e-07,-0.0090931677710993,-0.0225439618831948,0.0008701664573321,11.169407568487376,5.703832388233263,34.52606633314747,29.76041218641805
0.99,31.22215644927148,131.01045928723397,20.35784307607241,4.554046085269886,-10.128671083899697,32.22985749186852,2.89384237308992,2.101184582433839,341.6609485517054,36.35996915909372,14.95579177307296,69.87225434006224,-0.7540821415943492,112.89720223454084,808.1790838081649,15.288,0,7.359247492644256,0.1068733981011742,-1.8318824674570425e-07,-0.0093975170804035,-0.0232370085100959,0.0009051995345492,11.095617702115677,5.706263778526379,34.77723497088065,32.427658168235055
1.0,31.22215584987124,131.01046069732772,20.68418979437351,4.551243383525049,-10.035463028798985,28.90662037010585,2.9373941739088125,2.073668550950797,314.2672081822764,36.63891289752161,15.076673045472567,69.86660992453966,-0.79069306129693,112.8582101483876,820.6011853060468,15.288,0,7.378781362919586,0.1076936981627552,-1.9219050530162865e-07,-0.0097089919954452,-0.023939947298452,0.0009423468899726,11.009631724251443,5.703223448491846,35.070593707397514,29.129385283825236
1.01,31.22215524479757,131.01046211762602,21.012956939994982,4.549189910698328,-9.945269882733635,30.203945797765105,2.980636977243756,2.046062135005802,324.9203161036979,36.90894385988263,15.1943398406144,69.86077082948268,-0.8283807665079597,112.81806975410164,832.7152219413887,15.288,0,7.398204054851218,0.1084878095822171,-2.014270457202991e-07,-0.0100275266454389,-0.0246524491081653,0.000980405656096,10.926809855422183,5.701544163781274,35.354577351765,30.419548136104023
1.02,31.222154633974807,131.0104635483322,21.34420537148074,4.548397499705664,-9.85909944199602,25.30581522884541,3.0231884135412974,2.018538407792874,284.59063161540416,37.16577565901776,15.307292698279472,69.85473208292015,-0.8671581791561496,112.77676715133532,844.3176185882014,15.288,0,7.417520236936045,0.1092431330264912,-2.108986253049221e-07,-0.0103533275489437,-0.0253747894815822,0.0010192710818499,10.848275744501006,5.701788143379695,35.62474312755856,25.565571573582503
1.03,31.222154017465595,131.01046498926047,21.677886147263884,4.543676831137609,-9.76592266353244,20.774749623767885,3.068601097770073,1.989511436131296,247.30469339049705,37.45055397681208,15.429924838639336,69.8484886517833,-0.907037968627133,112.73428870111614,857.2786799502576,15.288,0,7.436726482676782,0.1100806099795892,-2.2060624863522459e-07,-0.0106864137882369,-0.0261068253118076,0.0010600903017632,10.761869926651624,5.698351347720159,35.923943501036774,21.09418617491504
1.04,31.22215339532533,131.01046644024285,22.01395564547812,4.542381448773461,-9.681245747649625,32.711453619599205,3.111832741913965,1.9612289593059864,345.46563688072297,37.70481566473238,15.54179051299874,69.84203528574126,-0.9480332051761832,112.69062033268592,868.9307283791237,15.288,0,7.455825485293789,0.1108283965705582,-2.305508464264825e-07,-0.0110268584978568,-0.0268485359153438,0.0011012533264175,10.684705293562612,5.699169960060098,36.19131512459147,32.9176110912025
1.05,31.222152767285085,131.01046790204157,22.352631171804628,4.537885105745831,-9.5911536474334,19.942295865164606,3.15747614920341,1.9316280188077888,240.45625879819983,37.981494579924096,15.66139619535168,69.83536680313524,-0.990156603677432,112.64574833770855,881.7013074840225,15.288,0,7.474827558485573,0.1116420848887674,-2.407325617622559e-07,-0.0113751316193366,-0.0276007460266783,0.0011443344248722,10.6014076245805,5.697075058829368,36.48194599952327,20.282899368916492
1.06,31.222152133565626,131.01046937401966,22.693737132249016,4.53065212161955,-9.496707311749168,28.181769525406985,3.2053318894552083,1.9007774325832667,308.17968365593924,38.277493751345496,15.787663194929848,69.82847769513167,-1.0334214308575809,112.59965841930855,895.4681501764117,15.288,0,7.4937248003658,0.1125125723257043,-2.5115280569638817e-07,-0.0117310517899419,-0.0283628761509089,0.0011892980296719,10.513127975872225,5.69252612736104,36.79257542203051,28.42708639577637
1.07,31.2221514940568,131.0104708564855,23.03736347113704,4.5292124367809565,-9.415394231144424,33.09195839020844,3.249159809603446,1.8715236918755345,348.5093681440308,38.52275758682814,15.896094047225445,69.82136233324134,-1.0778411654221418,112.55233604375032,906.9504408687006,15.288,0,7.512527860377474,0.1132339380538889,-2.6181200248235297e-07,-0.0120949490778209,-0.0291354397906861,0.001234006168556,10.439269666838523,5.694863192395682,37.050438329692085,33.30371376433686
1.08,31.222150848664736,131.01047234970846,23.383588546910875,4.52635166473604,-9.332314301711271,22.442484227608976,3.2941698336339407,1.841494203869052,261.00157857466235,38.77611306346419,16.007256879448832,69.81401507237935,-1.1234287092144106,112.50376728274335,918.8887274138318,15.288,0,7.531237910217558,0.1139790974133862,-2.727106507107532e-07,-0.0124670535227648,-0.0299187213396905,0.0012802935946503,10.363318673904065,5.696211957850554,37.316669705788,22.75758673722205
1.09,31.22215019764564,131.01047385295104,23.7322085366182,4.516945353720294,-9.23720755755021,20.681700533731394,3.344304527702643,1.8088458731153343,246.54375332474407,39.08093143637019,16.136321681829653,69.8064301478756,-1.1701969396323506,112.45393822412775,933.3609925171012,15.288,0,7.549844138755893,0.1148755371142922,-2.8385022411189624e-07,-0.0128470927690625,-0.0307119571070955,0.0013296480436007,10.27383328842657,5.690876300050848,37.63623168421941,21.028291255678486
1.1,31.22214954106957,131.01047536600836,24.08316919221655,4.5106823984140405,-9.149630700451846,40.97943028089464,3.392301435240051,1.7769287364845614,413.1890617385841,39.35647655166088,16.25506328225241,69.79860167482205,-1.218158696582475,112.40283498622132,946.5370440890132,15.288,0,7.568349717507189,0.1156859399897391,-2.952313942235112e-07,-0.0132351347047917,-0.0315151031617635,0.0013794211119522,10.192579651019392,5.689531310070971,37.9253566307715,41.15797481544471
1.11,31.222148878565136,131.0104768899566,24.43677429231825,4.510876536902536,-9.07594920505658,30.136955923223727,3.43539163921864,1.7470613458234476,324.1593910376397,39.57348111715864,16.353242266058796,69.79052361783084,-1.2673269268773215,112.35044356397088,956.9713877606944,15.288,0,7.5867594329993135,0.1163242757339086,-3.0685347547025605e-07,-0.0136319082395866,-0.0323294596484194,0.0014285598831874,10.126712870503123,5.695945285785332,38.1537889779458,30.382400355785148
1.12,31.222148210193,131.01047842462995,24.792979520610075,4.498563643729028,-8.97868177028817,11.6838192788312,3.488533854674305,1.7122125041196727,172.73281794065943,39.89398599810434,16.487510679884398,69.78218991705458,-1.3177140012900344,112.29675055499852,972.501870058777,15.288,0,7.6050765032813885,0.117266855249031,-3.1871730887794426e-07,-0.0140374000930078,-0.0331547856850767,0.0014829168176466,10.034331360566371,5.688973032821566,38.48938334225538,12.313130107931945
1.13,31.22214753649705,131.01047996844417,25.151345554475885,4.492814139848187,-8.89542563573855,35.42761776380101,3.536676026215824,1.6794533352809071,367.5328077900705,40.155088207051485,16.600931680690863,69.77359413540435,-1.3693335279242873,112.2417412267286,985.2394697654336,15.288,0,7.623288881477805,0.1180348326242967,-3.308252038373831e-07,-0.0144509253699731,-0.0339895103772605,0.0015365403652107,9.957482927864342,5.689845792217094,38.763404622939525,35.64329868625777
1.14,31.22214685687151,131.01048152317537,25.51237016938556,4.491631779262852,-8.822031441474643,19.84241460049075,3.5811887394230086,1.648171630449524,239.69531773195544,40.3724892252356,16.698978423426492,69.7647300458464,-1.4221973039031552,112.18540276692936,995.9020514177024,15.288,0,7.641420518907248,0.1186743607458467,-3.431751783259297e-07,-0.0148736214712346,-0.0348357142274793,0.0015899919380873,9.8915743892105,5.696436918862448,38.99219684775036,20.230244676932536
1.15,31.222146171766024,131.01048308752297,25.875692444699087,4.477773614772862,-8.725224323676942,19.561769717465488,3.6363727776575927,1.6115159592129344,237.41251153546767,40.697815983544494,16.834676135468232,69.75559131992465,-1.476316919901401,112.12772257029307,1011.981615790479,15.288,0,7.65944960763972,0.1196311446609329,-3.5576936068172586e-07,-0.0153047922905785,-0.0356918044431492,0.001649210370607,9.799219378602633,5.6892675024102255,39.33255209571308,19.96203960380895
1.16,31.22214548130708,131.0104846611174,26.241212319511234,4.477428286645411,-8.655300596963794,50.38265109923988,3.680380205025412,1.5799639966342107,490.0437743845894,40.900238955584726,16.927324130059436,69.74617125216768,-1.531705124644838,112.0686867857412,1022.037561964182,15.288,0,7.677383763590906,0.1202266625027355,-3.686081597452033e-07,-0.0157444665519273,-0.036557655940679,0.0017049673258951,9.736981222313798,5.697928284262978,39.54583256411887,50.54159689277675
1.17,31.22214478470653,131.01048624629811,26.60958208019052,4.470327055269067,-8.573451367648376,9.343855131036358,3.7301845070173534,1.545355175158194,153.70937929486794,41.158614035974686,17.039435236653645,69.7364633271848,-1.588372969012484,112.00828336083832,1034.9545612104896,15.288,0,7.6952464503429345,0.1209866616128705,-3.816886045160343e-07,-0.0161941350844989,-0.0374359676549328,0.0017646776954962,9.661183097821295,5.699529190845324,39.81691945003219,10.178901108841513
1.18,31.22214408301353,131.0104878399849,26.97994698003419,4.454274277997329,-8.475784119431875,24.75752854720716,3.788037523244858,1.5065336873053603,280.02501822196746,41.49486015781602,17.17870855705492,69.72646072030881,-1.6463322699479563,111.9464994110122,1051.8963746251732,15.288,0,7.712999496113428,0.1219755744009198,-3.950153591466857e-07,-0.0166519814758478,-0.0383230070779892,0.0018293283717803,9.567365358252628,5.691402410296414,40.16833761628032,25.090916519614712
1.19,31.22214337576067,131.0104894435669,27.35269547735025,4.457369081091912,-8.414875027604838,42.87510665703996,3.8291352507427714,1.4756330232261083,428.4078130529292,41.65353987942789,17.255804409367094,69.71615638884026,-1.7055951295371643,111.88332173671736,1059.9188787646642,15.288,0,7.730673747437986,0.1224425340046189,-4.085858501991636e-07,-0.0171191808137616,-0.0392208542761148,0.0018877774294868,9.5149958319148,5.705784559659497,40.33648116870716,43.071040624069774
1.2,31.222142662554305,131.01049105824515,27.72816114085887,4.4447101005610365,-8.325558919773693,4.86732603317289,3.8843479087636767,1.437525797346504,117.1843741360236,41.95192120286701,17.38166451002712,69.70554356723831,-1.7661715341334645,111.8187393801792,1075.1197535061626,15.288,0,7.748271318904286,0.123320162458938,-4.223986119575697e-07,-0.0175964837724155,-0.0401307116562223,0.0019542403603007,9.43032794403527,5.702665175911015,40.648742789239854,6.391048568705764
1.21,31.22214194443721,131.01049268092677,28.1054884835602,4.4326803281426095,-8.238405039736598,34.515914220776004,3.9392598076842185,1.3992577034492668,359.92343213200894,42.24183411846548,17.50450444893721,69.6946149271967,-1.828073371509032,111.75273934019488,1089.991030935431,15.288,0,7.765763350400999,0.1241729074692644,-4.364583338285392e-07,-0.0180820371709322,-0.0410488704670424,0.0020219695602509,9.34795812243219,5.700756945000385,40.95220303081481,34.76814669275694
1.22,31.22214122062593,131.01049431397166,28.48533262502079,4.433827569296309,-8.17614927764433,25.12569021630345,3.982009997717717,1.3667578102380415,283.0687504825761,42.404893501318014,17.5828857875763,69.68336328498903,-1.891311036807628,111.68531019522112,1098.3822279317687,15.288,0,7.783159673502646,0.124652766620434,-4.507604333128939e-07,-0.0185776549681801,-0.0419785467524796,0.0020853334574289,9.293791933417234,5.71477188557431,41.12494136881719,25.475963953880477
1.23,31.2221404914446,131.0104959564438,28.867434578714946,4.420188095094296,-8.08783355277914,10.055990781488136,4.038639197909532,1.3270371405624783,159.79687382222795,42.702367612026414,17.708218220859614,69.67178160290365,-1.955893451423932,111.61644207871444,1113.8058948084947,15.288,0,7.800456064804625,0.1255277582279631,-4.653065524769489e-07,-0.0190826807022009,-0.0429182909562813,0.0021569696716646,9.209838153573289,5.712164082361549,41.4361485884258,10.91762724866067
