Time,Latitude,Longitude,Altitude,Angle of Attack,Angle of Sideslip,X-Acceleration,Y-Acceleration,Z-Acceleration,Thrust,True Velocity,Ground Velocity,Pitch,Roll,Yaw,Dynamic Pressure,cp,parachute_deploy_gain,Wind Speed,Mach,omega_x,omega_y,omega_z,Cmq,Angle of Attack(total),Angle of Attack(gust),True Velocity(gust),Acceleration
0.0,31.222216000000007,131.010392,3.000000004412624,0.0,0.0,0.0,0.0,0.0,2.2828121974499247,0.0,0.0,71.99999999612658,-1.0292491154817412e-14,119.99999999354436,0.0,15.288,0.0,0.0,0.0,0.0,0.0,0.0,-0.0,0.0,90.0,0.0,0.0
0.01,31.22221599999862,131.01039200000284,3.0000009727369523,0.0,0.0,0.0,0.0,0.0,34.24218696174923,5.916279387578309e-11,5.734623670548936e-11,71.99999999613168,-5.86671995824671e-13,119.9999999935449,2.1432944861733093e-21,15.288,0.0,0.0,1.7386402909615473e-13,-3.4220131069073734e-19,7.115076756936125e-19,5.488773498207866e-19,-1.1574302492039043e-31,0.0,89.99999999962336,5.916279387578309e-11,0.0
0.02,31.22221599999738,131.01039200000537,3.0000018317022668,0.0,0.0,0.0,0.0,0.0,25.871876237766408,1.2265415415436536e-10,1.1895038237325684e-10,71.9999999961369,-1.1836364828043265e-12,119.99999999354544,9.211895886571454e-21,15.288,0.0,0.0,3.6044858651615574e-13,-6.979551485375437e-19,1.4162390878091906e-18,1.0909784360635388e-18,-4.776231873571785e-31,0.0,89.99999999921916,1.2265415415436536e-10,0.0
0.03,31.22221599921969,131.01039200159065,3.0001883335529382,18.80143492628821,-0.0001350810307892,10.931161642028636,-1.75114298675875e-05,3.026590975169265,180.34219359854663,0.0798232026864394,0.0478175828508887,71.99999999765336,-5.341802909786072e-12,119.99999999436793,0.0039016003969354,15.288,0.0,0.0,0.0002345795854893,3.788270153300133e-17,-7.771883375645477e-10,1.1422790048099072e-11,1.7057759223764537e-13,18.80143492675591,89.51882325913425,0.079801984207741,11.342422482672777
0.04,31.222215995131297,131.01039200995308,3.001692634342189,9.19442604083399,-4.49173898918486e-05,52.29595764159784,6.445392950801871e-06,3.026413589912948,548.6359724538078,0.3504174083926908,0.1601447499964056,72.00000000319055,-3.111420077280171e-11,119.99999999870242,0.0751892535633216,15.288,0.0,0.0,0.0010297854387864,2.0082066977226968e-15,-1.520937588847922e-08,2.5623342884322286e-11,1.4654248781413086e-11,9.19442604094277,87.798916624545,0.3504103527855857,52.383455068075136
0.05,31.222215983575865,131.01039203366796,3.0074067499493786,5.158590039700252,1.707592688632746e-06,76.26884281015512,5.843947534199429e-05,3.0258124765658088,761.6984298824644,0.9592973585397016,0.3772700771701255,72.0000000004862,-1.3608731808076822e-10,120.0000000109612,0.5634958029902841,15.288,0.0,0.0,0.0028191251099456,2.086299069701397e-14,-1.0551247853743037e-07,3.973493515691201e-11,2.783064866637575e-10,5.158590039700515,83.94063169874748,0.959297626767734,76.32884071402438
0.06,31.222215961742712,131.0103920785344,3.019291017943491,4.109521257467909,3.140103977270004e-05,57.06876634333886,0.0001151069734147,3.024834864051463,590.4875390737208,1.6257536642597354,0.6118982818704327,71.99999992547217,-3.5903296759057166e-10,120.00000003412836,1.6184272268450337,15.288,0.0,0.0,0.0047776672697797,1.0694899894620088e-13,-3.741090980393931e-07,5.521401959501359e-11,1.6723176417636091e-09,4.109521257587776,79.78719176344794,1.6257585967235286,57.148873286519276
0.07,31.222215929936205,131.01039214392435,3.0371334573469446,3.649087515174788,5.707077112564807e-05,86.89643797254193,0.0001728541558773,3.0234947746384675,855.2937749779139,2.3057260079826607,0.8506307413593818,71.99999965378231,-6.907496536790437e-10,120.00000006788592,3.255354923652711,15.288,0.0,0.0,0.0067759305364855,3.495199904512709e-13,-9.036515915819006e-07,7.594816279105379e-11,5.728932851326001e-09,3.6490875156204896,75.6601668283889,2.305734972638426,86.94902215090157
0.08,31.222215886364623,131.01039223353447,3.0621840248716574,3.4254446680114707,8.413075603463509e-05,17.831756866644035,0.0002285946601282,3.021841001032126,241.2171988638848,2.961944911520492,1.0819695676346892,71.99999900671328,-1.141745983122182e-09,120.00000011415082,5.371998197385977,15.288,0.0,0.0,0.0087043901031071,8.800530155962314e-13,-1.829098470920821e-06,1.0943386634701918e-10,1.4896287129277132e-08,3.4254446690434226,71.81713637501419,2.9619581267487467,18.085991154451033
0.09,31.22221583454733,131.01039234010327,3.0919888289029,3.389560809024919,0.0001118726864415,54.09031716446879,0.0002748660999733,3.020060228038602,563.0937377043176,3.504225426410036,1.2780161667917422,71.99999774508822,-1.634190085504106e-09,120.00000016921716,7.519080503822694,15.288,0.0,0.0,0.0102980157586766,1.865782139518716e-12,-3.1503298654458527e-06,1.6284478329871028e-10,3.03536411425607e-08,3.389560810868955,68.76526501308032,3.504242999330529,54.17456206384468
0.1,31.22221577423132,131.0103924641528,3.1267248829165366,3.4447939461814814,0.0001419149103147,51.372195336549765,0.0003131602029306,3.0182021883815127,538.7437595981919,3.950569597142709,1.4443465951180965,71.99999562056465,-2.1287748602259068e-09,120.00000023339832,9.55649523509932,15.288,0.0,0.0,0.0116097108366932,3.485956000178229e-12,-4.949356763187612e-06,2.4573266549165286e-10,5.3761299442583966e-08,3.444793949101151,66.34639928474206,3.9505918890846927,51.460781166288626
0.11,31.222215706113143,131.01039260424562,3.165907002780892,3.4691423802630394,0.0001702373452339,40.591037561894986,0.0003534470100582,3.016051659024047,442.8656393052949,4.421478635995476,1.6182620895289603,71.99999235067894,-2.5564479031457968e-09,120.00000030601664,11.970509656144712,15.288,0.0,0.0,0.0129935974697161,5.942887149865172e-12,-7.273722517324353e-06,3.67769289312894e-10,8.842679949465076e-08,3.4691423844348632,63.88798785789768,4.421505376815134,40.70293476011277
0.12,31.222215630588888,131.0103927595646,3.2092596514826863,3.4852659299808075,0.0001974376474727,44.30042894095728,0.000394069215595,3.013641598889868,475.58594813540446,4.896982486381051,1.793579340340896,71.99998761802138,-2.8337988279882726e-09,120.00000038673312,14.683611096353944,15.288,0.0,0.0,0.0143909889875706,9.464337642181618e-12,-1.017558359402848e-05,5.395790443954697e-10,1.3700793350599625e-07,3.4852659355662303,61.5068242157714,4.897013499814194,44.40281567867803
0.13,31.222215548046687,131.0103929293088,3.256512891171917,3.5606043721293616,0.0002276507019012,48.86766833507025,0.0004268800875964,3.0112558910133567,515.9156326236895,5.278566579338586,1.939796541405244,71.99998107389406,-2.8573058577484587e-09,120.00000047523812,17.061052093156064,15.288,0.0,0.0,0.0155123760833565,1.4300406003001044e-11,-1.3705268062305584e-05,7.724776992181392e-10,1.989112774124932e-07,3.560604379397528,59.67313531776262,5.27860233862722,48.960358155653
0.14,31.222215458587108,131.01039311327068,3.30759734332425,3.6000732663755977,0.0002555702913645,45.540290862247225,0.0004629468001456,3.0085404980032777,486.2390860568404,5.70011779273801,2.098362647205908,71.99997235012626,-2.508533681468686e-09,120.00000057154703,19.894788765881632,15.288,0.0,0.0,0.0167512184495524,2.071534240530911e-11,-1.7917736259613292e-05,1.0787346240473087e-09,2.8081526258393346e-07,3.6000732754351943,57.72385750323359,5.700157937625502,45.639559681930805
0.15,31.222215362317904,131.01039331122794,3.3624387479639086,3.651605404442164,0.0002842753491325,44.01308509501,0.0004965057129938,3.005703619811542,472.54218587214,6.091938849578711,2.2476968067377374,71.99996103728932,-1.6446954747148112e-09,120.00000067569304,22.723773683610247,15.288,0.0,0.0,0.0179026934683374,2.9002783512213203e-11,-2.287326399669318e-05,1.47199345427166e-09,3.831202693354572e-07,3.651605415492516,55.98561718911576,6.091983503446133,44.115597174664394
0.16,31.22221525912812,131.01039352340948,3.421115382839859,3.67540086436193,0.0003108411545024,34.83804992586084,0.0005330990866742,3.002517946501868,391.1218908297564,6.521183188362317,2.4085903880902046,71.99994669525161,-1.0153513453738144e-10,120.00000078796704,26.03872642002185,15.288,0.0,0.0,0.019164148528834,3.9478358970291335e-11,-2.864207894220033e-05,1.9677461746207517e-09,5.135466997084602e-07,3.6754008774883777,54.15946979122355,6.521232015176687,34.96719658394182
0.17,31.2222151493826,131.01039374906244,3.4833737923187487,3.7139589864597298,0.0003384978477213,43.96471427482637,0.0005668629535037,2.999235483723449,471.78125980632376,6.916861975403744,2.559060925010733,71.99992884100092,2.3206494032971838e-09,120.0000009081849,29.29426197817256,15.288,0.0,0.0,0.0203269651395979,5.248754693205839e-11,-3.5267097947693114e-05,2.580363454062817e-09,6.706952682968329e-07,3.713959001863866,52.549031795895466,6.916915146521327,44.06689817851128
0.18,31.22221503253009,131.01039398932429,3.549599475912623,3.7380363034619775,0.0003650282082698,36.67395661481795,0.0006021794701355,2.9956556354306425,407.10156721191447,7.332140201215607,2.71556808256092,71.99990696207136,5.837017536380516e-09,120.00000103716444,32.917216366714264,15.288,0.0,0.0,0.0215473823438242,6.839750892601699e-11,-4.285557247677198e-05,3.331016495775474e-09,8.639362741436378e-07,3.738036321259578,50.93050624815799,7.332197539712479,36.796100973258795
0.19,31.22221490871209,131.01039424390297,3.619694897703461,3.747799769666444,0.0003901520189829,41.42208371271829,0.0006393759928961,2.991742733214697,448.9531328318269,7.771071983754382,2.879366399937307,71.99988049019642,1.0709144790974043e-08,120.00000117502664,36.97605053227239,15.288,0.0,0.0,0.0228373144884866,8.761416506509219e-11,-5.146771415177372e-05,4.238406957677133e-09,1.0996552116864756e-06,3.747799789945131,49.29705748437159,7.771133268690212,41.529983675580546
0.2,31.22221477769685,131.01039451327668,3.693822889232993,3.7700519460961166,0.0004166800650969,37.99697972290605,0.0006740224661302,2.987733789228414,418.51563019916136,8.179966026035371,3.0338260708461373,71.99984881140107,1.723179577184912e-08,120.0000013223286,40.969302182777255,15.288,0.0,0.0,0.024038975990988,1.1057590044953188e-10,-6.120032215177249e-05,5.3263847350253015e-09,1.376394225587184e-06,3.7700519690893857,47.8457752505109,8.180031477986942,38.11426270718793
0.21,31.222214639876928,131.01039479663547,3.771710975053407,3.7926098867321474,0.0004432924407074,36.46301043881366,0.0007080907240332,2.983530483977461,404.8187610144644,8.582757448615462,3.1863584283669346,71.99981127559042,2.5745201416596626e-08,120.00000147900325,45.103059028532826,15.288,0.0,0.0,0.0252227064089584,1.3774582723633048e-10,-7.20875523136271e-05,6.61341033873124e-09,1.7010673350603349e-06,3.792609912601061,46.47936953648762,8.582827080829217,36.584868250565684
0.22,31.22221449507626,131.01039509434258,3.8534832466471007,3.782921298925821,0.0004660920499522,44.14577847155813,0.0007479176313898,2.978724032883548,472.5421858721365,9.056569122268344,3.360845972992861,71.99976720416048,3.661811567390422e-08,120.00000164562512,50.21995530074818,15.288,0.0,0.0,0.0266151520780326,1.6960703048385348e-10,-8.421592474264931e-05,8.124635526119773e-09,2.0969540034515424e-06,3.7829213275976334,44.9464484092354,9.056642335836344,44.24615863872642
0.23,31.22221434283448,131.01039540734791,3.9394622486964206,3.813874679301352,0.0004940771488601,36.66675459308932,0.000779455230549,2.974212905336642,406.3406421461021,9.430647902846331,3.5044030163419806,71.99971583979395,5.0272885112871524e-08,120.00000182313076,54.45382429059888,15.288,0.0,0.0,0.0277145095638672,2.0669790509245914e-10,-9.77285871729516e-05,9.894576563683824e-09,2.5339062472561444e-06,3.813874711257219,43.79476959007253,9.430725512303388,36.78718303164376
0.24,31.222214184153326,131.01039573358457,4.028950821673608,3.829256049377765,0.0005200487408944,37.802126339316736,0.0008136255607606,2.9692962675112065,416.2328240017114,9.837806876534357,3.658163422426286,71.9996564062533,6.718950080713476e-08,120.0000020109434,59.25679777340223,15.288,0.0,0.0,0.0289110855155543,2.4956955046738006e-10,-0.0001125744417092,1.1934277804843484e-08,3.0448209172448607e-06,3.829256084638984,42.59361542722471,9.83788856559955,37.91856374864305
0.25,31.22221401888584,131.01039607335582,4.122052964664892,3.851417709838087,0.0005469594058717,38.85163035360012,0.0008459008130282,2.964283881833675,425.36408079150686,10.22297576958679,3.8050691648373967,71.99958811418384,8.786880969336211e-08,120.00000220974424,63.98709205399403,15.288,0.0,0.0,0.0300430411774988,2.987811646313829e-10,-0.0001288461362054,1.4273117985167728e-08,3.621333387698252e-06,3.8514177486178034,41.50703126619192,10.223061685769354,38.96455005232871
0.26,31.222213847358866,131.0103964259872,4.218542267117083,3.8780574625554745,0.0005745172425185,42.3164797140743,0.0008766626387865,2.959162938653076,455.8015834241788,10.590779679138215,3.946551912391076,71.99951013710364,1.1286401474734325e-07,120.00000241975916,68.67355887153568,15.288,0.0,0.0,0.0311239685467471,3.5491769188178554e-10,-0.0001465721578858,1.6932703957058654e-08,4.267712643344226e-06,3.8780575050466,40.51245375834074,10.590869924095635,42.41981967733593
0.27,31.22221366913008,131.0103967923915,4.318728802515264,3.886188503202341,0.0005994342651313,38.70936050721014,0.0009111181036949,2.953518013741325,423.84219965987256,11.004860953238978,4.102320296019413,71.99942161756776,1.4276417094868828e-07,120.0000026420792,74.14786134434608,15.288,0.0,0.0,0.0323408987462391,4.1858405402174807e-10,-0.0001658847815307,1.995072923688136e-08,5.018832267232506e-06,3.886188549362022,39.43841359495857,11.00495511215316,38.8218734782956
0.28,31.22221348431185,131.01039717233687,4.422535913956003,3.90556090261878,0.0006261175699806,44.68030766832924,0.0009425767186621,2.947879457547137,476.3468732012221,11.38358114165448,4.247086834352694,71.999321619057,1.7823531611327881e-07,120.000002877279,79.33831935330025,15.288,0.0,0.0,0.033453914386159,4.904408325040897e-10,-0.0001868529238516,2.3357766479368094e-08,5.847713054408178e-06,3.9055609527288775,38.49894431917428,11.383679491972384,44.77744842575601
0.29,31.222213292835256,131.0103975659655,4.530013412817602,3.9242599519377537,0.0006528240665589,35.802573724660256,0.0009737210635801,2.942037024315898,397.97031042211177,11.759725774384751,4.391004157029451,71.99920917567837,2.1999186079018322e-07,120.00000312617878,84.66717879828003,15.288,0.0,0.0,0.0345593650464213,5.711677680739745e-10,-0.0002095620322847,2.7188189988316943e-08,6.77505090435382e-06,3.9242600061534456,37.60352534239979,11.759828319749328,35.92324968749781
0.3,31.222213095024976,131.0103979726075,4.64093665799555,3.936939025755682,0.0006785438093183,33.570228713727204,0.0010059102294455,2.93586442972183,378.1859457108711,12.149968255527943,4.539237002744259,71.99908328532703,2.6880857935396905e-07,120.00000338923812,90.3787563598417,15.288,0.0,0.0,0.0357062504417728,6.614698865958865e-10,-0.0002340353597042,3.1467140861055e-08,7.817263716758327e-06,3.9369390841381695,36.71173884615234,12.150074840940263,33.698361337808635
0.31,31.22221289105846,131.01039839189684,4.755183729044857,3.9598342215431432,0.0007060286581592,35.396825578217346,0.0010350810412898,2.9297385597941448,394.1656220930212,12.504537499407316,4.6763673222047455,71.99894291513503,3.255120771695107e-07,120.00000366712923,95.72967338626896,15.288,0.0,0.0,0.0367483036680869,7.620720834468404e-10,-0.0002603234137215,3.622454560346964e-08,8.948994505138873e-06,3.9598342843844345,35.934338386209795,12.504648402129598,35.5178635353378
0.32,31.222212681031937,131.01039882363492,4.872689374180126,3.985461429033668,0.0007340760463279,38.52097867048992,0.0010630242168685,2.9235095146848846,421.55939346242695,12.84534566718622,4.809181081594425,71.99878701464397,3.909756427278764e-07,120.0000039606604,101.01782231644016,15.288,0.0,0.0,0.0377499198995686,8.737098716736534e-10,-0.0002884807530145,4.1491545539590986e-08,1.0187112828155184e-05,3.98546149652875,35.21473736963424,12.845460975581933,38.631757748577954
0.33,31.22221246496604,131.01039926777932,4.9934410812554,4.010606629086,0.0007621365968788,38.18822026147908,0.0010905599149574,2.917102431053817,418.5156301991682,13.18247167592885,4.940798912752974,71.99861449732019,4.661299779655886e-07,120.000004270781,106.38859400029033,15.288,0.0,0.0,0.0387407190563976,9.971421990244511e-10,-0.0003185760672934,4.7302669734505256e-08,1.154498667827874e-05,4.010606701382261,34.52805863348922,13.182591392065536,38.299473293007864
0.34,31.222212242662028,131.01039972474007,5.117579377337869,4.019339771238816,0.0007871574969313,29.898022638335373,0.0011220389395318,2.910051232417875,345.46563688075645,13.569536737955724,5.0878303926024735,71.99842423285973,5.519675040347761e-07,120.0000045987411,112.72655675097128,15.288,0.0,0.0,0.0398782837956187,1.1331556132162459e-09,-0.0003507224668667,5.37022358302301e-08,1.308298593306914e-05,4.019339848191799,33.76700548046532,13.5696603843662,30.039310197084795
0.35,31.22221201433324,131.01040019407705,5.2449575244483055,4.033762873683395,0.000813261106463,32.76415525156106,0.0011515840876071,2.902959820469776,370.5765700527033,13.934300103976534,5.227895396154902,71.99821502296155,6.495674834876441e-07,120.000004945438,118.8669740701126,15.288,0.0,0.0,0.040950312688979,1.2825853697215452e-09,-0.0003849609961885,6.072234695821837e-08,1.4746020857580124e-05,4.033762955530055,33.07785186209504,13.934427850732408,32.89250745069162
0.36,31.22221177990305,131.01040067594835,5.375631006350063,4.051723629010647,0.0008401329464575,37.01692984301412,0.0011797030485285,2.8957873473716007,407.8625232777193,14.282998147928636,5.362923567977223,71.9979856440668,7.600645476620651e-07,120.00000531213882,124.88900300695136,15.288,0.0,0.0,0.0419751331662584,1.4462801652534363e-09,-0.0004213876232777,6.84067806399068e-08,1.654507199147348e-05,4.051723715967022,32.44322602189087,14.283130115703262,37.13002398000203
0.37,31.222211539445663,131.01040117020102,5.509550188388412,4.071639898917391,0.0008674922629137,35.12417761390579,0.0012067983861697,2.88849906286036,391.1218908297666,14.620581431527652,5.494447309446232,71.99773482653193,8.846681943540367e-07,120.00000570002652,130.86067091914967,15.288,0.0,0.0,0.0429672939311924,1.6251202388969355e-09,-0.0004600660652957,7.679415042686734e-08,1.849041957573993e-05,4.071639991174516,31.85023865502424,14.620717696893658,35.24274792557624
0.38,31.222211292895075,131.01040167697127,5.646763233102716,4.08264881385344,0.0008930259828975,36.695642158537446,0.0012360471443664,2.880711738179021,404.8187610144602,14.986392916850402,5.634654729559426,71.99746126698146,1.0246533537040716e-06,120.0000061105033,137.4891296153862,15.288,0.0,0.0,0.0440424171304414,1.8200057922063743e-09,-0.0005010869196581,8.592980519823866e-08,2.0642694281337543e-05,4.082648911356968,31.228847973200924,14.986533193043764,36.808540518115166
0.39,31.22221104018777,131.0104021963902,5.787316652586672,4.096641430700089,0.0009192713382325,31.335681548387896,0.0012640110027448,2.872831219844713,357.64062493382744,15.337978856701952,5.770390286512262,71.99716358743511,1.1813915463769678e-06,120.00000654506955,144.01394309468844,15.288,0.0,0.0,0.0450757388736732,2.031886352449547e-09,-0.00054455673306,9.586443829735616e-08,2.295945663566148e-05,4.096641533664766,30.65298398882095,15.338123255506089,31.4670954954126
0.4,31.222210781536543,131.01040272801887,5.931064331106764,4.109028969993624,0.0009451871856381,29.95928076777898,0.0012920492774571,2.8646905607053603,345.465636880754,15.692185018814769,5.906873567965718,71.99684037970908,1.3563276523471372e-06,120.00000700500496,150.74021066990193,15.288,0.0,0.0,0.0461167659598875,2.2617341782092324e-09,-0.0005905037520737,1.0663253249436129e-07,2.5471259834659164e-05,4.1090290785164525,30.09246700352443,15.692333488470696,30.095929256306363
0.41,31.222210517064383,131.01040327160345,6.077922766619747,4.122888296344507,0.0009714525997821,33.78425365340317,0.0013192264430821,2.85640971467756,378.94687077668647,16.03742529732769,6.0405139809190125,71.99649020751959,1.5509747261474075e-06,120.0000074917568,157.44375780268788,15.288,0.0,0.0,0.0471314487675864,2.5105374204052982e-09,-0.0006389770219162,1.1827345344180344e-07,2.816813594418537e-05,4.122888410595805,29.56469007160549,16.037577892745222,33.904791300285986
0.42,31.22221024682894,131.0104038270252,6.227854084363214,4.14444025865494,0.0009995884754813,38.04468161607466,0.0013435485656724,2.8482703202464488,416.2328240017114,16.348862540904037,6.163613566771559,71.99611159893284,1.766920641656551e-06,120.00000800692096,163.6157044470786,15.288,0.0,0.0,0.0480467946810589,2.779304965995011e-09,-0.0006900467934588,1.308321832549104e-07,3.100973487310896e-05,4.144440378988911,29.104646754454564,16.34901955589459,38.15115260238947
0.43,31.222209970843565,131.0104043942566,6.380851271439565,4.1618082623168045,0.0010268052928652,33.45815353250911,0.0013687230309017,2.8397750580998298,375.9031395134336,16.67263197205097,6.290467308135904,71.99570306121484,2.005818691215035e-06,120.00000855220898,170.15779512382937,15.288,0.0,0.0,0.0489983878509763,3.0690566816849196e-09,-0.0007437862329608,1.443552931671376e-07,3.4086145072160934e-05,4.161808388761201,28.640125213458976,16.672793262249197,33.57845085853367
0.44,31.22220968892116,131.01040497368373,6.537047157143216,4.164954087655709,0.0010505545842624,30.86574023822051,0.0013980747538988,2.830419582421933,353.0750125389216,17.050421620730056,6.433992917638883,71.99526304125902,2.269416145406482e-06,120.00000912964636,177.9537948947602,15.288,0.0,0.0,0.050108743779844,3.380847125286677e-09,-0.0008003278134917,1.589055036683518e-07,3.750784460406397e-05,4.164954219916419,28.113519280259386,17.050586641458253,30.99524475496968
0.45,31.22220940081287,131.01040556582012,6.696617751072218,4.165241899529329,0.0010735835484822,35.912216710755274,0.0014280646808282,2.820677244966047,397.2093853562869,17.438293672974723,6.580571293039616,71.99478987454265,2.5595995397253085e-06,120.00000974147088,186.13940823302417,15.288,0.0,0.0,0.0512487363629523,3.7158016249566814e-09,-0.000859850913876,1.745604864109677e-07,4.121350642664912e-05,4.1652420376426775,27.591357195572936,17.43846231108416,36.02281959036367
0.46,31.222209106468902,131.0104061707686,6.859600379555308,4.174585124444534,0.0010989881252456,41.916816790010685,0.0014546917035209,2.811153314474766,449.7140588976434,17.786187321601275,6.714685486378061,71.99428180697711,2.8783880229668832e-06,120.0000103898448,193.6374175079873,15.288,0.0,0.0,0.0522712438446989,4.0751091178509895e-09,-0.0009224765531151,1.9138630415982226e-07,4.50966024037632e-05,4.1745852688465686,27.13985967570823,17.786359950252297,42.01097612387663
0.47,31.22220880579083,131.01040678873238,7.026066274755745,4.1823089530633855,0.0011240727220223,28.37640408484148,0.0014814747534716,2.801325368441072,331.0078106302534,18.138167428286582,6.849989708801916,71.99373704967608,3.2278903746588286e-06,120.00001107707628,201.37401505997488,15.288,0.0,0.0,0.0533057667609836,4.459978104761035e-09,-0.0009883252835099,2.094509673354327e-07,4.927107017839778e-05,4.182309103852639,26.69716826759888,18.13834399721685,28.514342615617974
0.48,31.222208499300592,131.0104074186346,7.195654207463586,4.189479568102716,0.0011490100608361,27.95074823096412,0.0015080719422187,2.7912412472910484,327.2031223011574,18.48995085190441,6.98515976370584,71.99315377257649,3.6103201777021456e-06,120.00001180491516,209.25751230436188,15.288,0.0,0.0,0.0543397174489847,4.8716620260348906e-09,-0.0010573190976925,2.2877013380347535e-07,5.373205427420879e-05,4.189479725385959,26.268461765425428,18.4901313379827,28.089773168283216
0.49,31.222208187201936,131.01040806005494,7.368224738812109,4.202723284133339,0.001175611380853,35.08821363242469,0.0015321405723077,2.781292092003844,389.60000969812296,18.812014261754847,7.111044804193205,71.99253015042137,4.027946338669921e-06,120.0000125755114,216.60722913930897,15.288,0.0,0.0,0.0552863302793499,5.311396446020465e-09,-0.0011294854492155,2.4938633613154685e-07,5.8398320167141767e-05,4.202723448262914,25.88860807032205,18.81219892635871,35.1982716047702
0.5,31.22220786953184,131.01040871291724,7.5437546994244835,4.220815778795054,0.0012036252596423,36.05491615971072,0.0015540388599792,2.7714444106710974,397.97031042210494,19.10875420627192,7.229005658018125,71.99186435180009,4.483102820610566e-06,120.00001339126192,223.4908652241728,15.288,0.0,0.0,0.0561585257949344,5.7804122391526605e-09,-0.0012048912160576,2.713531252030471e-07,6.327866493526626e-05,4.220815950099865,25.54902500917784,19.108943271285572,36.161276053538906
0.51,31.222207546379583,131.0104093770373,7.722184419225251,4.232567510615346,0.0012298790840397,27.54004661432325,0.0015777580800203,2.761017323676155,323.3984349720841,19.430597746636646,7.354673636736509,71.99115452520388,4.978202222778502e-06,120.00001425458936,231.07869697977367,15.288,0.0,0.0,0.0571045034845869,6.2799518101633574e-09,-0.0012835871653678,2.947201005874635e-07,6.854585242460463e-05,4.232567688976395,25.189423168613605,19.430790935591396,27.678103017910345
0.52,31.222207217724616,131.01041005224056,7.903541154728601,15.084787876207235,-11.492802767187683,33.51087430358162,0.8474496351157788,1.9484764060500808,372.0984511843415,22.28302615459664,7.478347071207321,71.99036957777433,-3.367927802026997e-05,119.99997395371533,303.8983660768764,15.288,0.0,6.285728160380564,0.0654876275328553,6.819046508214193e-09,-0.0015442682999556,-0.0001357691996599,9.457122583411204e-05,18.882827739785537,17.616496487394876,20.48982260178378,33.578168916417084
0.53,31.222206883105976,131.01041073807536,8.087976443498594,14.94835203714484,-11.346041856383613,35.17776302695023,0.8678512454505771,1.9175080630577148,386.5562464348624,22.610759736870104,7.598928193601672,71.98939360123917,-0.0005001241008372,119.99948382987424,312.8978969679089,15.288,0.0,6.309917803197441,0.0664509426325507,7.362899823257911e-09,-0.0019023788482788,-0.0004234707900056,0.0001182133607806,18.68807489855492,17.44966418890201,20.840152970352733,35.24067273104173
0.54,31.22220654236598,131.0104114346729,8.275567417773187,14.81631548835538,-11.203746691438289,30.9242676407572,0.8884946766361767,1.8860736535956133,349.2703242098436,22.93681638795488,7.718702729793391,71.98820974327413,-0.0014790203500323,119.99845485096692,321.98140197611525,15.288,0.0,6.334058744678537,0.0674093357840659,7.89829559719361e-09,-0.002271034416031,-0.0007181826655855,0.0001431539815485,18.499447906719663,17.287513374396646,21.18812991023998,30.99446766334891
0.55,31.222206195798183,131.01041214139735,8.466109142296995,14.692109804099784,-11.068315424685668,32.76534444722041,0.909151391555019,1.854482814819636,365.2500005919907,23.25567278770773,7.835890450114227,71.9868120203886,-0.0029823826293197,119.99687437437932,330.9896254977483,15.288,0.0,6.358120936326459,0.0683465743015011,8.425831913849442e-09,-0.0026499376778659,-0.0010196279331809,0.0001693570188545,18.321083669158504,17.13352995486629,21.52785924867657,32.83037403850625
0.56,31.22220584340132,131.0104128582222,8.659602291381127,14.578042966540556,-10.941328730529424,30.59918656396256,0.9296372354802462,1.822988802586712,346.2265619465787,23.5630683516241,7.949113965105457,71.98519448809776,-0.0050219932234725,119.99472999977588,339.79124304529887,15.288,0.0,6.38210255274707,0.069250136595966,8.946117477237347e-09,-0.0030392819156071,-0.0013279048446433,0.000196803760188,18.15575079546641,16.99010553134653,21.85483502846666,30.667535472224287
0.57,31.222205485250257,131.0104135849645,8.8559945575077,14.461334670764272,-10.813563010710231,30.262029487506386,0.9507307330214352,1.7905224793836747,343.1828296833023,23.877932593145264,8.06454528287856,71.98335116065424,-0.0076095854532763,119.99200937573248,348.926335889626,15.288,0.0,6.405991809186857,0.0701756550762902,9.459796069012785e-09,-0.0034390995641333,-0.0016429890634405,0.0002256648116425,17.987880052292315,16.844607723142097,22.189408072932803,30.32985803426379
0.58,31.222205121319785,131.01041432164837,9.05530345302131,14.33393741524802,-10.679274816285272,39.777140121903614,0.9730059567460442,1.7562865818529128,426.1250058573153,24.2134430302486,8.186461075670081,71.98127596322239,-0.010756951252547,119.98870008662976,358.79393338917475,15.288,0.0,6.429787591534134,0.0711618579288868,9.967533150622549e-09,-0.0038495973708671,-0.0019649878567957,0.0002561450212269,17.80769301214291,16.688946841312585,22.54564250115866,39.82778125162151
0.59,31.22220475118116,131.01041506912912,9.257827639382,14.225776017249444,-10.559787459710671,32.2907971556461,0.9944749533682568,1.723021804574724,360.68438819711065,24.52201298350332,8.299378656528404,71.97896241194357,-0.0144765766098546,119.98478898710482,367.98980332125416,15.288,0.0,6.453525514415554,0.0720688911853059,1.0469995963210976e-08,-0.0042717574012064,-0.0022945891107861,0.0002878513789324,17.651510582252953,16.553060507589556,22.872660016206503,32.35202258776102
0.6,31.22220437505656,131.01041582691957,9.463412297927606,14.09692394082018,-10.4266575169025,28.72600651817564,1.0178798935121711,1.6869330543217007,329.4859594986058,24.868228100677825,8.424282509961369,71.97640402327796,-0.0187810790797936,119.98026278207672,378.4466453513178,15.288,0.0,6.477182092898226,0.0730865684963185,1.0967921784374084e-08,-0.0047053554835936,-0.0026315718832965,0.0003215394939202,17.47086347337676,16.39689930399376,23.239437408503505,28.793493589518604
0.61,31.22220399289244,131.01041659510128,9.672094760123384,13.967347903422953,-10.294096025663343,33.6243079748104,1.0419070276570397,1.6498284994629695,372.0984511843297,25.22043824679149,8.550885459245618,71.97359401583923,-0.0236832945279766,119.97510795148732,389.23468227151534,15.288,0.0,6.500760405057261,0.0741218722713422,1.1462071801706489e-08,-0.0051506923886024,-0.0029761084727204,0.0003569493390208,17.28997557397967,16.240447002225654,23.61213076848518,33.680878716518365
0.62,31.22220360480728,131.01041737340074,9.88379256725544,13.87570454057138,-10.18933549968999,41.75489574936784,1.063610579060677,1.6158088922061873,442.86563930529206,25.511168582677147,8.65733765080082,71.97052543021282,-0.0291962866973587,119.96931073198702,398.2521689603092,15.288,0.0,6.5242595131276895,0.0749764963115941,1.1953251487145572e-08,-0.0056078346031046,-0.0033281951651551,0.0003931018249378,17.155634473401257,16.122937499697702,23.919054648055504,41.79968211458789
0.63,31.22220321060551,131.01041816219495,10.098642184084428,13.775164226500175,-10.079206559363543,23.78019809379649,1.086415120279267,1.5801112788103764,286.11251274707894,25.819779242616807,8.769363110794021,71.96719158744453,-0.035332599819077,119.96285789543413,407.937409806283,15.288,0.0,6.547661869028365,0.0758836769500216,1.2442258116212772e-08,-0.0060772633459292,-0.003688135023059,0.0004311527218291,17.011071814975185,15.99706729684314,24.244694421555177,23.85738608580574
0.64,31.222202810899688,131.01041896019225,10.316217088008996,13.659379596625234,-9.959297683467042,23.35226868054956,1.110915786173096,1.5418928703252877,282.30782441796754,26.158969898733567,8.891082078788143,71.96358554281768,-0.0421047948565672,119.95573620155504,418.717090098564,15.288,0.0,6.570978478109778,0.0768807384020237,1.2930018750043185e-08,-0.0065579727499208,-0.0040551315547157,0.000471358912935,16.848627116200355,15.856221126793734,24.60243306677023,23.42946905151938
0.65,31.22220240566756,131.01041976741297,10.536533169692188,13.57135482620142,-9.859706747748138,41.0988174139376,1.1336228565807287,1.506033601766886,436.7781447787475,26.450384909882924,8.997156240619118,71.95970055441444,-0.0495250803394948,119.94793276962427,428.0891449984475,15.288,0.0,6.594141745981645,0.0777373950539282,1.3417404510269352e-08,-0.0070502590066467,-0.004429352877236,0.0005123766833502,16.720258177562037,15.744357520951729,24.90925839196301,41.14202268745174
0.66,31.222201994375776,131.01042058493485,10.75996250687598,13.478795129906484,-9.757783920132397,34.99426568203939,1.1571414991586344,1.4688907029198923,383.51251517160017,26.7523311961083,9.106420420112586,71.95552973142635,-0.0576057091268175,119.93943467106024,437.9093014010367,15.288,0.0,6.61723931362008,0.0786250101066972,1.3905277112487208e-08,-0.0075553279126271,-0.0048116312225791,0.0005553386784655,16.586920218290796,15.62848030498194,25.22698064075977,35.044189917465054
0.67,31.222201577216463,131.010421412335,10.986371687277,13.37302609269246,-9.647505283734704,24.164640062612,1.1822805560614036,1.42931404908258,289.1562440103425,27.082068919009863,9.224455604126284,71.95106574623678,-0.0663597195058364,119.9302281455408,448.7610348933037,15.288,0.0,6.640259324854114,0.0795943114538996,1.4394615524603792e-08,-0.0080729891759901,-0.0052017721562998,0.0006006890827839,16.43814784313382,15.499633131288505,25.57379310193588,24.235728900112303
0.68,31.222201154364008,131.0104222492276,11.215639738676952,13.273108039774367,-9.542107676848792,30.120587523341,1.2074018887910545,1.3896005963263625,340.8999924858462,27.40342924287029,9.339591560921388,71.94630122700227,-0.0758000236162032,119.92029956080144,459.4642532338193,15.288,0.0,6.663130421843544,0.0805389990779785,1.4886427025342012e-08,-0.0086031290992077,-0.0055996383888425,0.0006477170389811,16.296919089269753,15.37742739136111,25.91147764401725,30.1767891249154
0.69,31.222200725899448,131.01042309542086,11.447710801186174,13.188854013764288,-9.44834930774918,37.042170810031806,1.2315506570377364,1.3511101587076348,401.0140726853634,27.696248594864567,9.44532152868728,71.94122883620673,-0.0859392471610005,119.90963558053431,469.32546651067577,15.288,0.0,6.685915049466464,0.0813998116965152,1.5381741651380657e-08,-0.0091457627613765,-0.0060051870794389,0.000695913354068,16.17504258312386,15.27195107402551,26.218822747730737,37.08725702989351
0.7,31.2222002916772,131.01042395119336,11.682687039707998,13.104932698759642,-9.355558213415538,31.103356094847783,1.2560940078247251,1.311909419326157,349.27032420985284,27.99012748969609,9.551200985789407,71.93584120293458,-0.0967897617347317,119.898223133319,479.3273131624457,15.288,0.0,6.708613845485366,0.0822637455444676,1.5881599438686815e-08,-0.0097013796875508,-0.0064187183969263,0.0007460069424748,16.05401442942657,15.167440835259733,26.5270814321392,31.156341871983535
0.71,31.22219985175088,131.01042481641153,11.920531870864668,13.012816996593775,-9.257830092221369,25.59881592343488,1.281872529227752,1.270791572337963,301.33126406340574,28.30258779378236,9.662894244829738,71.93013083587458,-0.1083641801760061,119.88604888263592,490.07753697179066,15.288,0.0,6.7311612786572015,0.0831822980772179,1.638709223541305e-08,-0.0102700424346655,-0.0068402220105181,0.0007985331600162,15.923552849714888,15.055121228434848,26.85469076264407,25.6623748917246
0.72,31.222199406119834,131.01042569105408,12.161246560685768,12.910901406290463,-9.15412665362816,31.29943597279227,1.3091539937164876,1.2273685211717065,350.79220534145287,28.638219049184904,9.781866338613534,71.92409005142046,-0.1206752897879578,119.87309930276332,501.75819982110016,15.288,0.0,6.753622395450923,0.0841689586865751,1.6899341970213393e-08,-0.0108519837979824,-0.0072698099371543,0.0008537676115573,15.781756849791964,14.933182582500356,27.2064018956976,31.35083746697925
0.73,31.22219895477794,131.0104265751106,12.40483622847828,12.835798916128098,-9.069506729720974,39.54316696513142,1.3341659171630442,1.1870272245168527,422.320318528234,28.91902704041713,9.882977453133917,71.91771076292986,-0.1337362392142787,119.859360488829,511.63431074952337,15.288,0.0,6.776001462655112,0.084994499041234,1.7419524831710254e-08,-0.0114474896404925,-0.0077076306088736,0.0009094279755108,15.672609505839004,14.839679415787806,27.500334221936235,39.58346985748627
0.74,31.22219849765592,131.0104274687042,12.651350134814972,12.753135860315409,-8.980362126101273,24.835627918029065,1.3603843136162188,1.1447971563270904,294.48281347105944,29.21739152723153,9.989568170425988,71.91098511384139,-0.147559572448201,119.84481916131593,522.2337149570888,15.288,0.0,6.798251272517684,0.0858716463469789,1.7948836786772467e-08,-0.0120568346207939,-0.0081538228071693,0.000967695756113,15.55477236943969,14.738961195441089,27.81252815662609,24.899189145284478
0.75,31.222198035130848,131.0104283710319,12.9005264910752,12.665994136435316,-8.888818397601737,28.962997531235555,1.387554324842234,1.1010349445188272,330.24688556441487,29.527370698932064,10.09973797951232,71.90390524346492,-0.162157846773721,119.8294620121207,533.3609136875738,15.288,0.0,6.820375031958957,0.0867829374818003,1.8488553054821872e-08,-0.0126793431354398,-0.0086078489544849,0.0010284311717454,15.43195298677037,14.634167488171046,28.136712503422704,29.017112381279375
0.76,31.2221975670831,131.01042928232235,13.152449793702049,12.588578773758265,-8.804523024873621,31.16382357473165,1.414097323898778,1.0580093066521328,349.27032420986166,29.817208874077288,10.20325036665264,71.89646306821724,-0.1775433464647296,119.81327602685684,543.8699977166381,15.288,0.0,6.842400785137992,0.0876350405408667,1.9039934602660093e-08,-0.0133155364247892,-0.0090700234439938,0.0010906084242405,15.321180740181244,14.540113332053696,28.439634240167816,31.213826339162914
0.77,31.222197093449267,131.01043020268835,13.40716542605584,12.514026072149727,-8.722772241869578,29.156369490848192,1.4407405136714757,1.0146762734229051,331.7687666960708,30.10166205298424,10.304859471255062,71.8886505417935,-0.1937284126538867,119.7962481125046,554.2828671028342,15.288,0.0,6.864330776511268,0.0884713242738493,1.9604269584281545e-08,-0.0139657686820392,-0.0095405396168091,0.0011547497857513,15.214204493593964,14.44964738897685,28.73677888099235,29.20957348292585
0.78,31.22219661429492,131.0104311319753,13.664628904204104,12.432402549446728,-8.636825479018645,23.98975746416418,1.4686437314256369,0.9693502853249087,286.8734378128899,30.403602943121896,10.411943460206189,71.88045944694544,-0.21072528971626,119.77836527469644,565.4443513681289,15.288,0.0,6.886113607361416,0.0893590135907977,2.0182916387670568e-08,-0.0146300397635886,-0.0100193395198938,0.0012217782541486,15.099113158893685,14.352393465169683,29.05206563686288,24.054209976113047
0.79,31.22219612971053,131.01043206997707,13.924778462973451,12.347168529204229,-8.549049986730365,34.00050481333291,1.4974721874506027,0.922509109480641,373.6203323159534,30.715717535596184,10.522147087262656,71.87188141043619,-0.2285462509061909,119.75961448072746,577.0988990680573,15.288,0.0,6.9077826092579215,0.0902766123446407,2.0777275681680813e-08,-0.015308339353105,-0.0105063585465431,0.001291515814783,14.980062493909314,14.251903508098613,29.377813200000613,34.04596559903592
0.8,31.22219563945972,131.01043301716788,14.187780250770595,12.277371471060311,-8.472221171571618,34.44937974229342,1.524843351308343,0.8776113076943522,377.42502064505743,30.99209538914215,10.620678456372492,71.8629077547655,-0.2472038165727975,119.73998243231316,587.516173615701,15.288,0.0,6.929362832012052,0.0910891852047431,2.138874230827716e-08,-0.0160015489268185,-0.0110021547543872,0.0013621124962127,14.879812350418884,14.168218593521056,29.66612640417189,34.49427653223297
0.81,31.2221951436484,131.0104339733107,14.453561836000755,12.198793710029156,-8.390063821788948,22.518767164330608,1.553764448791858,0.8302859516860486,273.9374926939919,31.290761382246405,10.726227262170587,71.85352991427098,-0.2667102826118825,119.71945604894655,598.8790530589288,15.288,0.0,6.95084312914666,0.0919672732661288,2.2018798301559573e-08,-0.0167095269549871,-0.0115065690143757,0.0014360488528056,14.769405969648547,14.075847704384632,29.977558172736543,22.587572541670585
0.82,31.222194642473493,131.01043493797889,14.721987437143888,12.117018429570104,-8.306326842819022,28.84878032926212,1.5835918512858218,0.7814576930360077,328.72500443277005,31.59872304176076,10.834624765479925,71.84373912348356,-0.2870777696020178,119.69802243277152,610.7095776934979,15.288,0.0,6.972205406268342,0.0928726905173486,2.2668989039252207e-08,-0.0174319735301676,-0.0120193334947514,0.0015128428716302,14.65551424733184,13.980649030710149,30.298533831989797,28.902777820885746
0.83,31.222194135914894,131.01043591119847,14.993072593997905,12.053316903172828,-8.235131808289848,36.58776811319344,1.611416316079441,0.7353741843316021,395.68750322465047,31.861952790079787,10.928483776403729,71.83352652147283,-0.3083183473034016,119.67566872773052,620.9106936074127,15.288,0.0,6.993429205300192,0.0936466428543889,2.334085330774329e-08,-0.0181692178713437,-0.0125406172952502,0.0015899191827031,14.563484439718538,13.90515339992752,30.57283055662448,36.630618521115956
0.84,31.2221936238582,131.0104368931949,15.26689873927005,11.986577808375111,-8.162405760581752,22.713779413556363,1.640037070337643,0.6879506849122944,275.4593748256452,32.13312105360387,11.024750688068384,71.82288332766305,-0.330443581960297,119.65238259766856,631.5078587868875,15.288,0.0,7.014552128492833,0.0944439353021747,2.4035953861902173e-08,-0.0189217014377012,-0.0130706646568538,0.0016698140145836,14.468129608747992,13.827015713975594,30.85530584116242,22.78330030931976
0.85,31.22219310661419,131.01043788330554,15.543250846288128,11.906172991596616,-8.081133800749534,24.74175083552228,1.6710376242754943,0.636850455001012,292.96093233939376,32.44051658602665,11.132554109902484,71.81180070633368,-0.353464810756933,119.62815193661784,643.6309739052803,15.288,0.0,7.035557162351887,0.0953477129574019,2.4755969299483752e-08,-0.0196887304434973,-0.0136089378823149,0.0017540782133129,14.356800993281457,13.734923593329606,31.175339498083307,24.806293146112072
0.86,31.2221925839962,131.01043888190725,15.82226085136144,11.83681804524323,-8.007657957014484,30.90320447422077,1.7009026365114357,0.5872316614815432,346.2265619465587,32.71975326561908,11.231156623449005,71.80026949366467,-0.3773936971868933,119.60296428484008,654.7414203267596,15.288,0.0,7.056458602168112,0.0961687356367981,2.5502526182576325e-08,-0.0204711297521919,-0.0141559435593577,0.0018394317307177,14.258920351736291,13.655098147233725,31.46600416572345,30.955548090425353
0.87,31.22219205602804,131.01043988893807,16.10391395872416,11.77282874874498,-7.938175279440869,28.800628478706845,1.7303735750041866,0.538009511218594,327.964078366998,32.984882245277525,11.3250840180205,71.78828050307318,-0.402241586461661,119.5768075060848,665.3771839918755,15.288,0.0,7.077255302557201,0.0969483013968778,2.627733835336248e-08,-0.0212690301141256,-0.0147117091304939,0.0019265608011653,14.167698034215658,13.581531109563803,31.741941957646947,28.857578687612275
0.88,31.222191522745927,131.0104409043113,16.38818679015925,11.7022731665611,-7.864835942324562,24.93734947204488,1.761254780125365,0.4865170327542056,294.4828134710418,33.26804366801743,11.42469304636184,71.77582450159643,-0.4280195467081501,119.54966974409196,676.8317103479993,15.288,0.0,7.097942217216545,0.0977808756554219,2.7082167654246896e-08,-0.0220824470804188,-0.0152761832649163,0.0020173567231452,14.068946581671316,13.501512670500016,32.03651412204565,25.004201965161204
0.89,31.22219098423481,131.01044192783812,16.675022036369842,11.625360358500725,-7.787791323827075,27.319678074941,1.7935804111723903,0.4326863696880752,315.028134248087,33.56934937068652,11.53003420476551,71.76289211633207,-0.4547385498223193,119.5215392317764,689.1282541325323,15.288,0.0,7.118488008843506,0.0986667876426251,2.7918821842393492e-08,-0.022911382342235,-0.0158493053763311,0.00211198335905,13.962918557321274,13.41525557867222,32.34980923767682,27.38190932539707
0.9,31.22219044041336,131.01044295967858,16.964478424450473,11.565994428886864,-7.722639299485392,30.143315034220382,1.823528052167976,0.382187730379715,339.37814235421445,33.82189569843791,11.61954494561064,71.74947367915948,-0.4824097729304246,119.49240397359944,699.5166032224104,15.288,0.0,7.138931731834603,0.0994093946410391,2.8789126227033832e-08,-0.0237563423914985,-0.0164313555033182,0.0022062855669674,13.877972289260684,13.348277989466435,32.612496016353504,30.200840439804864
0.91,31.222189891355203,131.01044399967003,17.256506667808477,11.500147584267904,-7.653681107234835,23.01898956926436,1.8549095982030697,0.3293658814236716,277.7421810230789,34.09258214605867,11.714785764446573,71.73555972892899,-0.511043573471552,119.46225282393596,710.7383439583174,15.288,0.0,7.1592674589371565,0.1002053270557477,2.9694974882844323e-08,-0.0246172507201431,-0.0170222182555099,0.0023044721613325,13.785591350019727,13.274905222635496,32.893917021186624,23.09595315831874
0.92,31.22218933727257,131.01044504735717,17.55096076989387,11.428103604358382,-7.581124725320173,27.340026735679167,1.88774719984429,0.2741731761773654,315.02813424806214,34.38136314115679,11.81576308785069,71.72114067011908,-0.5406501706105288,119.43107476931644,722.8095068817238,15.288,0.0,7.17948554395467,0.1010544513693768,3.0638339225938017e-08,-0.0254936023350413,-0.0176214916672673,0.0024066561139247,13.68612164113198,13.19540287239101,33.19399456936267,27.406492339018993
0.93,31.22218877806868,131.01044610293633,17.847910467928283,11.371820701157526,-7.519165877193781,32.45613593860268,1.918271066204676,0.2222327554819117,359.1625070654728,34.62405533611581,11.901775888413216,71.7062067859538,-0.5712396084838123,119.39885896719127,733.0289952228206,15.288,0.0,7.199596242881549,0.1017681185368109,3.162114553657651e-08,-0.0263860078502426,-0.0182295225824337,0.0025084126057223,13.605549090631296,13.133341740449676,33.44633485879989,32.51353427952894
0.94,31.222188213626744,131.01044716664936,18.14743957195319,11.302006013635992,-7.448867726644942,23.65193454381064,1.951554638078662,0.1659639151832729,283.0687504837787,34.9064169234445,12.000479387322452,71.69074841578148,-0.6028213949210706,119.36559512572524,745.0121182843191,15.288,0.0,7.219599232436056,0.1025983913972687,3.2645373988116094e-08,-0.0272948956143992,-0.0188465328715971,0.0026159026025731,13.50920553824286,13.05726466065071,33.739644785424545,23.73289104157461
0.95,31.22218764425145,131.01044823784562,18.449337644475943,11.234533033396984,-7.380475159346601,30.532463901441943,1.9848466579452275,0.1094703509059338,342.4218736174873,35.18193393299814,12.096892863081957,71.67475554285889,-0.6354053037360412,119.33127265789092,756.7973781170019,15.288,0.0,7.239486449650713,0.1034085546997512,3.371315681147203e-08,-0.0282195722120905,-0.0194719964182052,0.002725790055625,13.41586714442924,12.984207621696797,34.02581504167505,30.597106920526638
0.96,31.22218706963259,131.01044931717732,18.753823649707325,11.174987350301508,-7.3175464133187855,29.92230600426547,2.017072806062336,0.054368408275111,337.09533515678345,35.4330003764258,12.1853130089936,71.65821812673772,-0.6690007088736799,119.2958813834442,767.6148336509882,15.288,0.0,7.259273305140579,0.1041468599544494,3.4826507550537306e-08,-0.0291612780467161,-0.0201066718925056,0.0028367695097962,13.332118478201682,12.920218408962942,34.28668510893151,29.990264007535444
0.97,31.22218648979064,131.010450404598,19.060885760166983,11.112052784384415,-7.252813808508944,19.257840009469835,2.0503100398215164,-0.0024640516556884,245.02188719299323,35.693908000672884,12.27681379459336,71.64112588403606,-0.7036169996312073,119.25941109004286,778.938002981233,15.288,0.0,7.2789577985754494,0.104914099238165,3.598759626224866e-08,-0.0301201318056134,-0.0207505697232584,0.0029515335737037,13.244588860481194,12.853096963815352,34.557678821561574,19.36667702940493
0.98,31.22218590502856,131.01045149946108,19.370314815138627,11.0365426223233,-7.18044271098712,27.906644804694647,2.0864198532557023,-0.0638497263868617,319.5937466429581,35.9941880628925,12.380968313773048,71.6234685000343,-0.739263155947447,119.22185198026072,792.075443152259,15.288,0.0,7.298526638169419,0.1057970733652358,3.71987219957306e-08,-0.0310952388623877,-0.0214030336862728,0.0030726290456308,13.142454294318735,12.772866490819682,34.86923685419603,27.984603782205134
0.99,31.22218531518976,131.0104526020959,19.68222272270883,10.983260775121972,-7.122566585395644,30.47140335669115,2.1185217692086247,-0.1194022486217316,341.6609485517054,36.22367444946315,12.462158294239712,71.60523539269676,-0.7759481946346287,119.18319420179728,802.1836019787621,15.288,0.0,7.317994512134862,0.1064719733260447,3.846208082106399e-08,-0.0320875149343427,-0.0220645994317184,0.0031907988624534,13.066729157228885,12.717219616814589,35.10774367559778,30.545192975487247
1.0,31.22218472027276,131.0104537125066,19.996613147135538,10.917755608254309,-7.057275711573932,27.300319959905675,2.153449504339025,-0.1794493363420398,314.2672081822764,36.49150886357945,12.555671071255077,71.58641630382074,-0.8136800237722953,119.14342905361276,814.0654143576572,15.288,0.0,7.337355511817415,0.1072595975084918,3.977996805063668e-08,-0.0330969817808286,-0.0227352127358819,0.0033154153257676,12.976812238478146,12.648838953602883,35.38575553585152,27.38570825714164
1.01,31.22218412046657,131.0104548302888,20.313356652861767,10.854713251563078,-6.993886517037043,28.541672633724552,2.188251732240976,-0.2395338941259847,324.9203161036979,36.7508631294664,12.64637937936616,71.56700056177885,-0.8524668467276661,119.10254750598496,825.652949078829,15.288,0.0,7.356606859817416,0.1080223043361443,4.115478631548739e-08,-0.0341232522912098,-0.0234145527718107,0.0034424090675402,12.88999849217069,12.583635735710144,35.65499219076229,28.62643706193266
1.02,31.22218351569104,131.0104559556148,20.63251194655791,10.795234199292224,-6.933072639485361,23.86671533413368,2.2226534521931067,-0.2992371327741685,284.59063161540416,36.99767332964729,12.732960808056028,71.54697758767838,-0.8923161859143958,119.06054122940712,836.7543211448707,15.288,0.0,7.3757531745167535,0.1087481485045883,4.2588891972994224e-08,-0.0351667984937784,-0.0241028588479202,0.0035713996364035,12.807571530096464,12.522824200780862,35.91128454837208,23.971854998534187
1.03,31.22218290601776,131.01045708833388,20.95403176700915,10.727632458103736,-6.867484279229677,19.54237149137447,2.2591943337369527,-0.3624311817512383,247.30469339049705,37.2709506592359,12.828064304069768,71.52633679636195,-0.9332350653396396,119.01740240146228,849.1348508394993,15.288,0.0,7.39479095703056,0.1095517965739027,4.408473968624401e-08,-0.0362274995160558,-0.0247999834847371,0.0037061809695155,12.715797786747704,12.4536642964411,36.19478984874705,19.67586335859193
1.04,31.22218229151093,131.01045822830974,21.277873995746408,10.668387372798662,-6.807457238125691,30.94332493107748,2.294261903720883,-0.4236152308565223,345.46563688072297,37.515264781654906,12.913731095256637,71.50506723987985,-0.9752306677555684,118.97312301376536,860.2768748337764,15.288,0.0,7.413722846934849,0.1102703204986816,4.564484052894928e-08,-0.0373054034403567,-0.0255058890681877,0.0038413514275046,12.634028213000832,12.394129459677195,36.44846593576467,31.031152819979468
1.05,31.222181671874992,131.01045937618244,21.60424819882829,10.602681863594627,-6.743713222977271,18.75238541804383,2.3311587530156923,-0.4878346175842639,240.45625879819983,37.7808089529892,13.00622303765168,71.48315802492523,-1.0183095425337658,118.92769570700196,872.4712157304166,15.288,0.0,7.432559122229944,0.1110512555236434,4.7271628918672825e-08,-0.0384017792043877,-0.0262213221199528,0.0039821101426278,12.544869484755283,12.32804766961539,36.72395306179066,18.903022049734222
1.06,31.22218104735644,131.01046053142568,21.932984905193656,10.531608028256832,-6.676956787781741,26.62257701621728,2.3697429628258484,-0.5548903265579216,308.17968365593924,38.06464980544332,13.104622325334216,71.46059779614092,-1.0624785491052366,118.88111277462016,885.6019553096664,15.288,0.0,7.451291800808619,0.1118859799465373,4.8967827661065335e-08,-0.039515877618574,-0.0269457281113905,0.0041282921776576,12.4496122297403,12.256573065191208,37.01820815603562,26.733596689723417
1.07,31.22218041783549,131.01046169430148,22.26417080985284,10.4739643808512,-6.618858496094226,31.313462917024378,2.405514391415931,-0.6178798023305008,348.5093681440308,38.30035224865017,13.187336750851545,71.4373749281503,-1.1077444816927848,118.8333665588379,896.5749706341329,15.288,0.0,7.469931499285709,0.1125792166933033,5.0736068821868624e-08,-0.0406485200820165,-0.0276795603168953,0.0042727811384883,12.370274563289485,12.200344681225884,37.26297529642216,31.411800884274335
1.08,31.22217978320873,131.01046286504146,22.597881340055483,10.4137777863902,-6.55947581940872,21.146839669713724,2.4422299769436857,-0.6825669536741451,261.00157857466235,38.54370325538928,13.272481811529016,71.41347794588387,-1.154113288506561,118.7844502733412,907.9752945264996,15.288,0.0,7.488479330921922,0.1132949439551066,5.25790509114669e-08,-0.0418002085628161,-0.0284230625843186,0.0044216168666346,12.288134093685224,12.141858042382808,37.515592496748106,21.298338266707766
1.09,31.22217914376168,131.01046404303548,22.93391979978264,10.339912089022194,-6.491956393086054,19.4678345390495,2.4827517713585068,-0.7533803101162798,246.54375332474407,38.83584190744112,13.373486095191696,71.38889522268263,-1.2015906160261611,118.73435742847812,921.7615428407672,15.288,0.0,7.506924402262534,0.1141540860241974,5.449969599110428e-08,-0.0429699212601817,-0.029175509196265,0.0045796520741749,12.19017493781996,12.068804848930933,37.818268358509535,19.6399648647767
1.1,31.22217849957361,131.0104652281179,23.272233768450526,10.273524503910773,-6.429358964719579,38.85112707106887,2.521811668621241,-0.8222090406868466,413.1890617385841,39.1001944607158,13.465438398726512,71.3636149822176,-1.250181793848362,118.68308184745764,934.3226077776696,15.288,0.0,7.52527023147921,0.1149315627847699,5.650086506180151e-08,-0.0441576714983687,-0.0299368351952985,0.0047381212623962,12.101141923364512,12.004484952850584,38.09239124782901,38.94156694960954
1.11,31.222177850230832,131.01046642119755,23.61311597185372,10.22164994315474,-6.375949935302686,28.50035943997473,2.557392094115825,-0.8859147451909245,324.1593910376397,39.30899622036572,13.539233043487588,71.33762521469002,-1.299891972514586,118.6306175207408,944.2972193018912,15.288,0.0,7.543534085489432,0.115545761565036,5.8585278523378185e-08,-0.0453654432859972,-0.0307082169855486,0.0048935494644265,12.029227200184597,11.95675684382531,38.3095301507058,28.628579906564514
1.12,31.22217719579946,131.0104676221452,23.95652342910313,10.143380778413206,-6.306677241615367,10.883047076399254,2.600398291717504,-0.961399577809204,172.73281794065943,39.61596291448877,13.64502985487956,71.31091405104222,-1.3507254457899855,118.57695931979764,959.0713335047824,15.288,0.0,7.561708028567654,0.1164485177519608,6.075595367401726e-08,-0.0465929832817764,-0.0314894122252855,0.0050650446615309,11.926676769804867,11.880324803208142,38.62731159682226,11.230631063787172
1.13,31.222176536889,131.01046882963655,24.302032542242703,10.079784263030044,-6.2466627550503855,33.55588679199016,2.639832779135683,-1.031626107977716,367.5328077900705,39.866556733168565,13.732449028647691,71.28346875183705,-1.4026874229327695,118.52210112578392,971.210834620601,15.288,0.0,7.579780097360902,0.1171855787145496,6.301625842651282e-08,-0.0478380575316594,-0.0322789411303727,0.0052331164006446,11.841416067697724,11.820653093058848,38.88727595862744,33.67536945491943
1.14,31.22217587281948,131.01047004517383,24.650122835856745,10.026415497728555,-6.193133602214548,18.677040785228023,2.676693498736824,-1.098118793521516,239.69531773195544,40.07566798578632,13.806266968817864,71.25527739609707,-1.455781046932133,118.4660389788778,981.3932864943282,15.288,0.0,7.597773921350531,0.1178007126321733,6.536889059090868e-08,-0.0491038177464956,-0.0330786969014348,0.0053995757568046,11.76823239942693,11.77292263992844,39.10474605404932,18.899799085279614
1.15,31.222175204092725,131.01047126767332,25.0004461983142,9.94662014909778,-6.12385178738174,18.411076532588808,2.721470293027536,-1.177238644541596,237.41251153546767,40.38716437018021,13.913610244421816,71.22632799278078,-1.510008961803607,118.4087694211461,996.6752006982208,15.288,0.0,7.6156678841662515,0.1187168122757614,6.781726643507358e-08,-0.0503880047811179,-0.0338871873505784,0.0055836671186067,11.66443463075031,11.696264554340356,39.42706239475908,18.648325138491014
1.16,31.22217453085127,131.01047249683054,25.35290605028292,9.89591363266531,-6.0724356964335335,47.839762282835615,2.758097449327624,-1.24392269035001,490.0437743845894,40.58202100113721,13.982775038703911,71.19660770421837,-1.5653746381707785,118.35028809771694,1006.2816827596164,15.288,0.0,7.633469467940198,0.1192900617615747,7.036465522205858e-08,-0.0516905005743441,-0.034704262396687,0.0057554422531432,11.594650099818926,11.652604508862623,39.62994974478215,47.93534500217742
1.17,31.22217385220379,131.01047373463163,25.7081304907464,9.83139828450227,-6.012939939088279,8.659045314023238,2.799087406260567,-1.317714142830734,153.70937929486794,40.8299553594042,14.069295339623066,71.16610445111208,-1.621879598254848,118.29059268802584,1018.5801675089924,15.288,0.0,7.651201811482599,0.1200193411221976,7.301379741207978e-08,-0.0530154168567795,-0.0355323838472826,0.0059388254121522,11.508954638003567,11.594101236702654,39.887177747925904,9.195125155233638
1.18,31.2221731693306,131.0104749784862,26.06529578934739,9.748646306498522,-5.942768368649549,23.377116454473686,2.846095586426135,-1.4012571188518297,280.02501822196746,41.1517785020454,14.180162193920433,71.13480552086065,-1.6795257963651176,118.22968038769524,1034.664918800347,15.288,0.0,7.668827138499733,0.1209658253679753,7.576876128267169e-08,-0.0543572760299758,-0.0363680828348801,0.006136925721025,11.402232137876814,11.515625646143825,40.21996347636301,23.591383073618882
1.19,31.22217248170301,131.01047622957702,26.424775915168933,9.706289587076528,-5.897061656204726,40.67614313825635,2.880772659859568,-1.465730488345247,428.4078130529292,41.30506047975444,14.235649037608557,71.10269782498808,-1.7383151558987695,118.16754840110949,1042.351110617375,15.288,0.0,7.686375887905632,0.1214168909600963,7.863256225199034e-08,-0.055719252803689,-0.0372132355491763,0.0063139061432749,11.342568202061866,11.483114197319283,40.380386758913865,40.804360521716035
1.2,31.22217178886882,131.0104774889367,26.78689163868511,9.631564423600665,-5.832239189058843,4.390478182912285,2.925992285713894,-1.5470969094472693,117.1843741360236,41.59091378291616,14.334743290723376,71.06976927588553,-1.798247257838248,118.10419638225558,1056.7915358012851,15.288,0.0,7.703827493506519,0.122257660979222,8.160837264883958e-08,-0.0571032597182429,-0.038068923264147,0.0065152912010388,11.245479879519229,11.414783113357526,40.67636905724383,5.49829413344787
1.21,31.22217109200817,131.01047875395375,27.15081888672629,9.558624440103584,-5.768753122183218,32.698029614947245,2.9710477605781853,-1.6285379487539906,359.92343213200894,41.868715615533695,14.431307137347853,71.03600647935781,-1.859323194513372,118.03962235963162,1070.9186850047804,15.288,0.0,7.721167165275472,0.1230747727676279,8.470053372622356e-08,-0.0585037932346081,-0.0389316961804101,0.0067194379821077,11.150618593438749,11.34895801173993,40.96409219723591,32.87309540256493
1.22,31.22217039022733,131.01048002664285,27.51718807865973,9.513168272638463,-5.721817895535136,23.7343114169822,3.007123576864229,-1.6960982441327603,283.0687504825761,42.02608585790433,14.488144240604624,71.00139667653153,-1.921542323849412,117.97382617094364,1078.9462783570364,15.288,0.0,7.738436617292826,0.1235378797195907,8.791191060026582e-08,-0.0599257756391245,-0.0398044709818897,0.0069083862112797,11.08773943475428,11.314858702007918,41.12879797337414,23.984100564719423
