Time,Latitude,Longitude,Altitude,Angle of Attack,Angle of Sideslip,X-Acceleration,Y-Acceleration,Z-Acceleration,Thrust,True Velocity,Ground Velocity,Pitch,Roll,Yaw,Dynamic Pressure,cp,parachute_deploy_gain,Wind Speed,Mach,omega_x,omega_y,omega_z,Cmq,Angle of Attack(total),Angle of Attack(gust),True Velocity(gust),Acceleration
0.0,31.222186000000004,131.010384,3.000000003643237,0.0,0.0,0.0,0.0,0.0,2.2828121974499247,0.0,0.0,69.99999999623421,0.0,113.69999999388332,0.0,15.288,0.0,0.0,0.0,0.0,0.0,0.0,-0.0,0.0,90.0,0.0,0.0
0.01,31.22218600000153,131.01038399999584,2.99999882256592,0.0,0.0,0.0,0.0,0.0,34.24218696174923,7.502283530665459e-11,7.190531319924593e-11,69.99999999623329,-4.83564628150269e-13,113.69999999388072,3.446445726795683e-21,15.288,0.0,0.0,2.204725565824978e-13,-3.659182332138578e-19,7.589415207398531e-19,4.811147140404426e-19,-1.5108918610345807e-31,0.0,89.9999999995224,7.502283530665459e-11,0.0
0.02,31.22218600000288,131.01038399999217,2.999997775701936,0.0,0.0,0.0,0.0,0.0,25.871876237766408,1.5320717031631675e-10,1.4674636035870463e-10,69.99999999623222,-9.67129256300373e-13,113.69999999387804,1.4372842949972735e-20,15.288,0.0,0.0,4.5023593667086093e-13,-7.284483346386986e-19,1.5178830414797062e-18,9.757819552369542e-19,-6.170906918166791e-31,0.0,89.99999999902465,1.5320717031631675e-10,0.0
0.03,31.22218599928065,131.01038400193067,3.000201659671132,18.81500467334555,-0.00012974450181,11.96616230539064,-1.8916256735984712e-05,3.349833086198469,180.34219359854663,0.0882870268161719,0.0553390044312322,69.99999999799445,-4.212591857125379e-12,113.69999999488518,0.0047728553458352,15.288,0.0,0.0,0.0002594525584132,3.2187251995663407e-17,-7.20264389268894e-10,1.2365134327422308e-11,1.6874092354518158e-13,18.815004673776716,89.46786891739345,0.0882666465974854,12.426199017587786
0.04,31.22218599548236,131.0103840121632,3.001799604587872,9.46752327608497,-4.6177622759613696e-05,55.21900012092241,3.931876292165237e-06,3.349616504302861,548.6359724538078,0.3767519978512604,0.1853356633749705,70.00000000507204,-2.4624598767003407e-11,113.70000000019972,0.086915163246288,15.288,0.0,0.0,0.0011071759353184,1.6174128009138757e-15,-1.3693172015529268e-08,2.7753303060112748e-11,1.3689612277852356e-11,9.467523276196548,87.63554493451223,0.3767447442872393,55.32050167054111
0.05,31.222185984749512,131.01038404118162,3.00777936418888,5.376730308971262,-2.257790939128127e-06,80.28807156553681,5.266841443842784e-05,3.348887800834877,761.6984298824644,1.018787885905993,0.4366201147110198,70.00000000894464,-1.1355399380652658e-10,113.70000001523856,0.635552918586145,15.288,0.0,0.0,0.0029939522895272,1.6418815498809788e-14,-9.32122351075408e-08,4.303264669380585e-11,2.5199270302492604e-10,5.3767303089717045,83.57022052969386,1.0187875312530217,80.35788377762394
0.06,31.22218596447235,131.01038409608267,3.0201664202003013,4.296730121134882,2.4863835723705905e-05,60.21296515808257,0.0001057204249726,3.347700952379021,590.4875390737208,1.721098934225416,0.7081674028809783,69.99999995523842,-3.0560354507026086e-10,113.70000004366592,1.8138247671743823,15.288,0.0,0.0,0.0050578622752421,8.328976953118383e-14,-3.2824985336199985e-07,5.923438275930214e-11,1.4991363363716091e-09,4.296730121206683,79.20467073327266,1.7211028398275985,60.305955550063224
0.07,31.22218593493329,131.01038417609837,3.038741944736831,3.8204913578752526,4.8016684030909405e-05,91.4060317508128,0.0001597686613101,3.346072557365335,855.2937749779139,2.4375792548422868,0.9844712334613328,69.99999973536046,-5.939103491363046e-10,113.7000000850886,3.6383156301599167,15.288,0.0,0.0,0.007163413150771,2.709313825263564e-13,-7.906546256197275e-07,7.920022733617308e-11,5.114174483651565e-09,3.820491358176508,74.87999294483174,2.437586797285377,91.46725557277466
0.08,31.222185894468456,131.01038428575305,3.0647976109320942,3.588632851766762,7.220043782492885e-05,19.18449428359557,0.0002119618497595,3.3440615022685813,241.2171988638848,3.1292508166901074,1.2522236515868983,69.99999919480445,-9.914748373602156e-10,113.7000001418522,5.996012698481753,15.288,0.0,0.0,0.0091960591623389,6.80386533246681e-13,-1.5973238302190878e-06,1.0839624626357699e-10,1.3263625118823921e-08,3.58863285249208,70.86684630658345,3.1292621579083604,19.473766155861934
0.09,31.22218584634549,131.01038441616095,3.0957981580345013,3.551302481506045,9.685468678862004e-05,57.102946699906326,0.0002554087225869,3.341892818148368,563.0937377043176,3.701810007254615,1.479132491047967,69.99999812344194,-1.4359264356978275e-09,113.7000002093888,8.390904013834115,15.288,0.0,0.0,0.010878666406854,1.440096519545733e-12,-2.748643691533636e-06,1.5214952332699618e-10,2.6999776649034504e-08,3.5513024828250237,67.68737872952666,3.701825221153239,57.20065357568538
0.1,31.222185790329306,131.01038456796124,3.1319266121977414,3.608446747536112,0.0001234669721807,54.26147302645416,0.0002914860332524,3.3396271157106168,538.7437595981919,4.174070299823608,1.6716491241860567,69.9999963052332,-1.902380107712657e-09,113.70000028805804,10.668380938744466,15.288,0.0,0.0,0.0122665227999911,2.687800116751415e-12,-4.315796035622946e-06,2.1749089204950437e-10,4.7802076800548326e-08,3.608446749645647,65.17160335282355,4.174089693970246,54.36414778470795
0.11,31.222185727066616,131.0103847393952,3.172681775073216,3.633547373470009,0.0001485939126744,42.987553988990406,0.0003293995000288,3.337005588796181,442.8656393052949,4.672024955140527,1.8729475711242067,69.99999349387662,-2.3433348587116544e-09,113.70000037699285,13.365573690709628,15.288,0.0,0.0,0.0137298902182575,4.5789425819531184e-12,-6.340230783164189e-06,3.1157625832417107e-10,7.860218435507205e-08,3.6335473765043056,62.62546922225161,4.672048296217748,43.116880735560244
0.12,31.22218565692512,131.0103849294629,3.2177790417108385,3.650108937861461,0.0001727442530266,46.86777100765684,0.000367618259785,3.334068179146888,475.58594813540446,5.17479364099247,2.0758708919414386,69.99998941286465,-2.702771525550512e-09,113.70000047573096,16.396890189902592,15.288,0.0,0.0,0.0152074069417046,7.288473386564583e-12,-8.86736416607888e-06,4.42271554299792e-10,1.217615295152289e-07,3.6501089419435786,60.16906436414164,5.174820775596283,46.986210423745625
0.13,31.222185580265183,131.0103851371844,3.2669395832841857,3.7280113734654137,0.0001995014041665,51.64515456841877,0.0003986198234033,3.3311573548369657,515.9156326236895,5.579364582999854,2.2451120211463422,69.99998375846928,-2.9114380666036422e-09,113.70000058383452,19.060875702782603,15.288,0.0,0.0,0.0163963474924215,1.100846422415094e-11,-1.1941028436408576e-05,6.179653149059831e-10,1.7678562106638216e-07,3.728011378795934,58.279338776943774,5.579395920607139,51.75247433579817
0.14,31.22218549718016,131.01038536230575,3.320091807147376,3.768719651034081,0.0002242721760019,48.1660778383537,0.0004326225136175,3.32784677779744,486.2390860568404,6.025734265159953,2.428648685938864,69.99997621008868,-2.890941335368725e-09,113.70000070125378,22.232643351545065,15.288,0.0,0.0,0.0177081261985351,1.5941871344608664e-11,-1.560901486259027e-05,8.477542742712431e-10,2.495765160917323e-07,3.7687196576976176,56.27980129251342,6.025769493750979,48.280903250602165
0.15,31.22218540777004,131.01038560455507,3.377159065217065,3.821894709649632,0.000249725644238,46.56959330999435,0.0004643042952466,3.324387732286376,472.54218587214,6.441023336496372,2.6014999612196745,69.99996641132823,-2.546763407193136e-09,113.70000082794672,25.402620271850456,15.288,0.0,0.0,0.0189285691155931,2.2314099732464315e-11,-1.992367942778425e-05,1.1417519574710292e-09,3.4051816697623295e-07,3.821894717796148,54.501255563441134,6.441062563308839,46.68809885900716
0.16,31.22218531193176,131.01038586421257,3.4382223512025254,3.8463320955387794,0.0002733212404609,36.974247749122085,0.0004987816203583,3.3205066466509234,391.1218908297564,6.895451966878468,2.7877331692857847,69.99995397923414,-1.77088415515292e-09,113.70000096417354,29.113317717489338,15.288,0.0,0.0,0.0202640360420561,3.0367358387834494e-11,-2.4945905791363795e-05,1.5114297685186711e-09,4.5643121540033697e-07,3.846332105235269,52.641145594326446,6.895494900078523,37.12304892183151
0.17,31.222185210004127,131.010386140357,3.503019838429153,3.8860314262554336,0.000297865039677,46.520531453299206,0.0005306403365217,3.31650761597812,471.78125980632376,7.314788342774694,2.9619016331667103,69.99993849340957,-4.3039914767238207e-10,113.70000110959404,32.761746921137856,15.288,0.0,0.0,0.0214963781445172,4.0366633128431416e-11,-3.0713078585132897e-05,1.96747427715988e-09,5.961228045584824e-07,3.886031437653654,51.00464968745696,7.314835131305714,46.63860064094784
0.18,31.22218510147516,131.01038643438045,3.571950002194137,3.9107265153396016,0.0003214293682635,38.895647526122765,0.0005639254295027,3.312149448254175,407.10156721191447,7.754626295791602,3.1430587898572058,69.9999195084231,1.6149322372810674e-09,113.70000126508234,36.81988229018681,15.288,0.0,0.0,0.0227889722876034,5.2593391349219385e-11,-3.731786027786564e-05,2.525509173087448e-09,7.6786585232224e-07,3.9107265285284982,49.36615848311875,7.754676785798701,39.036415444581515
0.19,31.222184986476247,131.0103867459258,3.644912152926752,3.920599115663931,0.0003437679584038,43.86258669386953,0.0005989384366483,3.307389681300437,448.9531328318269,8.219206165926856,3.332657190859447,69.99989653019398,4.538529095696477e-09,113.70000143063515,41.36350714675367,15.288,0.0,0.0,0.02415428010977,6.735860419174937e-11,-4.481243905342629e-05,3.199401151670645e-09,9.773118416308382e-07,3.92059913071168,47.71893898797248,8.21926016487149,43.987104227715655
0.2,31.222184864792144,131.01038707557822,3.722074668489528,3.943376465171875,0.000367328732016,40.28070981710589,0.0006315894240138,3.30251450988504,418.51563019916136,8.65238089736321,3.511445117640573,69.99986902534273,8.534090245934178e-09,113.7000016067622,45.83799876721736,15.288,0.0,0.0,0.025427299120469,8.499785987217288e-11,-5.328041996372527e-05,4.006766070954748e-09,1.2232205148646746e-06,3.9433764822533854,46.2587826635041,8.652438597225508,40.41586552155969
0.21,31.22218473678744,131.01038742234647,3.803156063113743,3.9664546506877016,0.000390962054969,38.67679184347145,0.0006636984664108,3.297405915846789,404.8187610144644,9.079179692250786,3.688002035198235,69.99983642883521,1.3827831253856693e-08,113.70000179318536,50.47126980736161,15.288,0.0,0.0,0.0266815841422463,1.0586558589671407e-10,-6.275155280099118e-05,4.961340042512481e-09,1.5117124669161171e-06,3.9664546699249135,44.88773728276958,9.079241104426773,38.817098210937615
0.22,31.2221846022986,131.01038778667507,3.8882846911135607,3.956175711337521,0.0004112685792646,46.713636108302936,0.0007011135033803,3.291572407481395,472.5421858721365,9.580256326712124,3.889976788904857,69.99979815126248,2.0662823443484168e-08,113.70000199039316,56.195522894218605,15.288,0.0,0.0,0.0281541581291438,1.3033127211465288e-10,-7.330053770532661e-05,6.0817207473359025e-09,1.8632831045819008e-06,3.956175732680424,43.35679625546934,9.580320928629488,46.8294591882524
0.23,31.222184460898035,131.01038816972698,3.977794004014759,3.9879066397329104,0.0004360962274406,38.89105719050748,0.0007308686121188,3.286096544282012,406.3406421461021,9.977039034039262,4.056142701351626,69.99975353557706,2.9316661139418326e-08,113.70000219928508,60.9462612310605,15.288,0.0,0.0,0.0293202403623685,1.5880617816859538e-10,-8.505067486192354e-05,7.393319440773217e-09,2.2514912291167663e-06,3.987906663538912,42.20670487756048,9.97710753587448,39.0296395118868
0.24,31.222184313516166,131.01038856897196,4.070963590490852,4.003523997322975,0.000459165577055,40.0792299321398,0.0007630441688766,3.280134925833028,416.2328240017114,10.408422364424831,4.234121060914368,69.99970190737699,4.010976417051318e-08,113.70000241888,66.32994780718496,15.288,0.0,0.0,0.030588009649109,1.91711512587616e-10,-9.795845222523724e-05,8.904557280909524e-09,2.7052895870113487e-06,4.003524023611085,41.011349410369874,10.408494489985014,40.21323112692186
0.25,31.22218416001652,131.01038898478134,4.167901030441617,4.0261356185860135,0.0004830526730531,41.17760020658354,0.0007934613160587,3.2740610008587527,425.36408079150686,10.816813039390448,4.4041629376391525,69.99964258149416,5.3372865854010094e-08,113.70000264972064,71.63651430352668,15.288,0.0,0.0,0.0317882126436337,2.2947426169209347e-10,-0.0001121037688082,1.0637152702866709e-08,3.217380562698304e-06,4.026135647516394,39.93186687113378,10.816888917126896,41.30755663120434
0.26,31.222184000702686,131.0103894163294,4.26837241014618,4.053359329950934,0.000507503069958,44.80261175215926,0.0008224724146494,3.2678597736729302,455.8015834241788,11.207047269494833,4.567925492611352,69.99957484039399,6.947299261165984e-08,113.70000289176392,76.89781807056055,15.288,0.0,0.0,0.0329350617559806,2.7254099134167665e-10,-0.0001275114371842,1.260720913253598e-08,3.7915697709142366e-06,4.053359361668992,38.945390435244384,11.207126987890645,44.921630958721536
0.27,31.22218383516388,131.01038986473338,4.372698316214008,4.0614460923241,0.0005296455772492,41.029837477288126,0.0008548809954683,3.2610328932384265,423.84219965987256,11.645685385842508,4.748226940060522,69.99949794024376,8.879821051920497e-08,113.70000314600205,83.0342688744587,15.288,0.0,0.0,0.0342241635563461,3.2137296827284217e-10,-0.0001442952656441,1.4842505534226832e-08,4.458527942364847e-06,4.061446126801262,37.8838346421185,11.645768582375233,41.15922617924542
0.28,31.222183663504484,131.01039032970942,4.48079961904222,4.081133040992532,0.0005533279247169,47.27661484082626,0.0008845140695959,3.254218495915602,476.3468732012221,12.047344998676092,4.915789434712848,69.99941106884992,1.1178948978424788e-07,113.70000341275257,88.85982357848233,15.288,0.0,0.0,0.0354045979054623,3.764736350660473e-10,-0.0001625146963723,1.7365685655384934e-08,5.194620655212288e-06,4.081133078439725,36.956255322213885,12.047431915223257,47.38848224631549
0.29,31.22218348566054,131.0103908114315,4.592727908358551,4.1001100265020245,0.0005770279952742,37.989969791857405,0.0009138463939581,3.247164755122801,397.97031042211177,12.446314684600782,5.082367374004485,69.99931338876085,1.3891902435864665e-07,113.70000369260468,94.8417675268915,15.288,0.0,0.0,0.0365771315767517,4.3836067907166327e-10,-0.0001822432988888,2.0202163500922312e-08,6.018074062137429e-06,4.100110067036654,36.07377590258778,12.446405323946324,38.12849176886316
0.3,31.222183301933686,131.01039130907952,4.708251093558373,4.112858061667493,0.0005998635114143,35.655053282557844,0.000944131403186,3.2397207148238625,378.1859457108711,12.860033399289696,5.253940723820665,69.99920403105713,1.707002607527005e-07,113.7000039856728,101.2505662360602,15.288,0.0,0.0,0.03779301412572,5.075709863465428e-10,-0.0002035013069687,2.3370674033523645e-08,6.94335970778e-06,4.112858105337573,35.19685285507256,12.860127625629724,35.80193592228613
0.31,31.222183112488807,131.0103918222051,4.827243246502713,4.136140889545823,0.0006242383343011,37.56633644061071,0.0009716215464757,3.232339252743767,394.1656220930212,13.2364445751808,5.4126574282679245,69.99908210036875,2.0768081583188525e-07,113.7000042923011,107.26326115439352,15.288,0.0,0.0,0.0388992619788015,5.846561731689753e-10,-0.0002263323252403,2.6893437641668458e-08,7.948283231812338e-06,4.1361409365698805,34.43286455705216,13.236542630309057,37.70514091683033
0.32,31.22218291741533,131.01039235056504,4.949637017503345,4.1622282001352975,0.0006491019906456,40.83513712643371,0.0009979686925508,3.224840963348891,421.55939346242695,13.59846554462374,5.566374262777002,69.99894668612772,2.504388718903276e-07,113.70000461297312,113.2095365840355,15.288,0.0,0.0,0.0399632243410653,6.701756367872645e-10,-0.00025078340164,3.0793566854276295e-08,9.047716714467492e-06,4.16222825066026,33.72644865222576,13.598567505326,40.96227562489027
0.33,31.222182716732533,131.01039289410716,5.075419569102976,4.187801887681037,0.0006739743721461,40.48743503284469,0.0010239291638211,3.217136801802925,418.5156301991682,13.956637761217308,5.718704299733134,69.99879684673242,2.995902922462564e-07,113.70000494831164,119.25032483364384,15.288,0.0,0.0,0.0410158804634189,7.647061680070125e-10,-0.0002769136723495,3.509664608790402e-08,1.0253455741189656e-05,4.187801941818244,33.053267359159875,13.956743628864118,40.61505097607
0.34,31.222182510255863,131.01039345333336,5.204736257784645,4.19642921746386,0.0006961879027693,31.814592723444047,0.0010535137542081,3.208669900766693,345.46563688075645,14.367047160772364,5.88887983533068,69.99863160305904,3.557915789971256e-07,113.70000529927128,126.36523219087664,15.288,0.0,0.0,0.042222056531773,8.688448410811866e-10,-0.0003048202762282,3.9835373705550826e-08,1.1618525957862828e-05,4.196429275109305,32.30947868183619,14.367156517712404,31.97598901989736
0.35,31.222182298183583,131.0103940277045,5.337435501771672,4.210915783240843,0.0007193441544952,34.813487415034444,0.0010813034848195,3.200164272309822,370.5765700527033,14.754132934586384,6.050986755458457,69.99844991734221,4.1975736284587617e-07,113.70000566632532,133.26448209504355,15.288,0.0,0.0,0.0433596939127697,9.832256819293898e-10,-0.0003345386312107,4.503361101379695e-08,1.309465610343774e-05,4.210915844572415,31.63649055965014,14.75424592890194,34.96026256388454
0.36,31.222182080444604,131.0103946174141,5.4735747500461605,4.22903876037745,0.0007431682866607,39.2632255716727,0.0011077666085529,3.1915717453569297,407.8625232777193,15.124417129017054,6.2072589919251575,69.99825073022951,4.922382611919288e-07,113.70000605036684,140.03566173682628,15.288,0.0,0.0,0.0444479595865755,1.1084921261805627e-09,-0.0003661511460057,5.0723697896912267e-08,1.4691545926915382e-05,4.229038825557203,31.017264542603208,15.124533865618538,39.39272792946638
0.37,31.22218185710795,131.01039522227452,5.613102797925907,4.249164960780052,0.0007674149135003,37.28328237034959,0.001133274451316,3.1828514669894137,391.1218908297666,15.483077353331511,6.359470679857624,69.99803294268581,5.740349991123437e-07,113.70000645214331,146.75405277514704,15.288,0.0,0.0,0.0455020695186381,1.245311285088233e-09,-0.0003997125883071,5.6934243389647934e-08,1.641828325195534e-05,4.2491650299519,30.439178816713017,15.483197898584232,37.418894813348615
0.38,31.2221816281124,131.0103958424523,5.756069531572451,4.260095806433531,0.0007900626414612,38.9278000801764,0.0011607546399008,3.1735466295306622,404.8187610144602,15.87126705947922,6.521735074464384,69.99779542676283,6.659911329739736e-07,113.70000687263192,154.20298254405043,15.288,0.0,0.0,0.0466429667223463,1.3943646956867835e-09,-0.0004353006984059,6.369875435270817e-08,1.8328108041903096e-05,4.260095879559656,29.83470194713067,15.87139116222873,39.05694584372078
0.39,31.22218139339905,131.0103964781077,5.9025231349944285,4.274091258047817,0.0008133283308351,33.320076729592266,0.0011870382950339,3.164143363712209,357.64062493382744,16.24457853509073,6.678818328235205,69.9975369905506,7.690136753559805e-07,113.70000731287368,161.54010621938565,15.288,0.0,0.0,0.0477401448128051,1.5563705124515804e-09,-0.0004730068442167,7.105463478762673e-08,2.0383860516746246e-05,4.274091335289374,29.274934656826048,16.244706292406182,33.46997636540994
0.4,31.22218115316572,131.01039712870306,6.0523126585892895,4.286421841403391,0.0008363022448449,31.88018820767003,0.0012133780841982,3.1544430614236454,345.465636880754,16.62063299903514,6.836764518435374,69.99725641601981,8.840594270905819e-07,113.70000777359816,169.10340080049767,15.288,0.0,0.0,0.0488453895716005,1.7320643186450851e-09,-0.0005128553637434,7.9027539265021e-08,2.2612406375611563e-05,4.286421922834417,28.730746964325096,16.620764365084565,32.03586915718869
0.41,31.22218090752676,131.01039779392735,6.205351877049411,4.30025870409831,0.0008595777771371,35.882550741685804,0.0012389121673015,3.1445895889870297,378.94687077668647,16.987310563534386,6.99141560549392,69.9969524610574,1.0121301778427253e-06,113.70000825570062,176.64448930727934,15.288,0.0,0.0,0.0499230826371405,1.922193031274436e-09,-0.0005548883906878,8.764667734700782e-08,2.5005077415911235e-05,4.300258789847355,28.21875643368965,16.987445585695873,36.020076248499606
0.42,31.222180656535848,131.0103984736348,6.36160173428776,4.322008670726048,0.0008844838439129,40.34064925656127,0.001261804338223,3.134918999355981,416.2328240017114,17.318628721060172,7.133856886815013,69.99662385300175,1.154276942054023e-06,113.70000876021427,183.59942989625057,15.288,0.0,0.0,0.0508968652507098,2.1275184665783874e-09,-0.0005991661829955,9.694534598491077e-08,2.752657757470936e-05,4.322008761057615,27.772396468009568,17.318767655457478,40.462275036947325
0.43,31.222180400205527,131.0103991677914,6.521055075967404,4.339436441324956,0.0009085827200945,35.541853595187746,0.0012854696362701,3.124839917627212,375.9031395134336,17.662848429084132,7.280642039343927,69.99626930133451,1.3115939750280808e-06,113.70000928827632,190.96736675963504,15.288,0.0,0.0,0.0519085689713619,2.3488101247838237e-09,-0.0006457514522491,1.0695800287133593e-07,3.0255957891170616e-05,4.339436536261635,27.322335771349252,17.662991148924057,35.67895714766603
0.44,31.22218013836212,131.0103998768696,6.683849332059896,4.342209064313268,0.0009296474314902,32.82948243168077,0.0013129688908547,3.113754688841357,353.0750125389216,18.063580761318697,7.446730341918701,69.99588746395321,1.4852372182848018e-06,113.7000098413532,199.7278270846888,15.288,0.0,0.0,0.0530863610987301,2.586862292117705e-09,-0.0006947575786514,1.1773083546077225e-07,3.329010177793299e-05,4.342209163639375,26.81344244367223,18.06372678999575,32.9768158972058
0.45,31.22217987077456,131.0104006014978,6.850166573233225,4.3420317510315165,0.0009500780330031,38.11022602597878,0.001341042003417,3.1022288449712887,397.2093853562869,18.47486275310604,7.616350301328129,69.99547690348253,1.6764536248320808e-06,113.70001042108892,208.92306716049887,15.288,0.0,0.0,0.0542951637545535,2.842521175226318e-09,-0.0007463379956615,1.2932090054593452e-07,3.657529369088674e-05,4.342031854775571,26.30944884471334,18.47501199101448,38.23628058998621
0.46,31.22217959739673,131.01040134180155,7.020045503401754,4.351169003849846,0.0009725797783515,44.3937050866137,0.0013660055515545,3.09098240974522,449.7140588976434,18.844323061800488,7.771531995684422,69.99503610583268,1.8865779683531e-06,113.70001102895836,217.3591612614144,15.288,0.0,0.0,0.0553810645782081,3.1166808800591503e-09,-0.000800596194505,1.417768495237597e-07,4.001824400409673e-05,4.351169112337076,25.873596578896564,18.844475834274814,44.50118229261506
0.47,31.22217931813738,131.01040209802923,7.193559875579052,4.358630093683735,0.0009947969928181,30.22514089990685,0.0013910994973101,3.079396422776949,331.0078106302534,19.2180591098146,7.9280875671397615,69.99456352718363,2.1170044481277104e-06,113.70001166656292,226.0625808853568,15.288,0.0,0.0,0.0564795377574197,3.4102493884459798e-09,-0.0008576351980594,1.551487523304888e-07,4.3718862242359527e-05,4.35863020698899,25.44665981168229,19.218215372160817,30.381603425148434
0.48,31.22217903348153,131.01040286886197,7.370336324605091,4.365514409145237,0.001016880998596,29.779838936311712,0.001416009414045,3.067527859335786,327.2031223011574,19.5915905767454,8.084483592791102,69.99405758812365,2.369198154608765e-06,113.70001233476164,234.93171707892955,15.288,0.0,0.0,0.057577416115756,3.7241711041759195e-09,-0.0009173883913609,1.6944871263079066e-07,4.767297940601472e-05,4.365514527349481,25.03354780044292,19.59175030803913,29.937410312943754
0.49,31.22217874361868,131.01040365378466,7.5502307795521535,4.3786401372577615,0.0010404145545081,37.2489281064929,0.0014385799934191,3.0558405437943126,389.60000969812296,19.93403005898306,8.23012235628909,69.99351671352461,2.644660619562788e-06,113.700013034871,243.21198709852868,15.288,0.0,0.0,0.0585839249886784,4.059374595909599e-09,-0.0009798792959512,1.8470833984680338e-07,5.180951737438081e-05,4.378640260624215,24.667474291142685,19.934193486919103,37.37406598941686
0.5,31.22217844858332,131.0104044527036,7.733219389747018,15.948394166396332,-0.002355146966368,38.54900317728699,0.0013009271398923,2.071855086480886,397.97031042210494,22.78185137327725,8.366189013561664,69.99293932307316,2.9449363413826395e-06,113.70001376847225,317.66191969300985,15.288,0.0,5.010313955797237,0.0669534972645153,4.416703151082342e-09,-0.0010538516203957,2.098572043595796e-05,6.367994908216763e-05,15.948394335777625,26.584904117730755,22.78148142765697,38.60464002104243
0.51,31.22217814871171,131.0104052649747,7.919277670215504,15.802393547831596,-0.0011975438317976,29.641734021593408,0.0012307554843044,2.0373097330410466,323.3984349720841,23.12977980867947,8.50306055176322,69.9922593235297,3.594538754716222e-05,113.70004930918888,327.4329384452937,15.288,0.0,5.030199605974439,0.0679761655088415,4.8486115552518925e-09,-0.0013538440930402,2.095992673726252e-05,8.305516007242818e-05,15.802393592051557,26.26951785466042,23.129591698934263,29.71166485187242
0.52,31.22217784403445,131.010406090242,8.108440857241003,15.654664920804649,-0.0011499718244926,35.48188030347593,0.0012516735860039,2.0016325878650703,372.0984511843415,23.486302070540503,8.64297102446852,69.99140528864939,6.890567802726157e-05,113.70008481379104,337.5986995433995,15.288,0.0,5.050021055783088,0.069024096934342,5.389734310146418e-09,-0.0016623268569522,2.09365124837077e-05,0.0001035498900788,15.65466496198608,25.952659599313307,23.48612143338873,35.538294337991005
0.53,31.22217753442452,131.01040692887474,8.300821567525755,15.512755570005895,-0.0011034963249821,37.22627044237098,0.0012722555255372,1.9656229828129583,386.5562464348624,23.839302010923383,8.78135293938434,69.99037222227238,0.0001018257094573,113.70012028232776,347.816779092764,15.288,0.0,5.0697811233891965,0.0700616835723718,6.042865180161773e-09,-0.0019796781981015,2.091335480457195e-05,0.0001251695502437,15.512755608290629,25.647369458571543,23.839128674126,37.278128793942166
0.54,31.22217721979216,131.01040778111752,8.496497824695133,15.375295000490128,-0.0010579708817628,32.774896702531045,0.0012925927187581,1.9291733019502684,349.2703242098436,24.19039464419272,8.918775892878886,69.98915498626239,0.0001347050370731,113.7001557144158,358.1304141517935,15.288,0.0,5.089493982152972,0.0710936719316688,6.810865408356708e-09,-0.0023062008587341,2.0890478961088863e-05,0.0001479593718568,15.375295036011565,25.35149421768845,24.19022845851524,32.83162446729272
0.55,31.22217690042103,131.01040864619955,8.695257951845678,15.245754342113896,-0.0010136187724357,34.7015934027182,0.0013123466194912,1.8926578713625288,365.2500005919907,24.533714350972566,9.05317822274596,69.98774838426824,0.0001675432522494,113.7001911091794,368.3609786017989,15.288,0.0,5.109136413734197,0.0721028232842802,7.696633870725211e-09,-0.0026416351951258,2.0867950884318657e-05,0.0001718819427464,15.245754375010245,25.070244277923944,24.533555132108123,34.753168779664676
0.56,31.22217657632043,131.01040952409605,8.897102875470274,15.126469648462605,-0.0009705290027016,32.434569645598515,0.0013312554204855,1.85638442403163,346.2265619465787,24.864745060524108,9.182964165369691,69.98614725982544,0.0002003399942231,113.70022646618148,378.3612167096322,15.288,0.0,5.1287079225607055,0.0730758651451437,8.70300367839335e-09,-0.0029861449758908,2.084580622556235e-05,0.0001969158113902,15.126469678870905,24.80708362476336,24.864592610184864,32.48765108463843
0.57,31.22217624757021,131.01041041459027,9.10197873585598,15.00454366266636,-0.0009278570140021,32.08165170399289,0.0013504861975684,1.819063010124923,343.1828296833023,25.203623811293696,9.315281781952692,69.9843464272045,0.0002330949398643,113.70026178492355,388.73713139102665,15.288,0.0,5.148199806070704,0.074071978904561,9.832810496352524e-09,-0.0033397551303803,2.0824090682565023e-05,0.0002232311314411,15.004543690696122,24.5424549306901,25.203478063854764,32.133181730337995
0.58,31.22217591415714,131.01041131771885,9.309903866172668,14.871850112501107,-0.0008851413379459,42.03992352145392,0.0013708408156443,1.7797401754620468,426.1250058573153,25.564345831842257,9.455083964761496,69.98234063059935,0.0002658077951568,113.70029706506872,399.936226995762,15.288,0.0,5.167611910998948,0.0751322960963746,1.1088902889265548e-08,-0.0037026409299139,2.080284084307021e-05,0.0002510237174029,14.87185013824777,24.264044022334133,25.56420679416603,42.077578906836514
0.59,31.22217557569341,131.0104122345367,9.521187340178098,14.758592319715914,-0.0008441004861934,34.20482836940472,0.001389392503696,1.7417275460412276,360.68438819711065,25.89634544242205,9.58443740392788,69.98012430301009,0.0002984782483067,113.70033230679068,410.3831544644692,15.288,0.0,5.186965883729675,0.0761082072643507,1.2474252819415093e-08,-0.0040756460966743,2.078205563073909e-05,0.0002798946577402,14.758592343318336,24.017415778825164,25.896212851427737,34.2491445229729
0.6,31.22217523239594,131.0104131644545,9.735669301517744,14.624460724340542,-0.0008024572385218,30.473835419796583,0.0014100915548553,1.7004644334758614,329.4859594986058,26.26823041650748,9.72764649666246,69.97769174515891,0.0003311137804876,113.70036752052424,422.24571969801,15.288,0.0,5.206248594570813,0.0772013474591591,1.3991941329461601e-08,-0.0044585739743512,2.076179986772849e-05,0.0003105828803605,14.624460745876108,23.74166939946413,26.268104366819216,30.521242217031787
0.61,31.22217488422551,131.01041410757946,9.953388595361186,14.48962064031779,-0.0007613821544287,35.60043756462263,0.0014309926267918,1.6581330959663787,372.0984511843297,26.64637186559947,9.872796092228835,69.97503722280041,0.0003636986278896,113.70040268384784,434.48092150738574,15.288,0.0,5.2254640857772925,0.0783128833952624,1.5645066570233704e-08,-0.0048516803399769,2.074211209001812e-05,0.0003428245411913,14.489620659893609,23.467204864262573,26.64625226797033,35.6390314431281
0.62,31.22217453130278,131.0104150635839,10.174260190777211,14.393144129163044,-0.0007228079080535,44.110269332355614,0.0014480001034371,1.6196381438779772,442.86563930529206,26.95918173992948,9.994579037828585,69.9721547464639,0.000396240320487,113.7004378073812,444.7323730614145,15.288,0.0,5.244616946144308,0.0792324196100402,1.7436823632411202e-08,-0.0052550183987557,2.0723043404198748e-05,0.000375675935292,14.393144146928991,23.25283410935549,26.959068201528787,44.139994227307746
0.63,31.222174173455773,131.01041603293606,10.398425444300097,14.287694770226873,-0.0006842387322377,25.297064197432626,0.0014659368927792,1.5792871814071807,286.11251274707894,27.290890708491915,10.122788503700011,69.96903847332086,0.0004287463621097,113.70047290209676,455.7339713321581,15.288,0.0,5.26367944656811,0.0802075075329777,1.9370251412626123e-08,-0.0056690000250964,2.0704627636458028e-05,0.0004102487341192,14.287694786269972,23.02718972231029,27.290783228523196,25.346313482622193
0.64,31.222173811263804,131.01041701406106,10.625443505434404,14.166872227201146,-0.0006454949445542,24.84900428484312,0.0014855647027609,1.5360755083784028,282.30782441796754,27.65495146950207,10.262197334144036,69.96568258846837,0.0004612013240779,113.70050794511351,467.9638619800813,15.288,0.0,5.282666120220489,0.0812776846643902,2.1448539091487523e-08,-0.006092754930641,2.0686962267855955e-05,0.0004467866866648,14.16687224160583,22.7805386793372,27.654850075393284,24.8964363739571
0.65,31.2221734447156,131.01041800699016,10.855331027982938,14.074162982305102,-0.000608521286816,43.423965151833706,0.0015021553007695,1.4958149029534342,436.7781447787475,27.968289749069807,10.383457911861036,69.9620812124044,0.000493620507341,113.70054295827852,478.61769218911536,15.288,0.0,5.301539137187457,0.082198796583532,2.367470396381732e-08,-0.0065265345810623,2.067008673647904e-05,0.0004840080440959,14.074162995194689,22.57832620098016,27.9681941627696,43.449720528307616
0.66,31.222173073324072,131.01041901304822,11.088473035935667,13.976883488639745,-0.0005717659501284,37.03447949861449,0.0015192167739849,1.4541853156930604,383.51251517160017,28.29272237418078,10.508383565736953,69.95822852912691,0.0005259884965742,113.7005779202051,489.7750763327049,15.288,0.0,5.3203421388843966,0.0831525226974193,2.6051657907209484e-08,-0.0069713744624505,2.065400954049945e-05,0.0005229828556438,13.976883500101746,22.37129572591639,28.29263256139536,37.06301834677923
0.67,31.222172697277504,131.01042003172375,11.32473179013018,13.866301779357384,-0.0005349411115017,25.6989917242108,0.0015377761110871,1.4098249378221224,289.1562440103425,28.646541728414288,10.64343796938948,69.95411820622816,0.0005583206938598,113.70061285258804,502.0902095255392,15.288,0.0,5.339086231115205,0.0841926248332132,2.858269178705033e-08,-0.0074271070105369,2.0638796423691344e-05,0.000564126279748,13.86630178947373,22.146281204039123,28.64645770006099,25.737633620073073
0.68,31.22217231674753,131.01042106255056,11.563982412001764,13.761659518138863,-0.000498837458163,31.93316792160076,0.0015556635496761,1.3654645569613924,340.8999924858462,28.991410773073788,10.775104553596448,69.9497439987063,0.0005906094047438,113.70064774411588,514.2402579427745,15.288,0.0,5.357699968519642,0.0852064302232161,3.1271063034980535e-08,-0.0078936306322502,2.0624509002933035e-05,0.0006067651405321,13.761659527005348,21.93224517518236,28.991332415869092,31.962348308369936
0.69,31.22217193181857,131.0104221052996,11.806167364169273,13.67289546981695,-0.0004637442588642,39.17832635946716,0.0015716791850576,1.3227063805982773,401.0140726853634,29.305985621324776,10.89584728287468,69.94509969966992,0.0006228469949955,113.7006825836607,525.4482358357055,15.288,0.0,5.376241641556192,0.0861312083502533,3.4119964681804155e-08,-0.0083709545658823,2.0611203918660647e-05,0.0006504226983692,13.672895477531508,21.74390849298193,29.305912776546936,39.20064809372889
0.7,31.222171542363583,131.01042316031675,12.051392532171809,13.584507324489186,-0.0004290584462551,32.96195814853383,0.0015875880452068,1.2792695090366972,349.27032420985284,29.6216275535429,11.01673243351878,69.94017901283279,0.0006550490566999,113.7007173935768,536.8152944818239,15.288,0.0,5.394709515539316,0.0870591307192745,3.71324941453614e-08,-0.0088594969307435,2.05989243698782e-05,0.0006957802930443,13.584507331137528,21.55798457212915,29.621560157199767,32.986773379384694
0.71,31.22217114844097,131.0104242274437,12.299620312246525,13.487876925409422,-0.0003945338355502,27.200008652403007,0.0016044257551092,1.2337381811112649,301.33126406340574,29.95688918776625,11.144319566846184,69.93497558594073,0.0006872083872711,113.7007521633553,549.0224712415135,15.288,0.0,5.4130531756571925,0.0880447244428175,4.0311870327546286e-08,-0.0093593080302952,2.0587728478428643e-05,0.0007433344250861,13.487876931072684,21.361622545914926,29.956827214536283,27.227974275816262
0.72,31.22217075005868,131.01042530665933,12.550852242403716,13.381381941153744,-0.0003601771592794,33.16731006401677,0.0016224483097968,1.1856679506772545,350.79220534145287,30.316611404848064,11.280304479474507,69.92948288359868,0.0007193250156411,113.70078689288094,562.2733900951706,15.288,0.0,5.4313251839352334,0.0891022177269335,4.366135636373639e-08,-0.0098705847776343,2.057767054287099e-05,0.0007933354383514,13.38138194591261,21.15230191046785,30.316554828352185,33.18849601901583
0.73,31.22217034721968,131.01042639795602,12.805093843161256,13.302044827330072,-0.0003269470187289,41.79698011448552,0.0016370534052465,1.141383426025845,422.320318528234,30.61825818970461,11.395572768318244,69.92369409778644,0.0007514069401457,113.70082159343012,573.5041636882614,15.288,0.0,5.44952898227142,0.0899890326325585,4.7184320263626336e-08,-0.0103935693747306,2.0568805381182928e-05,0.000843660879797,13.30204483127562,20.98530868651064,30.618206832987003,41.812561575390816
0.74,31.222169939867204,131.01042750148846,13.062396298301737,13.215087455508776,-0.0002938919164078,26.401114244863287,0.001652509663617,1.0950618662210363,294.48281347105944,30.938428029061903,11.517154334171838,69.91760268734772,0.0007834390349359,113.70085624326404,585.5464731849214,15.288,0.0,5.467613426148094,0.0909302963726869,5.088398859245439e-08,-0.0109284948304343,2.0561190250530592e-05,0.0008963354541531,13.215087458718552,20.80870170808362,30.938381864627623,26.423814951516043
0.75,31.222169528360848,131.01042861627948,13.322489073466164,13.123666121701168,-0.0002611487351675,30.7217951867972,0.0016684626309789,1.0471137225955955,330.24688556441487,31.2708382154006,11.64284804350346,69.91120191767989,0.0008154286987948,113.70089085224396,598.1816416172586,15.288,0.0,5.485604795968227,0.0919075438486964,5.4763826575407855e-08,-0.0114747763426306,2.055490165776987e-05,0.0009512285681674,13.123666124253866,20.627101395838206,31.270797194253205,30.739634829179916
0.76,31.22216911259657,131.01042974261236,13.585459777289124,13.04212980604527,-0.0002289836175383,33.025842142881245,0.001683049237313,1.0001977730324267,349.27032420986166,31.58189635000444,11.760799435203335,69.90448504610177,0.000847385347179,113.70092543375732,610.1259194388756,15.288,0.0,5.503515117768901,0.0928220444691278,5.882702312667341e-08,-0.0120328590713596,2.0549991328410063e-05,0.0010073889887935,13.042129808020563,20.46186215591624,31.581860381341905,33.04098436282346
0.77,31.22216869252249,131.01043088062863,13.8513555741746,12.963517633993272,-0.0001972170541623,30.924500242706426,0.0016971330532333,0.9531005949397748,331.7687666960708,31.887208302616006,11.876513574444532,69.8974453066719,0.0008793015774911,113.70095997703991,621.9636096597188,15.288,0.0,5.521332553617221,0.0937196650120772,6.307682042302146e-08,-0.0126030445084821,2.054651739995925e-05,0.001065297835382,12.963517635467712,20.30258009163846,31.88717732383358,30.939184198771063
0.78,31.222168268206943,131.0104320301429,14.120130678455286,12.87781070509786,-0.0001657043834811,25.51586805884504,0.0017120403389928,0.9038624047957436,286.8734378128899,32.210967347091746,11.998533274934424,69.8900758399705,0.0009111759228008,113.70099447962384,634.641259512311,15.288,0.0,5.539033604353172,0.0946715120105585,6.751655861854997e-08,-0.0131853291278641,2.0544545005381664e-05,0.0011258035364584,12.877810706145963,20.13434005706686,32.21094131830805,25.53187210085218
0.79,31.222167839741488,131.01043319090667,14.391721428742676,12.788514065628304,-0.0001345330885635,35.99607735728864,0.0017273359903011,0.853043725963183,373.6203323159534,32.54543373392298,12.124130516518996,69.88236965006648,0.0009430117915954,113.70102894596448,647.8725332912687,15.288,0.0,5.556647871923942,0.0956548379525315,7.21496306667051e-08,-0.0137797011553809,2.054413923667859e-05,0.0011887386997379,12.78851406632414,19.9622915518063,32.54541260151484,36.00618379798119
0.8,31.222167406912195,131.010434363502,14.66629989795266,12.714881758777397,-0.0001038635491534,36.46629930401672,0.0017403645627315,0.8046608059375339,377.42502064505743,32.84208661200301,12.236178410471174,69.87431955533545,0.0009748079289937,113.70106337426004,659.7197307065185,15.288,0.0,5.574188567335357,0.0965270345080976,7.697927425042557e-08,-0.0143869152774996,2.0545357865739853e-05,0.001252401315233,12.714881759194602,19.815022719962908,32.842070297154855,36.475176037568495
0.81,31.22216696982464,131.01043554764223,14.94379140236266,12.632420184495675,-7.345196417058118e-05,23.97625808724207,0.0017544718232179,0.7536566670499601,273.9374926939919,33.162247817031314,12.356315719628796,69.86591835904682,0.0010065646528707,113.70109776447973,672.6270615725111,15.288,0.0,5.5916458783673,0.0974683338238592,8.20089872951477e-08,-0.015006847078405,2.054827178942568e-05,0.0013190672288281,12.632420184705754,19.656102571615943,33.16223627922376,23.988100243996
0.82,31.222166528669515,131.01043674280936,15.224055701397807,12.546734263271906,-4.338948967785317e-05,30.603467447502847,0.0017689019316241,0.7011124220645024,328.72500443277005,33.49216624585367,12.47971509464276,69.85715875919787,0.0010382936586653,113.70113213273952,686.0585840463992,15.288,0.0,5.608975385351273,0.0984383200051471,8.72423288836485e-08,-0.0156392358296974,2.055295129998701e-05,0.0013882912644209,12.546734263345735,19.493888924783143,33.49215943024856,30.611497538796655
0.83,31.22216608343441,131.01043794903757,15.507109092927047,12.47942635986358,-1.3717364088906406e-05,38.70606228891907,0.0017805679482747,0.6519041039553455,395.68750322465047,33.77481092895342,12.586248177944936,69.848033496895,0.0010699782277133,113.70116645473736,697.6679517242943,15.288,0.0,5.626220521739229,0.0992693706313176,9.268267069450521e-08,-0.0162843612810609,2.0559463042426783e-05,0.001457718528557,12.479426359870995,19.360330994491974,33.774808774234906,38.71155176487839
0.84,31.222165634017703,131.0104391666034,15.793036031312289,12.409101615878036,1.5676171322271074e-05,24.181064215832595,0.0017924793915558,0.6013442913325437,275.4593748256452,34.065805387089625,12.695532959234036,69.8385352122512,0.0011016411567296,113.70120076285724,709.722080574987,15.288,0.0,5.643382366881944,0.1001249711659381,9.83332951322851e-08,-0.016942600833033,2.0567876348968983e-05,0.0015296667723374,12.409101615887783,19.223662837359893,34.065807849496856,24.18854036067328
0.85,31.222165180716186,131.01044039470045,16.08161430001485,12.325011545382624,4.471422652634906e-05,26.30464070717453,0.0018062331530887,0.5467743196781363,292.96093233939376,34.39501491769006,12.818135278459472,69.82865673142082,0.0011332604483819,113.70123502473773,723.4857192097917,15.288,0.0,5.660447202019057,0.1010929009540158,1.0419782476780865e-07,-0.0176133514222167,2.057826161131654e-05,0.0016055489805027,12.325011545462475,19.067945941375044,34.39502194138434,26.310322843946274
0.86,31.22216472336037,131.01044163378978,16.372980613590858,12.252156309390342,7.34636070904577e-05,32.75602736549704,0.0018181707676443,0.4940921474788115,346.2265619465587,34.694452899846034,12.930051119223858,69.81839046484414,0.0011648471661668,113.70126925601132,736.1170772640916,15.288,0.0,5.677426561906513,0.1019733362363542,1.1027950079497961e-07,-0.0182973161132709,2.0590689869705752e-05,0.0016823693160199,12.25215630960722,18.930187900026716,34.69446443948245,32.759753648724775
0.87,31.222164261977767,131.01044288379708,16.667119884541933,12.184763409530817,0.0001019566125955,30.555214984841253,0.0018290947096082,0.4420571118316592,327.964078366998,34.978954648148665,13.036519696998626,69.8077288229532,0.0011964125814978,113.7013034723132,748.2180667811637,15.288,0.0,5.69430219557089,0.1028098800606183,1.1658177515349718e-07,-0.0189946049623441,2.0605234527992245e-05,0.0017607541799112,12.184763409950945,18.801823853012635,34.97897066345592,30.558412599570282
0.88,31.222163796607106,131.0104441446173,16.964008158602574,12.110774099540992,0.000130104387878,26.510889173690355,0.0018408087346077,0.3876280403814011,294.4828134710418,35.2824501543178,13.149526793280115,69.79666433861114,0.0012279382865168,113.70133764670152,761.2365426871538,15.288,0.0,5.711077019353461,0.1037022591505659,1.2310811323285934e-07,-0.0197052293399947,2.0621969145079826e-05,0.0018424235800526,12.1107741002294,18.66498654484949,35.28247059106726,26.513722931077773
0.89,31.222163327332847,131.01044541602127,17.263586372412547,12.030448737197394,0.0001578617024609,29.00577539311651,0.0018533054755479,0.3307285582310779,315.028134248087,35.60506985502332,13.269129035200432,69.78518928818046,0.001259438937846,113.7013717995318,775.1992499894513,15.288,0.0,5.727761595612782,0.1046508574617311,1.2986204052612156e-07,-0.020429188947915,2.0640967226043333e-05,0.0019275236920967,12.030448738217856,18.5200335038467,35.60509465188155,29.007660901387656
0.9,31.22216285408325,131.0104466982043,17.56591550524513,11.967935914153728,0.0001855601641208,31.96289294485848,0.0018628511483893,0.277806003666967,339.37814235421445,35.87620320631423,13.370375427860576,69.77329579710401,0.001290912488855,113.70140592741826,787.0276672364735,15.288,0.0,5.744362128036211,0.1054481356396507,1.36846949466794e-07,-0.0211669166482712,2.0662308518738022e-05,0.0020122791263453,11.967935915571278,18.402618053816965,35.87623235403665,31.96410025404081
0.91,31.2221623769314,131.0104479909681,17.87094479478834,11.898929372058443,0.0002128952924436,24.504060134981906,0.0018731750269162,0.2224368330142834,277.7421810230789,36.16644538074584,13.478214275404545,69.76097617253585,0.0013223603780339,113.70144003173576,799.7900170267066,15.288,0.0,5.760873682120276,0.1063015877671687,1.4406635610481226e-07,-0.0219183461703873,2.068606869624932e-05,0.0021005113494982,11.898929373935523,18.27680774939272,36.166478822260174,24.505069776523296
0.92,31.22216189608111,131.01044929375882,18.178523415677752,11.82371736635733,0.00023981679979,29.028990123709967,0.0018842620021417,0.1645600531061593,315.02813424806214,36.47574012968799,13.59265065705337,69.74822262744344,0.00135378411421,113.70147411374856,813.5040569438075,15.288,0.0,5.777288481982923,0.107211048991538,1.5152399478452928e-07,-0.0226830484105331,2.071231579589507e-05,0.0021923209186089,11.82371736875476,18.143011459876817,36.47577780002281,29.029456611586312
0.93,31.22216141144489,131.01045060681471,18.4887237271152,11.764515458395817,0.0002667860220558,34.386653066315134,0.001892571161494,0.1105498990955429,359.1625070654728,36.73638769167852,13.689736176476943,69.73502729055596,0.0013851852724299,113.70150817520437,825.1472523512083,15.288,0.0,5.793614805244888,0.1079775333438887,1.592230891535513e-07,-0.0234615486025535,2.0741134573393363e-05,0.002283698575153,11.764515461378156,18.033986519369808,36.73642959832887,34.38683082177152
0.94,31.222160922915386,131.0104519304279,18.80163264423388,11.6916884517307,0.0002931938914795,25.168612280466046,0.0019028146678592,0.0518575329448986,283.0687504837787,37.03884209840247,13.8014621309346,69.72138236038619,0.0014165654996422,113.70154221795556,838.7650185175697,15.288,0.0,5.809852396474572,0.1088669077093743,1.6716691209567333e-07,-0.0242542146291363,2.077261125434132e-05,0.0023802206709497,11.691688455355742,17.90600912719844,37.038888153191245,25.168665776096535
0.95,31.222160430783667,131.0104532638074,19.117032664018566,11.621297358723044,0.000319363474342,32.373920254491395,0.001912434013639,-0.0068924682735777,342.4218736174873,37.33404269030324,13.910498442123,69.70727975431325,0.0014479265181326,113.70157624337016,852.1624442378305,15.288,0.0,5.825994756728873,0.1097349704943662,1.7535939250088464e-07,-0.0250604510521823,2.080680989537026e-05,0.0024788677198949,11.621297363050903,17.78273461050501,37.334092855800485,32.373921044687975
0.96,31.22215993475926,131.0104546077431,19.435150532985976,11.558976444145184,0.0003454998069639,31.73587783243391,0.0019204691706503,-0.0638736441285766,337.09533515678345,37.60342334303272,14.0102497761247,69.69271139285483,0.0014792701164234,113.70161025371112,864.4778096724907,15.288,0.0,5.8420406698163605,0.1105271507102741,1.838034491298129e-07,-0.0258813223772298,2.084383718954213e-05,0.0025784577888553,11.558976449238491,17.67247666392581,37.60347761401549,31.73594216855372
0.97,31.222159434863887,131.01045596217625,19.75597421937036,11.493296879724788,0.0003712974402806,20.569696940509303,0.001928783555199,-0.1225947072274589,245.02188719299323,37.88315038629998,14.113523249011212,69.67766901295118,0.0015105981622964,113.70164425088367,877.3600911209987,15.288,0.0,5.858003555363362,0.1113497511066185,1.925026651912441e-07,-0.0267169311061865,2.088377995003439e-05,0.0026814237769593,11.493296885641628,17.558357362131932,37.88320870956552,20.570062357874463
0.98,31.2221589313868,131.0104573263208,20.07928754466964,11.414964126711972,0.0003963990938712,29.626945091399065,0.0019389572874768,-0.1862115872564088,319.5937466429581,38.20434749480557,14.231385406770652,69.66214434859654,0.001541912602133,113.70167823649778,892.2730720485947,15.288,0.0,5.873873027302032,0.1122942538078585,2.014611683942069e-07,-0.0275665108316463,2.092669672897604e-05,0.0027900622797431,11.41496413350339,17.42666029465371,38.20440976102962,29.627530338581366
0.99,31.222158424182016,131.01045870057385,20.40520648331976,11.359197340000543,0.0004220162379008,32.31365683928313,0.0019450618329641,-0.2431090202449499,341.6609485517054,38.45089347002311,14.322654920598904,69.64612889449462,0.0015732230012343,113.70171222370618,903.798237401978,15.288,0.0,5.889660790488491,0.1130193434279921,2.106821072564807e-07,-0.028430847605218,2.0972695063995013e-05,0.0028960226864486,11.359197347736949,17.329246352641313,38.45095976017875,32.31457138979162
1.0,31.222157913249223,131.01046008493657,20.733735042047496,11.291134675442,0.0004469524928743,28.994031406609874,0.0019529547962257,-0.3048202865397106,314.2672081822764,38.737828099209615,14.428128765996256,69.62961455111903,0.001604516825164,113.70174619366192,917.3085675406604,15.288,0.0,5.90536214662231,0.1138631572071995,2.201690000430905e-07,-0.0293099625514447,2.102186108029183e-05,0.0030077555974201,11.29113468417337,17.214762613791752,38.73789830634302,28.995633747662737
1.01,31.222157398769586,131.01046147891662,21.064739498298927,11.22563920666914,0.0004717275337907,30.2950084343956,0.0019601248814688,-0.3663734548649644,324.9203161036979,39.01579508069685,14.530318072470294,69.61259278779772,0.0016358033525119,113.70178015858154,930.4906862838684,15.288,0.0,5.920974890722539,0.1146806214984747,2.299257295141505e-07,-0.0302035253766529,2.107426653074389e-05,0.00312159318494,11.225639216453503,17.10507061204809,39.01586917948458,30.297223790153115
1.02,31.222156880667924,131.01046288271868,21.398280800919565,11.163825852614613,0.0004964160175357,25.40057525226792,0.001966357576099,-0.4273027370354057,284.59063161540416,39.28051558009079,14.627695274020963,69.5950552114254,0.001667084830377,113.70181412091408,943.129986088532,15.288,0.0,5.936502708467674,0.1154591591653315,2.3995557733731937e-07,-0.0311119434004786,2.11300125716664e-05,0.0032371931418306,11.163825863511526,17.001802000812162,39.28059355693648,25.404169237386323
1.03,31.22215635901288,131.01046429615633,21.734310245786023,11.093867703878992,0.000520495752756,20.873191220872325,0.0019737062671447,-0.4919012643419886,247.30469339049705,39.57309118449192,14.734876923241735,69.57699344822284,0.0016983635818355,113.70184808298652,957.200966652968,15.288,0.0,5.951942820521364,0.1163195821540185,2.502621757905982e-07,-0.0320351162061022,2.118918126380853e-05,0.0033579680098557,11.09386771593621,16.887531534375004,39.57317294377358,20.878986625132917
1.04,31.222155833866545,131.01046571906105,22.072784452449675,11.032445990929055,0.0005447198390299,32.81364663608639,0.0019792500085734,-0.5540780822035895,345.46563688072297,39.83512435235711,14.83111094887424,69.55839884121282,0.0017296420169468,113.70188204722876,969.8876119978868,15.288,0.0,5.967297337054281,0.1170902393270866,2.608491436755581e-07,-0.0329730879810974,2.125186074657583e-05,0.003479060286542,11.032446004210042,16.786797055039326,39.83520991674934,32.81832433255166
1.05,31.22215530494657,131.01046715220028,22.41392046693112,10.964562604346971,0.0005684019628726,20.04823148438797,0.001985610486816,-0.6193945710674085,240.45625879819983,40.11949133919101,14.935185889286668,69.53926280506562,0.0017609226154655,113.70191601663396,983.7520803004148,15.288,0.0,5.982574452339398,0.1179265535784313,2.7171926092299853e-07,-0.0339269514358755,2.1318193707045e-05,0.0036051403835677,10.964562618899633,16.677528810057456,40.11958062356255,20.05779746704313
1.06,31.222154772488544,131.01046859493405,22.757543136485783,10.89132300930215,0.000591543147517,28.29144226612848,0.0019926160776694,-0.68763183819112,308.17968365593924,40.42309566360424,15.046037815882324,69.51957638761488,0.0017922079592625,113.70194999357156,998.6645461966089,15.288,0.0,5.997767816640492,0.1188194237266203,2.828768307531854e-07,-0.0348960683798083,2.138824087684327e-05,0.0037360584320984,10.891323025172507,16.56132517280657,40.42318858298456,28.2997976496846
1.07,31.222154236378028,131.01047004757342,23.103742370463856,10.831761772947967,0.0006151808196121,33.20546643046753,0.0019968278213744,-0.7511822242998853,348.5093681440308,40.67597239206219,15.13872881942308,69.49933043362986,0.0018235007186102,113.7019839810024,1011.1647920501244,15.288,0.0,6.012885894403483,0.1195631952843722,2.9432511065841704e-07,-0.0358811476107911,2.1462132437436525e-05,0.0038654264886663,10.831761790208713,16.4662090462355,40.67606902443936,33.21396211815645
1.08,31.2221536965148,131.010471510391,23.45259642174633,10.76970774426992,0.0006384767147151,22.55983763932745,0.0020011311085826,-0.8163901886971081,261.00157857466235,40.936877033427926,15.234182808855584,69.4785159412174,0.0018548036362515,113.70201798194574,1024.143742565943,15.288,0.0,6.027929581047953,0.1203305736475343,3.060675148478114e-07,-0.0368826256061022,2.1539990357334526e-05,0.003998666051151,10.7697077629724,16.368370603758688,40.93697732511575,22.574604564810038
1.09,31.22215315317162,131.01047298264567,23.803901960325888,10.693882970652115,0.0006607112734823,20.802842588241752,0.0020076134302934,-0.8881067527276453,246.54375332474407,41.24911989796552,15.347900104396665,69.45712380564855,0.0018861195456399,113.70205199899031,1039.7913915336933,15.288,0.0,6.04289020782084,0.1212488664756102,3.181086239793345e-07,-0.037899632556128,2.1621861490551183e-05,0.0041401266638258,10.693882990825236,16.251165563309552,41.249223682249664,20.821791406743007
1.1,31.222152606423915,131.0104744641325,24.157604927873017,10.62571448271492,0.0006831415609667,41.10442414283576,0.0020123531179647,-0.9574416310618624,413.1890617385841,41.53207360470934,15.451117939468634,69.43514482121573,0.0019174513665071,113.70208603509823,1054.0696746885087,15.288,0.0,6.057770585222957,0.1220810761432464,3.3045219179923525e-07,-0.0389321858064267,2.17078407401883e-05,0.0042819499761091,10.625714504422644,16.14613863735714,41.5321809123348,41.11557348062404
1.11,31.22215205587225,131.0104759559372,24.51400845062693,10.572332838128853,0.000706319831171,30.26591026333716,0.0020139640721456,-1.020962606888612,324.1593910376397,41.75652077947253,15.53333299809762,69.41256961045238,0.0019488021083503,113.70212009400208,1065.4567664538622,15.288,0.0,6.072584476683268,0.1227413190170875,3.431005348390528e-07,-0.0399819941558978,2.1798135575220948e-05,0.0044210260689884,10.572332861454502,16.06383146749412,41.75663172793216,30.28312554491517
1.12,31.22215150157711,131.0104774578953,24.87306826081319,10.492296678443664,0.0007275159742358,11.81659677847998,0.0020201762361106,-1.097113802263401,172.73281794065943,42.084269802507606,15.652431177707632,69.38938894061519,0.001980174855409,113.702154178864,1082.2107276498064,15.288,0.0,6.087325569722438,0.1237052230334364,3.560577464227539e-07,-0.0410488501305736,2.1892839936674632e-05,0.0045744631400834,10.49229670338337,15.943139926672098,42.0843840804496,11.867418514631238
1.13,31.22215094412568,131.01047896841146,25.23434619287402,10.427212862308036,0.0007494559026408,35.56432365850475,0.0020232262643673,-1.167337372356169,367.5328077900705,42.35264890740137,15.75027299796875,69.36559286836201,0.0020115728432166,113.70218829226395,1096.0196157928535,15.288,0.0,6.101984342857403,0.1244946214974237,3.69329662262013e-07,-0.0421308445923236,2.19919239354108e-05,0.0047248172183694,10.42721288894358,15.845354362085615,42.35276663165926,35.58347647323438
1.14,31.22215038285804,131.01048048927885,25.59833868590473,10.372574284940889,0.0007719593652358,19.983130501748864,0.0020238803650888,-1.2332835556026716,239.69531773195544,42.57734069371156,15.8323789133695,69.34117216834295,0.0020429993133224,113.70222243855687,1107.6410720887848,15.288,0.0,6.11657172326032,0.1251556118590912,3.829173714790681e-07,-0.04323069090839,2.2095681179710366e-05,0.0048737112257273,10.372574313352192,15.763899838655249,42.577461952805095,20.02115124248697
1.15,31.22214981825577,131.010482019189,25.96468568105349,10.291230759594944,0.0007922543657241,19.70634509290353,0.0020292465469328,-1.3127223236587704,237.41251153546767,42.90974151947192,15.953101889122664,69.31611758039142,0.0020744576014114,113.70225662058294,1124.9636757885385,15.288,0.0,6.131070709980474,0.1261332218097434,3.9682662247049e-07,-0.0443464631237315,2.220407922158468e-05,0.0050383541058917,10.291230789761544,15.6438884753271,42.90986596649668,19.750019770559135
1.16,31.22214925045545,131.01048355777087,26.333287426423727,10.23946411166805,0.0008145598528713,50.53128486169405,0.0020285358058001,-1.37849801985825,490.0437743845894,43.11937682328973,16.029748378599244,69.29041915387843,0.0021059511925012,113.70229084183389,1135.9423122510636,15.288,0.0,6.145493480511206,0.126749972222941,4.1106136157330333e-07,-0.0454780685500666,2.231721026037069e-05,0.005191978806179,10.23946414372193,15.568408436774586,43.11950477405221,50.550084180734856
1.17,31.2221486785868,131.010485107389,26.70479414426792,10.17378963872586,0.0008356183131695,9.49647537296572,0.0020300646490697,-1.4517244873957988,153.70937929486794,43.38483385684848,16.126359626325016,69.26406760326316,0.0021374835727273,113.70232510723118,1149.9307938133416,15.288,0.0,6.159858714672468,0.127530821337879,4.256218044202229e-07,-0.0466290494077282,2.2435464166757084e-05,0.0053559612376553,10.173789672680948,15.473292146525305,43.384965115466166,9.606797209154125
1.18,31.222148103793007,131.0104866649374,27.07835353539805,10.08970866012062,0.0008548871102503,24.91402530696956,0.0020348011083923,-1.5352827124030932,280.02501822196746,43.72798887708294,16.250977976765842,69.23705313185535,0.00216905838634,113.70235941901566,1168.1517126420383,15.288,0.0,6.174135936453311,0.128540076143844,4.405167831998472e-07,-0.0477947186663337,2.2558574428905345e-05,0.0055330775054646,10.089708695962171,15.351750924441124,43.7281231624362,24.96128510601445
1.19,31.222147525557,131.0104882318211,27.454352815201712,10.0466941621632,0.0008773925578664,43.035760513881854,0.0020310545079812,-1.5980934724538558,428.4078130529292,43.893814571118725,16.311723832094398,69.2093656498747,0.0022006793809902,113.70239378189454,1176.9857511139066,15.288,0.0,6.188349717151835,0.1290280745600876,4.557471689068688e-07,-0.0489778115948685,2.2686870562983592e-05,0.0056913376898116,10.046694200081747,15.291837904026814,43.89395239161942,43.06542220714984
1.2,31.22214694343033,131.01048980925808,27.833124187206188,9.970958697789513,0.000896911664526,5.0319318542947125,0.0020332858305259,-1.6788552751527357,117.1843741360236,44.199075332103135,16.422668278035033,69.18099593458325,0.002232350278914,113.70242820045264,1193.3700147086372,15.288,0.0,6.202501707897037,0.1299259593132696,4.713150748445201e-07,-0.0501799884442647,2.2820617072490407e-05,0.0058713719335773,9.970958737721135,15.184359609285966,44.19921621865794,5.304610952315472
1.21,31.22214635856224,131.01049139412643,28.21381492508357,9.89713179533971,0.0009163040816984,34.68448906180922,0.0020347448222584,-1.7595176428548285,359.92343213200894,44.49583358893405,16.530638308106447,69.151933683655,0.002264075037468,113.70246267726732,1209.4044604077008,15.288,0.0,6.216568871952748,0.1307988608265726,4.872296425844933e-07,-0.0513965388375051,2.295950805675412e-05,0.0060538713872559,9.897131837333966,15.080472888880989,44.495977521642615,34.72908993847186
1.22,31.22214577007331,131.010492988815,28.597077708489923,9.851299972796442,0.000938091388191,25.29843705962527,0.0020301488798453,-1.8250932062009249,283.0687504825761,44.66590816659544,16.59280793245063,69.12216915229696,0.0022958576043132,113.70249721778286,1218.622574406251,15.288,0.0,6.230578997559154,0.1312993758190161,5.034897129300941e-07,-0.0526317038118856,2.31040380759976e-05,0.0062228248543165,9.851300017020376,15.01898214325836,44.66605552164612,25.36418512376549
