Time,Latitude,Longitude,Altitude,Angle of Attack,Angle of Sideslip,X-Acceleration,Y-Acceleration,Z-Acceleration,Thrust,True Velocity,Ground Velocity,Pitch,Roll,Yaw,Dynamic Pressure,cp,parachute_deploy_gain,Wind Speed,Mach,omega_x,omega_y,omega_z,Cmq
0,31.2221860000000042,131.010383999999988,3.00000000364323682,0,0,0,0,0,2.2828121974499247,0,0,69.9999999962342088,0,113.699999993883324,0,15.2880000000000003,0,0,0,0,0,0,-0
0.01,31.2221859999997946,131.010384000000556,3.00000016469923247,0,0,0,0,0,34.2421869617492334,9.11367326775851009e-12,8.66229497295429822e-12,69.9999999962370651,-4.92863947922479589e-13,113.699999993882884,5.08594204168408172e-23,15.2880000000000003,0,0,2.67827100510624443e-14,-3.65918233213857746e-19,7.58941520739853104e-19,4.81114714040442593e-19,-1.83541113936281872e-32
0.02,31.2221859999996028,131.010384000001039,3.00000030885429547,0,0,0,0,0,25.8718762377664078,1.96992978605390895e-11,1.88456988716431921e-11,69.9999999962400494,-1.04152381447771591e-12,113.699999993882386,2.37621641206600858e-22,15.2880000000000003,0,0,5.78911013494094702e-14,-7.28448334638698292e-19,1.51788304147970621e-18,9.75781955236953991e-19,-7.93451985123442364e-32
0.03,31.222185999409362,131.010384001586402,3.00018176030779937,18.6493779029494604,-0.000129237623237530007,10.7928899806483045,-1.97644583900689674e-05,3.34983967390763571,180.342193598546658,0.0785672533977095078,0.0490694047558625918,69.9999999976775626,-4.2497891361524094e-12,113.699999994705607,0.00377978965327356543,15.2880000000000003,0,0,0.000230888677896110966,2.88330015245363835e-17,-7.25223402354589416e-10,1.08188208080271277e-11,1.51197624781400831e-13
0.04,31.2221859959356287,131.010384010943454,3.00162780953569674,9.74253989061216075,-4.88763086122285772e-05,51.6475445943311158,1.54548216767323456e-06,3.34965665682309899,548.635972453807767,0.346420694310776434,0.171860503977579737,70.0000000036447574,-2.28205307288861013e-11,113.699999999565534,0.0734838809649275282,15.2880000000000003,0,0,0.00101804013696402693,1.80009747884589399e-15,-1.58734069119923437e-08,2.61929145365345784e-11,1.45916869803439425e-11
0.05,31.222185985910329,131.010384038045004,3.00715844163023283,5.5769968489095687,-4.21135943534799539e-06,75.3242160169835273,4.73080294831520123e-05,3.34902689347595528,761.698429882464552,0.947854334293939504,0.409211128642743283,70.0000000010935537,-1.04766136577077691e-10,113.700000013612069,0.55013262299765131,15.2880000000000003,0,0,0.00278549703395658196,1.95473045844392346e-14,-1.13584749331540247e-07,4.14067569904437612e-11,2.85688606727574374e-10
0.06,31.222185966868647,131.010384089593572,3.01868664272593046,4.48500474963244322,2.31139019787050305e-05,56.3605563030587007,9.71465785775115924e-05,3.34799244711343214,590.487539073720654,1.60618980149218604,0.665693519146445256,69.9999999197690244,-2.82941102348924619e-10,113.700000040305838,1.57971028663545732,15.2880000000000003,0,0,0.00472017413217633904,1.01936766184118274e-13,-4.07864410983111553e-07,5.76522069423461223e-11,1.73837509686130208e-09
0.07,31.2221859390775336,131.010384164863126,3.03600551209402658,4.00448286551149391,4.63712119495135773e-05,85.8192455386477917,0.000147926970097503541,3.34656708333141317,855.293774977913927,2.27788210706903049,0.926660947343454056,69.9999996219982279,-5.49831570978999292e-10,113.700000079276109,3.1772067926123353,15.2880000000000003,0,0,0.00669410445039518576,3.35900025920073467e-13,-9.92070622953462368e-07,7.83315922772719921e-11,5.99658406989250883e-09
0.08,31.2221859009658012,131.01038426812616,3.06033476575187802,3.77263127792190334,7.06371256062416025e-05,17.6076228145981588,0.000196957592070898702,3.34480227118667583,241.217198863884818,2.92612482887636283,1.17954495655796454,69.9999989088305909,-9.15694670892462832e-10,113.700000132739973,5.24285298735243899,15.2880000000000003,0,0,0.00859912396431777512,8.49635706706491564e-13,-2.01744800413265681e-06,1.10032289818440005e-10,1.56647792516492608e-08
0.09,31.2221858556197738,131.010384390989856,3.0892797608365723,3.74258231141200604,9.5325675231994802e-05,53.4176180048964397,0.000237730218002333866,3.34289666486112669,563.093737704317618,3.46187703891102627,1.39384941462988121,69.9999975134546446,-1.31671842773002699e-09,113.70000019638816,7.33844512707370811,15.2880000000000003,0,0,0.0101735644468633635,1.80613395740032365e-12,-3.4856561047658452e-06,1.59232278560273843e-10,3.20202005890100843e-08
0.1,31.2221858028175774,131.010384534057465,3.12301320909491364,3.81071421019783685,0.000121971080758598364,50.732831688561788,0.000271545837515448313,3.34090447591365036,538.7437595981919,3.9029133825176725,1.57567038389986336,69.999995157830341,-1.72222432289554893e-09,113.700000270567642,9.32732681847184431,15.2880000000000003,0,0,0.0114696609641860067,3.37914451533694905e-12,-5.48904943388414521e-06,2.34452541412924053e-10,5.68476506314615152e-08
0.11,31.2221857431700727,131.010384695667796,3.16106164078641116,3.84323765504598036,0.000147145408783231387,40.0848474374385688,0.000307099758177995722,3.33859717034531034,442.865639305294906,4.36819921201157246,1.76578242121538631,69.9999915253729768,-2.07703942468805025e-09,113.700000354470319,11.6837607126815346,15.2880000000000003,0,0,0.0128370221364947634,5.76365694334259916e-12,-8.08162139954488366e-06,3.4437809457680147e-10,9.36754562129998513e-08
0.12,31.2221856770245907,131.01038487487628,3.20315617196047642,3.86558564807459826,0.000171348089099210797,43.7480799143332604,0.000342946594964391399,3.33600966231316054,475.585948135404465,4.83801864946757032,1.95742650583495204,69.9999862600106582,-2.3147200577597177e-09,113.700000447673773,14.3321420062794882,15.2880000000000003,0,0,0.0142177082532951912,9.17772063248746377e-12,-1.13223702306849879e-05,4.98555567062495836e-10,1.45354343598177095e-07
0.13,31.2221856047215205,131.010385070757366,3.24903338361815308,3.95285669440916232,0.000198169826234992146,48.2585391180499741,0.000371981107240517913,3.33344523512332414,515.915632623689476,5.21512035057569623,2.1172615234944101,69.9999789703044399,-2.35265113573284059e-09,113.700000549782459,16.6533950244453948,15.2880000000000003,0,0,0.0153259223232261182,1.38588880633063252e-11,-1.52681962163171846e-05,7.07166414280215559e-10,2.11287244421402401e-07
0.14,31.2221855263490333,131.010385283071088,3.29862557546706325,3.99981420118284792,0.000223008237377726162,44.9721767850953427,0.000403855591455553264,3.33052592490198407,486.239086056840392,5.63167615200940475,2.29059513099545553,69.9999692426645623,-2.0964169591742506e-09,113.700000660771011,19.4199179783547713,15.2880000000000003,0,0,0.0165500839355928395,2.00553635588333716e-11,-1.99811439493909854e-05,9.81252131659242702e-10,2.9859131057555361e-07
0.15,31.2221854420015994,131.010385511560628,3.35186028506811029,4.05975476911301225,0.000248539990764711958,43.4637160193537753,0.000433543226731567866,3.32747422849243879,472.54218587214001,6.01888316560526437,2.45383766868271946,69.99995661705006,-1.43188768134039915e-09,113.700000780625842,22.182048585914238,15.2880000000000003,0,0,0.0176879988684610287,2.80404916713566325e-11,-2.55291719775422389e-05,1.33309260321839681e-09,4.07727088477750495e-07
0.16,31.2221853515819241,131.010385756490507,3.40881389436676407,4.08854462484130732,0.000272210944932510383,34.4023069357135967,0.000465877824565354701,3.32404684464906053,391.12189082975641,6.44303061809316624,2.62971580822363071,69.9999405987561403,-2.27841984783363582e-10,113.700000909623355,25.4183784408083007,15.2880000000000003,0,0,0.0189344747787753703,3.81042963600432359e-11,-3.19913711614788564e-05,1.77662362644707755e-09,5.46937370926295155e-07
0.17,31.2221852554099399,131.010386016990765,3.46923909377793649,4.13347468842419552,0.00029684158695823977,43.4155809381403728,0.000495744973995866601,3.3205135250562221,471.78125980632376,6.83404379119085981,2.79420112365087148,69.9999206448319882,1.67575894446247236e-09,113.700001047478835,28.5969980778046526,15.2880000000000003,0,0,0.0200835795555658371,5.05622819343119236e-11,-3.94162603380559734e-05,2.32482468580976756e-09,7.14768170397066036e-07
0.18,31.2221851530022434,131.010386294375877,3.53351204963262022,4.16207877285686756,0.000320492787063832857,36.2151660219171347,0.000526966735016640565,3.31665933612355879,407.101567211914528,7.2444022294323478,2.96528531587496236,69.9998961790314524,4.45070668055043651e-09,113.700001195059045,32.1341903991183955,15.2880000000000003,0,0,0.0212895378539265934,6.5741708189353534e-11,-4.79243856484647045e-05,2.99669991322666987e-09,9.21230820748327094e-07
0.19,31.2221850444828668,131.010386588308563,3.60153760019172342,4.17456309251139679,0.000342914278589344943,40.9041800427263027,0.00055982867240863632,3.31244583927210501,448.953132831826849,7.67810673790947895,3.14433961722118216,69.9998665624008964,8.30674092292676784e-09,113.700001352409558,36.0967170721845179,15.2880000000000003,0,0,0.0225641073333706747,8.40032927522686365e-11,-5.75836346763551867e-05,3.80911503044151526e-09,1.17316671380156179e-06
0.2,31.2221849296486234,131.01038689934137,3.67347464118590317,4.20078915399145636,0.000366573034254704516,37.5214898208491761,0.000590466919182690893,3.30812712915434881,418.515630199161365,8.08216006412957277,3.31318683933006453,69.9998311045104487,1.34800080829191884e-08,113.700001520067786,39.9955165273270055,15.2880000000000003,0,0,0.0237515420632470921,1.05728805481567758e-10,-6.85028882131185225e-05,4.78351733027568889e-09,1.4690610466811608e-06
0.21,31.2221848088436893,131.01038722653837,3.74905730552401684,4.22722562033261262,0.000390310433246848657,36.0064697775761644,0.000620601272787201603,3.30359776763142721,404.818761014464428,8.48018829437500621,3.47992805775657654,69.9997890742529592,2.02433263776548733e-08,113.700001697833756,44.0315784885794201,15.2880000000000003,0,0,0.0249212734096428447,1.31320595517854955e-10,-8.07208291683553139e-05,5.93661589182972911e-09,1.81631626331753899e-06
0.22,31.2221846819136672,131.010387570319409,3.82840670130281646,4.2176244726165093,0.000410696285369717819,43.5935627685881499,0.000655758920494764063,3.29841875767922987,472.542185872136486,8.94831461811120121,3.67066782999472752,69.9997397083127737,2.88926538075102191e-08,113.700001886238866,49.0266756129506618,15.2880000000000003,0,0,0.0262970098082033268,1.61186003536399267e-10,-9.43348117723774896e-05,7.29106197993283208e-09,2.23980539128825791e-06
0.23,31.2221845484548304,131.01038793178239,3.91183756115468473,4.25320537954326383,0.0004356497720089569,36.207459360748949,0.000683686922722525747,3.29355466128287455,406.340642146102141,9.31799902525197865,3.82760028360492655,69.9996821549030983,3.9766623706965518e-08,113.70000208621326,53.1608354775167555,15.2880000000000003,0,0,0.0273834518362109196,1.95767624418301473e-10,-0.000109505708778552874,8.87784718088286285e-09,2.70740355927931971e-06
0.24,31.2221844093456014,131.010388308538637,3.99866964940866776,4.27135264557773553,0.00045883378920767232,37.3286080087975947,0.000713911697673520317,3.2882529474867046,416.232824001711379,9.7203332459195213,3.9956861712714935,69.9996155408946805,5.32509871046438109e-08,113.700002296918697,57.8502398901668755,15.2880000000000003,0,0,0.0285658473732890855,2.35534745143307651e-10,-0.00012617657385590063,1.07071802425012536e-08,3.25424194465518317e-06
0.25,31.2221842644570167,131.010388700938847,4.08900446593793809,4.29698686981540234,0.000482848983334858658,38.3649566400252979,0.000742483922667206905,3.28284626589867479,425.364080791506922,10.1009615935159527,4.1562806652626314,69.9995389781877293,6.97479781374676735e-08,113.700002518962805,62.4689963611702623,15.2880000000000003,0,0,0.0296844577155840929,2.80933085873043406e-10,-0.000144451636124542286,1.28055329635332884e-08,3.87142965072796435e-06
0.26,31.2221841140756986,131.010389108203611,4.18262110402873155,4.32755423691547136,0.000507438991606541483,41.7865661614553829,0.000769736419800412888,3.27732087646770287,455.80158342417883,10.4644497354123782,4.31094871887776954,69.9994515368878751,8.97024502886333285e-08,113.700002752408935,67.0452443356678742,15.2880000000000003,0,0,0.0307527002093570291,3.32431765373287754e-10,-0.00016436315770221847,1.51925047864838523e-08,4.56355359993810651e-06
0.27,31.2221839578137299,131.010389531387915,4.27982215321117465,4.33742811840656994,0.000529702335486379188,38.2242911032538473,0.000800211178185602123,3.27123004841987974,423.842199659872563,10.8736118498261902,4.48123226393084195,69.9993522521519935,1.13587393208351198e-07,113.700002998306658,72.3900346549699947,15.2880000000000003,0,0,0.0319551720828357214,3.90484337603431509e-10,-0.000186059811616844751,1.79019946498730075e-08,5.36790267753501075e-06
0.28,31.2221837957695953,131.010389970223883,4.38053283172365671,4.35979025650862262,0.000553527510562852902,44.1207307275094038,0.000828072271385077072,3.26514386100193477,476.346873201222195,11.2478718916014184,4.63949182586423614,69.9992400702920463,1.41938296327408329e-07,113.700003257081931,77.4582454645660761,15.2880000000000003,0,0,0.0330550782151640757,4.55595825375374429e-10,-0.000209619220926101062,2.09616181379585756e-08,6.25569396794615011e-06
0.29,31.2221836278828384,131.010390424876022,4.48480177698289584,4.38135974025744623,0.00057737648726709299,35.3536197607625553,0.000855659611391794222,3.2588361863853601,397.970310422111766,11.6195889013503368,4.79682445966682813,69.9991139044831527,1.7532937395312496e-07,113.700003529427192,82.6616578528940948,15.2880000000000003,0,0,0.0341475147840558241,5.28268525040872464e-10,-0.000235137545717689308,2.44023887909330158e-08,7.24907222782668121e-06
0.3,31.2221834544381096,131.010390894570321,4.59240982688131272,4.39617507281761988,0.000600356665334356751,33.1490797613948018,0.000884158719714270942,3.25217107922164672,378.185945710871067,12.0052186882677852,4.95887519756831807,69.998972627127344,2.14383684192303281e-07,113.700003815596887,88.2385269149682756,15.2880000000000003,0,0,0.0352808420099011907,6.09029939588318471e-10,-0.000262641159892275291,2.82471356422800846e-08,8.36561857411674722e-06
0.31,31.2221832755909574,131.01039137888381,4.7032380575360353,4.42235615181669761,0.000624899913490765827,34.9528590290802086,0.000910025197609511073,3.24555398289468222,394.16562209302117,12.3556398803864607,5.10879227158949156,69.9988150759387651,2.59766173767152649e-07,113.700004116072961,93.4639131761651498,15.2880000000000003,0,0,0.0363107024397255479,6.98403788157463991e-10,-0.000292187019282257228,3.25229566712151178e-08,9.57826248689966157e-06
0.32,31.2221830914257232,131.010391877587324,4.81722282885169673,4.45155794779377789,0.000649944303128982049,38.0379859115142835,0.000934821026682707218,3.23882361682650144,421.559393462426954,12.6924793110791878,5.25399282922068878,69.9986400687318024,3.12179641788393281e-07,113.700004431478234,98.6283237403037703,15.2880000000000003,0,0,0.0373006526995305274,7.96905013945712519e-10,-0.000323836613651358495,3.72580440687311147e-08,1.09050644159405278e-05
0.33,31.22218290196043,131.01039239063175,4.9343519698327194,4.48019701204722054,0.000675004219851668761,37.7093551175013246,0.000959261610436717115,3.23189933669563656,418.515630199168186,13.0256844327599097,5.39788776638052958,69.9984463826819052,3.72372687880250348e-07,113.700004762578004,103.87354288045799,15.2880000000000003,0,0,0.0382799263433428877,9.05047894999210997e-10,-0.000357667290238851605,4.24836225249657193e-08,1.23603484615852587e-05
0.34,31.222182707020778,131.010392918491164,5.05476263450916541,4.49049305198152204,0.000697378143373914754,29.5227085089536203,0.000987142430045659337,3.22427911658814059,345.465636880756449,13.4081741031825317,5.55863100914667463,69.9982327456812641,4.41143957445642244e-07,113.700005110463266,110.062177258613033,15.2880000000000003,0,0,0.0394040418267209702,1.02333461745717641e-09,-0.000393806243978271305,4.82396483202145133e-08,1.40087103268591529e-05
0.35,31.2221825067937928,131.010393460657156,5.17831168393457641,4.50711781535187139,0.000720712543856854714,32.3530371383660977,0.00101333646443235357,3.21661305844837253,370.576570052703289,13.7686530554979374,5.71176159517965232,69.9979978091806316,5.19362042776584697e-07,113.700005475786654,116.058400304168075,15.2880000000000003,0,0,0.0404634764462946869,1.15232390415689195e-09,-0.000432299813734132244,5.45552399130644805e-08,1.57912776608867467e-05
0.36,31.2221823012122108,131.010394017312592,5.30505329869157727,4.52767240178778962,0.000744729708600240731,36.5526511043957356,0.00103828652712813154,3.20885713174522058,407.862523277719447,14.1132764952183631,5.85938873702120233,69.9977401961163537,6.07939829707116331e-07,113.700005859608282,121.939407863977465,15.2880000000000003,0,0,0.0414763190843316643,1.29254043868676357e-09,-0.000473255972436325862,6.14699225552327593e-08,1.77198251922661022e-05
0.37,31.222182090341061,131.010394588280832,5.43493909097431604,4.55039311415752579,0.00076918150115683735,34.6835787828593496,0.00106234372950533948,3.20097384516078431,391.121890829766642,14.446930470491731,6.00318739776240751,69.9974584775585669,7.0785096329375243e-07,113.700006262864989,127.771540530283914,15.2880000000000003,0,0,0.042456928843506235,1.4445318520011827e-09,-0.000516746496826029863,6.90186481791334769e-08,1.98053803654614999e-05
0.38,31.2221818741223878,131.010395173719473,5.56801609611825477,4.56315131642791805,0.000792019287104061913,36.2353933787001239,0.00108827974821363053,3.19255015153205646,404.818761014460279,14.8084413239345949,6.1564787166299757,69.9971511865591651,8.20121521966083772e-07,113.700006686723384,134.244380272309172,15.2880000000000003,0,0,0.0435194095147296359,1.60882660749176723e-09,-0.000562873331420229127,7.72423853301427293e-08,2.21128406351508731e-05
0.39,31.2221816525004634,131.010395773780147,5.704329739781131,4.57922628245169783,0.000815489716137310881,30.9425419640016202,0.00111309493143926189,3.18402316666385765,357.640624933827439,15.1559126959619999,6.30488433186772657,69.9968167722787769,9.45855271408966431e-07,113.700007132429306,140.616382889747683,15.2880000000000003,0,0,0.0445406353688629561,1.78596578656278109e-09,-0.000611756345505213715,8.61868943159197994e-08,2.45968452142520012e-05
0.4,31.2221814256617982,131.010396387955836,5.84373750626454935,4.59349479979191955,0.000838670682925170751,29.5834243852937959,0.00113797512888990423,3.17521289611434332,345.465636880754005,15.505969085398343,6.45410901523083158,69.9964536498379317,1.08621525395706341e-06,113.700007600947828,147.185065961143067,15.2880000000000003,0,0,0.045569462889951777,1.97653506559195414e-09,-0.000663427505461186432,9.58835144134294998e-08,2.72901174189528038e-05
0.41,31.2221811937141673,131.010397015953487,5.98615797249314241,4.60939449845229365,0.000862163931524819621,33.360545626359837,0.00116210409424792778,3.16624854525325983,378.946870776686467,15.8471768437686258,6.60022848408685459,69.9960602026584695,1.24241947051318175e-06,113.700008093413757,153.73182724817184,15.2880000000000003,0,0,0.0465722905345462151,2.18109996727848554e-09,-0.000717942131686907965,1.06367950505874699e-07,3.01820283711074823e-05
0.42,31.2221809567080335,131.010397657635991,6.13155423418529733,4.63387609959193458,0.000887317919769279608,37.5676427387571721,0.001183742077125155,3.15743374731593907,416.232824001711379,16.155026338188506,6.73482947265292431,69.9956347739890248,1.41574639558456e-06,113.700008611107208,159.760443802515937,15.2880000000000003,0,0,0.0474770882933877245,2.400206535531791e-09,-0.00077537935552726017,1.17680930846389008e-07,3.32294321368729263e-05
0.43,31.222180714655078,131.010398312971745,6.27991949833728835,4.65367427313455995,0.000911660169575580258,33.0386483003103493,0.00120612360190941372,3.14823214930187856,375.903139513433644,16.4750454055619109,6.87353555569934649,69.9951756835756242,1.60752723178871754e-06,113.700009155418982,166.15023929888028,15.2880000000000003,0,0,0.0484176551665520677,2.63438237315801404e-09,-0.000835821567166909188,1.29864614855892046e-07,3.65287677570896608e-05
0.44,31.2221804673911407,131.010398982407111,6.43138341412837455,4.65757387742934892,0.000932929976641759203,30.4788052564327749,0.00123214974254881528,3.13809943757763454,353.075012538921555,16.8483715860516412,7.03046484016701978,69.9946811832270441,1.81916859536649675e-06,113.700009728069276,173.762989227436179,15.2880000000000003,0,0,0.0495148886868988364,2.88411342836306464e-09,-0.000899417740154189794,1.42975581697416844e-07,4.01983191819108926e-05
0.45,31.2221802146980103,131.010399666535704,6.58611776122768511,4.65827001030579346,0.000953562143933252499,35.4620561517945134,0.00125873275223327787,3.12754579585638304,397.209385356286873,17.2316459864824161,7.19073264961644831,69.9941493995125938,2.05218870761162579e-06,113.700010330973456,181.755888424112015,15.2880000000000003,0,0,0.0506413642318551335,3.14987863732273609e-09,-0.000966369542842942814,1.57083782729145849e-07,4.41725079750487196e-05
0.46,31.2221799565319174,131.010400365476642,6.74415901717088939,4.66907507286434065,0.00097630283571516251,41.3913707355688842,0.0012823814722795761,3.11722412848720953,449.71405889764344,17.5754687869478978,7.33738035579407555,69.9935783582983362,2.30821229426708146e-06,113.700010965912341,189.078525726536213,15.2880000000000003,0,0,0.0516519027755614896,3.43223060675433133e-09,-0.00103681314204437207,1.7224885851047691e-07,4.83373548649469587e-05
0.47,31.2221796928065203,131.010401079464799,6.90557672428163105,4.67806301106434042,0.000998761260684927557,28.0209900204918974,0.00130616618884544979,3.10657060381263461,331.007810630253402,17.9233234115620377,7.48533101007974988,69.9929660462147325,2.5889364060732201e-06,113.700011634803886,196.634049649816575,15.2880000000000003,0,0,0.0526742959306323727,3.73170463860384924e-09,-0.0011108841623615434,1.88532207060213475e-07,5.28148505664365441e-05
0.48,31.2221794239793269,131.010401807256216,7.07001851744381948,4.68642527483421745,0.00102109091231145262,27.6007969606275125,0.00132978852885184593,3.09563681785184297,327.203122301157407,18.2709832353803314,7.63313726727991071,69.9923104035261474,2.89614261094227829e-06,113.700012338884164,204.33305198470137,15.2880000000000003,0,0,0.0536961221459722679,4.04904859899578719e-09,-0.00118849531779471017,2.05948560519311644e-07,5.75998398329450787e-05
0.49,31.2221791502289392,131.010402548365278,7.23734841566291642,4.70156796398202914,0.00104489945272251677,34.6487244505178253,0.00135120419031512233,3.08484494341801163,389.60000969812296,18.589315545984995,7.7707981814672209,69.9916093757078812,3.23165731652504743e-06,113.700013079832303,211.511801733856089,15.2880000000000003,0,0,0.0546317638991248022,4.38486615800834454e-09,-0.00126967773493266863,2.2453662401782158e-07,6.26054017926546362e-05
0.5,31.2221788715876762,131.010403302704333,7.40754387012007864,4.72212438923579736,0.00106996435823571525,35.6033845714535389,0.00137072557486675028,3.0741588573465477,397.970310422105001,18.8826594549893159,7.8998011517407587,69.9908609011483378,3.5973597360057951e-06,113.700013859590555,218.236320199079358,15.2880000000000003,0,0,0.0554939729313439212,4.73968531279909998e-09,-0.00135450679800636423,2.44344941868023912e-07,6.78409867869358833e-05
0.51,31.2221785881337617,131.010404070060673,7.5805467220577798,4.73558879650721298,0.00109346949398930206,27.1956639286467201,0.00139183542187690463,3.06284319292573448,323.39843497208409,19.200774511812984,8.03722958125224807,69.9900628955037689,3.99519228958782199e-06,113.700014680103109,225.647740475438098,15.2880000000000003,0,0,0.0564289867670437692,5.11403675587933804e-09,-0.00144303978709531136,2.65418546512062939e-07,7.34915902759761199e-05
0.52,31.2221782998954396,131.010404850471673,7.75637008425921426,4.74413197935007158,-24.1873691466058816,33.3396092240242865,1.51007232766965926,3.0513884940405247,372.098451184341457,21.4081685038241112,8.1774150417892546,69.9892119860399475,1.26459746034443027e-05,113.700024290373378,280.507960846002163,15.2880000000000003,0,8.77255074703166748,0.062916402280354819,5.50817793751608273e-09,-0.00155661276369593394,-5.11645782399332576e-07,8.83880111567235567e-05
0.53,31.2221780059159428,131.010405644025411,7.93516140657638047,4.75346814569342335,-23.8749754701994519,34.9847492858999587,1.54846844878053558,3.03929789651629356,386.55624643486243,21.7162405514391814,8.31851742655889126,69.9882962646666869,-0.000366931285408900372,113.699620733992944,288.634336156985853,15.2880000000000003,0,8.80591788332864489,0.0638219230218358829,5.77883126270386464e-09,-0.00165272327798071141,-0.000537938383040235339,9.51942227195262902e-05
0.54,31.2221777055689067,131.010406450797717,8.11700911221373644,4.76258727622579503,-23.5721809908696471,30.7839515587423413,1.58734139358804938,3.02694626288293245,349.270324209843579,22.0230543657774334,8.45890749693833399,69.9873244082513963,-0.00160154893903747533,113.698307196995842,296.842598670561188,15.2880000000000003,0,8.83922421432752436,0.0647237518149876567,5.76829671024579925e-09,-0.00175302285863076297,-0.00108904286999792106,0.000102396084751219714
0.55,31.222177399073189,131.01040727005946,8.3017125002122647,4.77283287681046176,-23.284204618546017,32.6009952660322639,1.62624789386631119,3.01442867466232656,365.250000591990727,22.3233273343518377,8.59663006166908161,69.9862940013405961,-0.00371223496582221779,113.696061288057791,304.986963282039198,15.2880000000000003,0,8.87241492704541024,0.065606363432301848,5.4794199651434102e-09,-0.00185747882754675776,-0.00165328042764538333,0.000109974834829172413
0.56,31.2221770864102304,131.010408101790972,8.48927183054757606,4.78516491519128451,-23.0145192981895725,30.4611990993953725,1.66483475203495113,3.00182632772269331,346.226561946578727,22.61296509714564,8.73017932887817238,69.9852025953062338,-0.00671966779009623965,113.692860986737813,312.946878499099512,15.2880000000000003,0,8.90548974726040221,0.0664577248372988511,4.91528688364035451e-09,-0.00196620176478776772,-0.00223085135329007932,0.000117920222824217434
0.57,31.2221767676285964,131.010408945791511,8.67963569264758128,4.79503844035590276,-22.743046003046441,30.1273352727685158,1.7046103443650189,2.98880079033563284,343.182829683302316,22.9099895985692434,8.86629643092203956,69.984047683542201,-0.0106445073972421412,113.688684290521024,321.216203438328648,15.2880000000000003,0,8.93844689104075663,0.0673308010649890237,4.07931785898111936e-09,-0.00207925478739960732,-0.00282171207235581631,0.000126336069370583122
0.58,31.2221764426893209,131.010409802099332,8.87282078587499079,4.79949188745206445,-22.4572578660463869,39.5215485990043334,1.74668239149272986,2.97509092161075017,426.12500585731533,23.2269976073245523,9.0096530227406415,69.9828266861053976,-0.0155075895567347785,113.683509008212482,330.160987540978624,15.2880000000000003,0,8.97128331360124776,0.068262613423084012,2.97508515087176401e-09,-0.0021967538126383356,-0.00342608054360813959,0.000135319743682340654
0.59,31.2221761111989302,131.010410671713686,9.06911809018332704,4.80960844530298104,-22.2037004593534917,32.1284763024032429,1.78721376490163242,2.9615754964152643,360.68438819711065,23.5185431910477263,9.14334400593340746,69.9815368254418502,-0.0213310606100892905,113.677311555256381,338.494995288768905,15.2880000000000003,0,9.00404723392949968,0.0691195997195174217,1.60590500414013238e-09,-0.00231905539279566491,-0.0040453286626585469,0.000144643877486727286
0.6,31.2221757733348007,131.01041155408231,9.26837617023229043,4.81060174218930214,-21.9203063817768111,28.6075304568544198,1.83149830744200082,2.9470240544006634,329.48595949860578,23.8463443312985781,9.29028775841514509,69.9801753464911229,-0.0281373666338110076,113.670068016788775,347.98997298957579,15.2880000000000003,0,9.03670477434483566,0.0700831453130460746,-2.44797737412687493e-11,-0.00244614810979595487,-0.00467902181173090927,0.00015469446215621825
0.61,31.2221754290325322,131.01041244931028,9.4706310544204193,4.80988842825182417,-21.6380987301422714,33.4429029895388581,1.87699894279153812,2.93201379598593537,372.09845118432969,24.1801792399022055,9.43924338925712014,69.9787392753897421,-0.0359494448208303868,113.661753961895769,357.794537662782545,15.2880000000000003,0,9.06925916479185723,0.0710644306073857507,-1.9123225149777687e-09,-0.00257818292675293268,-0.00532750920798961362,0.000165323661900913029
0.62,31.2221750783783314,131.010413357092347,9.67580191269299128,4.82225053532434522,-21.4165076947357029,41.469653744268129,1.91803527095515025,2.91789800219177575,442.86563930529212,24.4553664136818405,9.56634086951961038,69.9772255273268087,-0.0447907297977458638,113.652344427699177,365.977567850956234,15.2880000000000003,0,9.10170816854754605,0.0718733593657318176,-4.05379755575408863e-09,-0.00271523836347419955,-0.00599079299237102649,0.000176090266835819665
0.63,31.2221747211847109,131.010414277873934,9.88402150590784423,4.83005172058888022,-21.1832245261085781,23.7205115978679295,1.96122417581758746,2.90311025629594921,286.112512747078938,24.7478987997835134,9.69968489566266889,69.9756311240835061,-0.0546838151676563369,113.641815335823267,374.778007267378371,15.2880000000000003,0,9.13405644567854225,0.0727332713850636497,-6.44447545870320548e-09,-0.0028575268501644384,-0.00666947909358681784,0.000187531049488752944
0.64,31.2221743579718556,131.010415210172937,10.0948733624641953,4.83077815790987675,-20.9283883957732826,23.2966801346330854,2.00768546406481851,2.8873592686576024,282.307824417967538,25.0699703719360407,9.84374988380061389,69.9739528480713915,-0.0656514579377710239,113.630142441673499,384.58849052249775,15.2880000000000003,0,9.16621041836359929,0.0736800045456944969,-9.08025253970354642e-09,-0.00300478185978427827,-0.00736199594225398542,0.000199757230905219131
0.65,31.2221739887047249,131.010416154022465,10.3083726356188876,4.84114861539655728,-20.7180786586406143,40.8176937604755778,2.05073368496719333,2.87227648950115766,436.778144778747503,25.3464156425930618,9.97086742245918423,69.9721875624746446,-0.0777158770404423049,113.617302062854861,393.108869582056514,15.2880000000000003,0,9.19825934972521608,0.0744926495783587439,-1.19564847060309328e-08,-0.00315715325665452337,-0.00806868622314420303,0.000212196908616309876
0.66,31.2221736129017131,131.01041711067603,10.5248819908902309,4.84868580187422538,-20.5025223692631506,34.7887492242372716,2.09535711847503681,2.85664392017569391,383.512515171600171,25.6331320769527053,10.101620728631671,69.9703319995003596,-0.0908994897176946676,113.603270306440294,402.044438974027059,15.2880000000000003,0,9.23015846544008411,0.0753354879183724263,-1.50677617304976444e-08,-0.00331509384523254397,-0.00879120855142615128,0.00022532807641662873
0.67,31.2221732307150539,131.010418079654926,10.7442709151712332,4.84994843085348659,-20.268669464462274,24.0944512320745261,2.14312248253316051,2.84006070340552608,289.156244010342505,25.9467599464428815,10.2420903827055039,69.9683826875751578,-0.105226229714580413,113.588021660970156,411.934178520324281,15.2880000000000003,0,9.2619324384690298,0.0762574254529647527,-1.84096902235039413e-08,-0.0034786006404557931,-0.00952918353259706724,0.000239329571879901275
0.68,31.2221728422817293,131.010419060522935,10.966421041147095,4.8524883064816775,-20.0456468942948014,29.97352976010324,2.19090026762046142,2.82330115194967846,340.899992485846269,26.2525629347317135,10.3795292041424503,69.9663360729858681,-0.120719935270882109,113.571530713597099,421.692339396942486,15.2880000000000003,0,9.29359696912224464,0.0771563726032078595,-2.19777886938795025e-08,-0.00364769434643848981,-0.0102823503523205729,0.000253915692115352508
0.69,31.2221724476577513,131.01042005306752,11.1912775351415075,4.86028456007354315,-19.8478490278484756,36.8058848663104996,2.23681428180853148,2.80684062956047287,401.014072685363431,26.5310337116718742,10.5068353212488823,69.9641885100803194,-0.137404061945117006,113.553772458115773,430.676584745181799,15.2880000000000003,0,9.32507002936278795,0.0779749969763011141,-2.57673039727575272e-08,-0.00382243798249007295,-0.011050635905371366,0.000268896181415308525
0.7,31.2221720467019672,131.010421057618686,11.4189397648436124,4.86729322495025496,-19.6521142432572198,30.9404169217075484,2.28351242090040918,2.79001416364458565,349.270324209852845,26.8106722561343886,10.6344402959829285,69.9619363679080379,-0.155301784964693296,113.534722177249137,439.793524421334098,15.2880000000000003,0,9.35640829745922353,0.0787970600875901594,-2.97727588881349897e-08,-0.00400305635905042704,-0.0118346425082056957,0.00028456398191255126
0.71,31.2221716394471436,131.010422074030458,11.6493717128165652,4.87010261562751801,-19.4457831235354952,25.5037243542891723,2.33263989460253374,2.77239208716033581,301.331264063405797,27.1084151732405374,10.7685163685631995,69.9595758438390476,-0.174436817479200951,113.514354579329037,449.605970448044729,15.2880000000000003,0,9.38762780065784952,0.0796723391334514391,-3.39892074229967501e-08,-0.00418963085051459599,-0.0126343598448954673,0.000301127763199528307
0.72,31.2221712258786894,131.010423102286637,11.882574308363278,4.86797878718514454,-19.226332220055383,31.1303220707097488,2.38467966505584439,2.75383145623467751,350.79220534145287,27.4286782288800381,10.9106537864901814,69.9571029815106584,-0.194833333252409174,113.492643879484291,460.281846619048054,15.2880000000000003,0,9.41868909514738029,0.0806138126970971647,-3.84115806098260276e-08,-0.00438230156676677838,-0.013450021620553641,0.000318689918501250248
0.73,31.2221708059769085,131.010424142383613,12.1185522197432327,4.87594935741639013,-19.0484116371098189,39.2676556034011668,2.43237022659079161,2.73623135487406799,422.320318528233997,27.6961640935878002,11.0334447377488374,69.9545136825784653,-0.216516355151551515,113.469563381877805,469.292369861789666,15.2880000000000003,0,9.44958972241366801,0.0814001794073004603,-4.30348412868442336e-08,-0.00458122861955453844,-0.0142819351457131004,0.000336397634041954408
0.74,31.2221703796685723,131.010425194470855,12.3573532216028337,4.88001589113926659,-18.8607460907221132,24.7443406784571707,2.48243293689455902,2.71783476125487411,294.482813471059444,27.9807602399479123,11.1623361794015548,69.9518037510280806,-0.239509958679352458,113.445087400475387,478.975508231980996,15.2880000000000003,0,9.48037426418386531,0.0822368408884458918,-4.78535514514776255e-08,-0.00478657050014624167,-0.0151303842317708631,0.000355079299688118187
0.75,31.2221699472690339,131.010426257629888,12.5987215947518187,4.88142128366899897,-18.66789713962973,28.817311257708127,2.53436513311929401,2.69876120983336953,330.246885564414924,28.2767362049661095,11.2952362245209539,69.9489689937562247,-0.263838404510995717,113.419190037094367,489.150814340084992,15.2880000000000003,0,9.51101010068742347,0.0831069552266404526,-5.28642191867316588e-08,-0.00499814976039598957,-0.0159943167571405462,0.000374688068204973219
0.76,31.2221695086617537,131.010427332131371,12.8427394987297276,4.88609929597579029,-18.4907562748990522,30.9880215875937708,2.58511226477581157,2.67982249281018259,349.270324209861712,28.5533611395649203,11.4209964294993203,69.946005067115621,-0.289525703701265569,113.391845659547954,498.756444021456332,15.2880000000000003,0,9.54145652627055085,0.0839202028658283389,-5.80609425696740279e-08,-0.00521621151905263952,-0.016874369865625103,0.000394851301133727862
0.77,31.2221690637796634,131.010428418112298,13.0894509472889791,4.8912422992633342,-18.3191319007203752,29.003706103264026,2.63608284196211917,2.66064586298992856,331.76876669607077,28.8248942138164637,11.5447984655007634,69.9429074918096489,-0.316596092372020799,113.363028390611376,508.275525784571414,15.2880000000000003,0,9.57174969859701541,0.0847184922049378369,-6.34381111828836986e-08,-0.00544094446978621565,-0.0177709379266092309,0.000415769730196727271
0.78,31.2221686126681774,131.010429515401057,13.3388122729705625,4.89269260666057537,-18.1384885867866892,23.9002574264855809,2.68953181450262946,2.64061319144389373,286.873437812889904,29.1134999623684863,11.674667825716373,69.9396716316031188,-0.345073846250276095,113.332712307678889,518.492156764128481,15.2880000000000003,0,9.6019036386137735,0.0855669665367375515,-6.89909436676105809e-08,-0.00567241112372873779,-0.0186839184985893129,0.000437786707193594117
0.79,31.2221681553942325,131.010430623766524,13.5907629406265684,4.89187556765888676,-17.9538888903399894,33.781564665838161,2.7448003888769068,2.61989220592913252,373.620332315953419,29.4120983512336522,11.8080296628258079,69.936292839601677,-0.374983522503186617,113.300871172089998,529.169573954775387,15.2880000000000003,0,9.63191196318045151,0.0864448174415882453,-7.47148882978101222e-08,-0.00591066966477454738,-0.0196131984545882508,0.000460842625196235267
0.8,31.2221676917415252,131.010431743761387,13.845464819283265,4.8969576780918489,-17.7931420205049626,34.2221593415688119,2.79730222989001742,2.599749673378148,377.42502064505743,29.6761943767222327,11.9288018685090211,69.9327661731806955,-0.406350317096353608,113.267478067143102,538.702061486075763,15.2880000000000003,0,9.66178085981306189,0.087221270190196265,-8.06029663277116272e-08,-0.00615610677774575555,-0.0205599006214461609,0.000484276809481327519
0.81,31.2221672217912598,131.010432875118511,14.1028469926980886,4.8976023576856953,-17.6207054997825381,22.4403594428224409,2.85281479489943646,2.57857981495774391,273.937492693991885,29.9619913836284262,12.0573066652232868,69.9290866188547682,-0.439199200127952327,113.232506306562811,549.114407128732296,15.2880000000000003,0,9.69146552311065079,0.0880615115788708075,-8.66511048389785436e-08,-0.00640873576387671756,-0.0215237211237581244,0.000508992786331049205
0.82,31.2221667457031948,131.010434017352338,14.3627767077407853,4.89619579420143758,-17.4448669588534848,28.6872916534111297,2.91011404299331078,2.55671394765667159,328.725004432770049,30.2569329314053519,12.1889943878899523,69.9252490397141173,-0.473555093645011915,113.195929247516418,559.964446089192734,15.2880000000000003,0,9.72100099644349136,0.08892863727037148,-9.2855853793825981e-08,-0.006668509329392407,-0.0225041437188348188,0.000534824645088198395
0.83,31.2221662634496369,131.010435170498482,14.6252688990997797,4.90204117741826373,-17.2964846680704518,36.3251191751301903,2.96361925562180861,2.5357291005417002,395.68750322465047,30.5086104261693478,12.3049749899537755,69.9212481542105024,-0.509443045374879389,113.157720105629025,569.304418862140665,15.2880000000000003,0,9.75039496643284664,0.0896686121954258925,-9.92117827664170152e-08,-0.00693561451776969744,-0.0235015222518881253,0.00056085961875111071
0.84,31.22216577492296,131.010436334821094,14.8904028266636743,4.90598283839414062,-17.1447820498147401,22.6244788482573824,3.0187019572427527,2.51411028773365341,275.459374825645227,30.7680844427643301,12.4236669287061012,69.9170786145808023,-0.54688743827132047,113.117852796021452,579.014659963918916,15.2880000000000003,0,9.7796493080735285,0.0904315092178322733,-1.05712920258136642e-07,-0.00721028352080005982,-0.0245163558196644718,0.000588015184462829126
0.85,31.222165280382228,131.010437509562337,15.1579684316569363,4.90331847472963567,-16.9744621592518961,24.6237112870915418,3.07840415705040726,2.4909706145536723,292.960932339393764,31.0628367244623362,12.5549560338117452,69.9127349522606352,-0.58591248891363068,113.076301401636783,590.146329478402095,15.2880000000000003,0,9.80874017628975459,0.0912981011528375824,-1.123575207909179e-07,-0.0074923183381222511,-0.0255475926832150584,0.00061685333351563286
0.86,31.222164779657632,131.010438695160389,15.4280942697269783,4.90494503019830841,-16.8211155430343808,30.7037214766558542,3.13596293534029291,2.46824519929075592,346.226561946558718,31.3303451950567577,12.6763376073243563,69.9082114683276927,-0.626543245334875487,113.033039111484811,600.339025515576168,15.2880000000000003,0,9.83766141111486725,0.0920846272982494829,-1.19138358708882581e-07,-0.00778209830434999517,-0.026596257302847523,0.000646212279798635174
0.87,31.2221642727615318,131.010439891548259,15.7007657084643473,4.90841427461913238,-16.676465257418716,28.6246548635712408,3.19280759803389591,2.44552962966876741,327.964078366998024,31.5842357299624439,12.7927278654995522,69.9035023493048726,-0.668804443079299649,112.988039437264078,610.092362353851627,15.2880000000000003,0,9.86641889224058843,0.0928311356086090195,-1.26050816313100477e-07,-0.00807974104066601535,-0.0276624208989742076,0.00067634729188049698
0.88,31.2221637597175281,131.010441098629826,15.9759597477375443,4.908416453553194,-16.5234341295740066,24.8072245288044755,3.25241369173913109,2.42180767360645977,294.482813471041823,31.8557456131389962,12.9153500797001914,69.8986016557470151,-0.712720583742032177,112.941276129530706,620.610207937063251,15.2880000000000003,0,9.89502704507812503,0.0936294374284393494,-1.33090879125809057e-07,-0.00838531993216341115,-0.028745997704803166,0.000707942320938748158
0.89,31.222163240591037,131.010442316191757,16.2536202754787027,4.90502575344700809,-16.3624247068222779,27.1558688673485626,3.31486029264416571,2.39704015605337295,315.028134248086985,32.1450142160097556,13.0442423589158878,69.893503281794608,-0.758316265804647283,112.892722824872578,631.915530252999588,15.2880000000000003,0,9.92348339910993893,0.0944799428861163859,-1.40254732657258459e-07,-0.00869890280109499904,-0.0298468856621959266,0.000741066161379614285
0.9,31.2221627153049965,131.010443544421548,16.5338044345045745,4.90904547610908448,-16.2273710785966756,29.9400295845875277,3.37278692943929448,2.37340372103562158,339.378142354214447,32.3869547638200146,13.1560567826284789,69.888200888294449,-0.805616734369482446,112.842352460197731,641.446334521841095,15.2880000000000003,0,9.95179873485550281,0.0951913503344239409,-1.47536315907595362e-07,-0.00902075665169443236,-0.030965663527289515,0.000774248331773346268
0.91,31.2221621839164705,131.01044478313483,16.8164639724234313,4.90964521852503299,-16.0840440019102822,22.9027839593407307,3.4335310426699519,2.34872443749605742,277.742181023078899,32.6466250643997071,13.2741368621859426,69.8826881043618471,-0.85464604344160644,112.790139228777434,651.755780865359498,15.2880000000000003,0,9.97996447293451361,0.0959548762038458236,-1.54932300952142804e-07,-0.00935092098024501231,-0.0321021189990962144,0.000808999187375637275
0.92,31.2221616466003553,131.010446031811853,17.1014562113252815,4.90692387220943971,-15.9328954228779374,27.1649957475690016,3.49714959636407352,2.32296821050015367,315.028134248062145,32.9239976343445235,13.3984646682238573,69.8769583852836149,-0.905428291532974772,112.736057263973976,662.859592584211214,15.2880000000000003,0,10.0079670939213887,0.0967704401218706239,-1.62441578681761755e-07,-0.00968926563974536158,-0.0332554810972366874,0.000845370219158165051
0.93,31.2221611032684692,131.010447290680247,17.3888490864506338,4.91097017109211276,-15.8048822175468704,32.2119722548140075,3.55637078207023061,2.29832609169337143,359.162507065472823,33.1565854479975997,13.5066645909453236,69.8710050138949441,-0.957987566642285127,112.680080697801401,672.239509459240026,15.2880000000000003,0,10.0358209844575974,0.0974543798389584798,-1.70057323774220042e-07,-0.0100361040527831968,-0.0344264662568331825,0.000881792676468888558
0.94,31.2221605538175773,131.010448560018688,17.6787242897508783,4.90832773359713315,-15.6587126045062295,23.5159488574333864,3.62096092091246069,2.27184114208877252,283.068750483778672,33.427880967422162,13.6286264062051004,69.8648211733648452,-1.01234728869973312,112.622184360304118,683.266358438099473,15.2880000000000003,0,10.0635256996530327,0.098252097437341826,-1.77773983642193678e-07,-0.01039167891407064,-0.0356155325723417765,0.000920479261805432348
0.95,31.2221599985009171,131.010449839083208,17.9708762372531972,4.90630913020111414,-15.5167251402692603,30.3046313652750392,3.68562403393686777,2.24510882143893076,342.421873617487279,33.6925984719015474,13.7481423149822124,69.8583997695671997,-1.06853166803315136,112.562342225026399,694.111390006064767,15.2880000000000003,0,10.0910699366733851,0.0990304884631779542,-1.85591986272437044e-07,-0.0107557802433552018,-0.0368216573620942025,0.000960248600776248979
0.96,31.2221594370520599,131.01045112862235,18.2655185909942084,4.90754851826562533,-15.386659828523694,29.6979731182533691,3.74829126242673905,2.21876777267154734,337.095335156783449,33.9335646398927722,13.8590772415233854,69.8517335687514276,-1.12656450060904989,112.500528692775688,704.055403368699785,15.2880000000000003,0,10.1184604111613865,0.0997390764182734119,-1.93501160552422082e-07,-0.0111289839635496969,-0.0380463728069445895,0.00100064485530126251
0.97,31.2221588694850958,131.010452428583449,18.5626397017889033,4.90678783796480467,-15.2526907193309391,19.1652262212111779,3.81294984626647171,2.19159049115689708,245.021887192993233,34.1841941835733607,13.9733761559418088,69.8448150994168202,-1.18646993106776732,112.436717777010131,714.473571955791272,15.2880000000000003,0,10.1457080567268036,0.100476075023949091,-2.01497952694567738e-07,-0.0115114126585769052,-0.0392897180530079465,0.00104264518725880615
0.98,31.2221582960521253,131.010453738227142,18.8620352425460922,4.89967583829719633,-15.1020955161291983,27.6993433314615416,3.88318628361810347,2.16244349933415947,319.593746642958081,34.4732969927118305,14.1013212607729201,69.8376367407001482,-1.24827167775648928,112.370883928646464,726.588682745317215,15.2880000000000003,0,10.172798304277455,0.101326164302613583,-2.09584922234743126e-07,-0.0119027682710778192,-0.0405504006827449026,0.00108717857396576907
0.99,31.2221577166179216,131.010455057931182,19.1638143829706564,4.90265872181471618,-14.983152102720787,30.2268152959304111,3.94577851111546307,2.13545409092871452,341.660948551705417,34.6934399027323366,14.204562825809333,69.8301906164390118,-1.31199384626895599,112.303001169660078,735.876824121187269,15.2880000000000003,0,10.1997515004360046,0.101973569948082016,-2.17753361308762531e-07,-0.012303502676466847,-0.0418295146260442494,0.00113092454151162802
1,31.2221571311803956,131.010456387699378,19.4679806624188991,4.89945919231454408,-14.8480728127770973,27.091592531471516,4.01387211614011008,2.10650596073717944,314.26720818227642,34.9510577097823756,14.3210894586428754,69.8224688507031601,-1.37765885617516615,112.233045300252869,746.824159227942687,15.2880000000000003,0,10.2265594741265371,0.102731132184125135,-2.26000583405913577e-07,-0.0127137003058109162,-0.0431269711304824097,0.00117727278141076209
1.01,31.2221565398957139,131.010457727069564,19.7744075951406018,4.89704464832873043,-14.7171779694433873,28.3123497992684925,4.08179068514344312,2.07737332706890454,324.920316103697928,35.2004779253610423,14.4346065098394813,69.8144632397890064,-1.44529000341633007,112.160991168364646,757.498977040960881,15.2880000000000003,0,10.2532183860660577,0.103464607117484633,-2.34326211764359065e-07,-0.0131332742849219353,-0.0444421589020665558,0.00122476735772105425
1.02,31.2221559426960837,131.010459076237566,20.0831524755578457,4.89596839949892182,-14.5919394119539625,23.6922405637340958,4.14900705681916993,2.04822533386714856,284.590631615404163,35.4377256436743622,14.5437005483113353,69.8061654734117951,-1.51490967964508849,112.086814566476008,767.721556658249938,15.2880000000000003,0,10.2797346413983615,0.104162311158319754,-2.42724445651910302e-07,-0.0135624984966349667,-0.0457755798896380545,0.00127328227875456255
1.03,31.2221553396412261,131.010460435029984,20.3941691064783264,4.89060799118361889,-14.4563208748189727,19.4182134846182279,4.22040868538029734,2.01749268222896072,247.30469339049705,35.7008832562881651,14.6619406065894147,69.7975670885387132,-1.58653970706905856,112.010491873668798,779.142690315406185,15.2880000000000003,0,10.3061034027072083,0.104936180118710837,-2.51193572159228855e-07,-0.014001398171716849,-0.0471269644896203724,0.00132420902650375949
1.04,31.2221547307838065,131.010461803290298,20.7074163081967519,4.88892795868830277,-14.3328746521353274,30.6683464680364075,4.28904451085179872,1.98739985922975482,345.465636880722968,35.935832340022337,14.7700508881050414,69.7886593037905953,-1.66020254609738593,111.931998768220126,789.407828788791221,15.2880000000000003,0,10.3323283333729705,0.105627143097390963,-2.59730633454913315e-07,-0.0144500701286024436,-0.0484962669193766266,0.0013755955857631774
1.05,31.2221541158805103,131.010463181746076,21.0230987880678803,4.88375115941054005,-14.2013574919889685,18.6280650201169777,4.36127560868678277,1.95589331141845468,240.456258798199826,36.1915831051489292,14.8854786810989452,69.7794332058924169,-1.73591984296139334,111.851311774708364,800.659766220901815,15.2880000000000003,0,10.3584236796394773,0.10637925703418652,-2.68324817459267365e-07,-0.0149091367486135287,-0.0498849992830452046,0.00142935472279650134
1.06,31.2221534951358848,131.010464569795403,21.3410509880960362,4.8755807253487502,-14.0633033126422866,26.3923201384507635,4.4368273671163081,1.92304140208724617,308.179683655939243,36.4652852083545866,15.0072054923585885,69.7698795067018267,-1.81371417335450658,111.768406403873414,812.790859037250016,15.2880000000000003,0,10.3843783905749643,0.107184144294954861,-2.769794233934439e-07,-0.0153783570588718575,-0.0512920848358080772,0.00148544383019732617
1.07,31.2221528684519924,131.010465967734802,21.6613575767337956,4.87364970718835711,-13.9441866932625675,31.0177027313798064,4.50704083348595397,1.89167265801814732,348.509368144030759,36.6920184870217341,15.1121386747855446,69.7599886255960939,-1.89360835486113799,111.683257885295674,822.9044814406368,15.2880000000000003,0,10.4102071807241625,0.107850982006559126,-2.85686479432704503e-07,-0.0158581677976436554,-0.0527184594085991637,0.00154126718027876525
1.08,31.2221522357471102,131.010467375824618,21.9840922896974398,4.87014668473825019,-13.8223094113771161,20.97556291995528,4.57915001676964462,1.85942337265652791,261.001578574662346,36.9262854658376511,15.2196673991831428,69.7497508822021359,-1.97562400823072903,111.595842699282542,833.420162847163851,15.2880000000000003,0,10.4359116010213508,0.108539971836690466,-2.94440736861849729e-07,-0.0163488726785466949,-0.054164636680757855,0.00159905458856421075
1.09,31.2221515972580299,131.010468793367096,22.3090629673034755,4.85952699059067239,-13.6827063072887185,19.3124040570379201,4.65866651468635951,1.82444985143897287,246.543753324744074,37.2083172410181717,15.3440891623937965,69.7391563519120581,-2.05978256247773439,111.506137504327626,846.173188434666713,15.2880000000000003,0,10.4614765636992928,0.109369368310301363,-3.03248275692160393e-07,-0.0168501092803753395,-0.0556291974455339205,0.0016606153603430456
1.1,31.222150953051635,131.010470220171044,22.6362184001120106,4.85227413784341621,-13.5538757729335142,38.4416852408497789,4.73544406279216901,1.79009965269680427,413.189061738584087,37.4632546299385609,15.458798242106699,69.7281948627885271,-2.14610522398116377,111.414119169774551,857.781277215403748,15.2880000000000003,0,10.4868993186590096,0.110119132605202119,-3.12106676234790776e-07,-0.0173619660415044313,-0.0571120468622236463,0.00172272937436562822
1.11,31.2221503027954022,131.010471657265299,22.9658446977742763,4.85196865625469975,-13.4451350389750761,28.217418351032677,4.80559952133359669,1.75769059960095375,324.159391037639693,37.663915541317607,15.5541455163570639,69.7168559510789692,-2.23461323284768687,111.319764501804457,866.967342787798998,15.2880000000000003,0,10.5121979393209966,0.110709365176126409,-3.20999198098048118e-07,-0.0178854070939099552,-0.0586155666120004512,0.00178411645599209812
1.12,31.2221496465499833,131.01047310449718,23.2978999613529183,4.83810127754891095,-13.3017866871739656,10.819774308714285,4.89014390839480928,1.72016361552224084,172.73281794065943,37.9606630504730163,15.6835266440733054,69.7051290378696251,-2.32532660453816931,111.223051582625004,880.654444746561239,15.2880000000000003,0,10.5373724610525432,0.111582043326386937,-3.29927449981891552e-07,-0.0184204122445201512,-0.0601392984462313235,0.00185190278657439405
1.13,31.2221489848098379,131.010474560360876,23.6319701949466427,4.83129303938691734,-13.1786929016686969,33.1958512587176315,4.96788758300905542,1.68463023461753902,367.532807790070478,38.2023305824764705,15.7932750036984686,69.6930029306136305,-2.41826743826602408,111.12395624197535,891.874471599870844,15.2880000000000003,0,10.5624060862816247,0.112292827197707154,-3.38906520859221948e-07,-0.0189660714274166899,-0.0616803285682768279,0.0019188381945373699
1.14,31.222148317034371,131.010476026554386,23.9685242124905429,4.829381036857189,-13.0698109987009641,18.5012817036526762,5.04075950525421845,1.65046826616136766,239.695317731955441,38.4034537155945728,15.8885523286209178,69.6804666477280392,-2.51345433446266053,111.022458010348345,901.26092704340715,15.2880000000000003,0,10.5873319961391985,0.1128844419868478,-3.47909818677728344e-07,-0.019523888910300654,-0.0632424733509108911,0.00198560878582314205
1.15,31.2221476436343615,131.0104775018429,24.307221851268249,4.81373185301207229,-12.9265446027003321,18.2323274732124609,5.12897419775023256,1.61076927029870332,237.412511535467729,38.7048541932100321,16.0193298677188416,69.6675089825354945,-2.61090532143028753,110.918536994830276,915.433326548608534,15.2880000000000003,0,10.6121198415888287,0.113770823842780991,-3.56954896998764503e-07,-0.0200929385128074713,-0.0648227785297929848,0.00205945276918748305
1.16,31.2221469647271554,131.010478985877796,24.6479687431040944,4.81263976832798246,-12.8223568453089172,47.2768475491415074,5.20156350445377225,1.57612235559056657,490.043774384589426,38.8921298070202681,16.1095519550616899,69.6541181095183077,-2.71064033939176774,110.812171230690737,924.283256619168128,15.2880000000000003,0,10.6367801268351734,0.114321749978120835,-3.66039406598338545e-07,-0.0206732548788765638,-0.0664209907803316041,0.00212911596412712709
1.17,31.222146279614563,131.010480480898394,24.9913791610523752,4.80420710838750775,-12.7005567991013901,8.59195126031856127,5.28266155008250582,1.53825030391182582,153.709379294867944,39.1314203367687625,16.2181346673193936,69.6402823859148015,-2.81267601486371754,110.703342253840304,935.66100466958369,15.2880000000000003,0,10.6613453535348146,0.115025580015372914,-3.75130111154163044e-07,-0.0212668087740527437,-0.068042062375211973,0.00220364860195589691
1.18,31.2221455892405224,131.010481983968788,25.3366478109025479,4.78606859062202972,-12.5554460667644392,23.1143778045945929,5.37545227248210011,1.49599454908172191,280.025018221967457,39.4431476060445831,16.3523274554256091,69.6259896461637027,-2.91703014979240116,110.592030308171246,950.596109850992548,15.2880000000000003,0,10.6857624632664887,0.115942344285060686,-3.84270563411148009e-07,-0.0218711887006701501,-0.0696790906133890331,0.00228425168243252819
1.19,31.2221448931928904,131.010483496420477,25.6841404641534474,4.78855296335702629,-12.463870919901062,40.1841493538836545,5.44455004681767196,1.46167382774172716,428.407813052929214,39.5898388663647438,16.4279432050592575,69.6112273252723242,-3.02372083381318379,110.478215295562379,957.647931203081043,15.2880000000000003,0,10.7100742083499103,0.11637399668052105,-3.93430777335133306e-07,-0.0224879467680897845,-0.0713358809408470573,0.00235732272667219011
1.2,31.2221441911313065,131.010485019408918,26.0341710784863061,4.77399029988543955,-12.3305795962382074,4.35720996240526404,5.5340989720250624,1.41988730656138351,117.184374136023607,39.8664604862824632,16.5495273179902611,69.5959831666954187,-3.13276205776771555,110.361881451979229,971.044564772856234,15.2880000000000003,0,10.7342834534565945,0.11718758651119994,-4.02596429435916859e-07,-0.0231180709894465673,-0.0730146226760986505,0.00244022669518085839
1.21,31.222143483986823,131.010486549981437,26.3859337901010917,4.76006297663882361,-12.2002233253460446,32.2939413860525804,5.62341734640288493,1.37782942248813223,359.923432132008998,40.1352634161995852,16.668277114938796,69.5802440250689926,-3.24417102571612137,110.243009543719083,984.150153327026942,15.2880000000000003,0,10.75832638483819,0.117978201922898512,-4.11810954475518102e-07,-0.0237591005344528969,-0.0747084532509875165,0.00252471488182220809
1.22,31.222142771072928,131.010488090401708,26.7400454042925197,4.76029598406684773,-12.1060972351920491,23.4377490690513177,5.69549577427583653,1.34154180486766572,283.068750482576149,40.286079180277774,16.7451503525122334,69.5639968717662214,-3.35796196157620441,110.121583478331246,991.526578095376294,15.2880000000000003,0,10.7822511677156534,0.118422000352565324,-4.21029473139194988e-07,-0.0244134314370120994,-0.076423265201464502,0.00260390587909752232
1.23,31.2221420526858964,131.010489639781099,27.0962618014132346,4.74453816994472,-11.9736893445601762,9.22938649987048798,5.78777659825606339,1.29774892506943917,159.796873822227951,40.5620044879086663,16.8662765353540927,69.5472288034490163,-3.47414613922494153,109.997590268112376,1005.12092107174612,15.2880000000000003,0,10.8060517232000226,0.119233569461303257,-4.3027056530237529e-07,-0.025080186248927952,-0.0781563562390065192,0.0026932505624344444
1.24,31.2221413292196388,131.010491196871897,27.4542439818046518,4.73403447214383011,-11.8553728153422426,39.0282858890783828,5.87374156589643626,1.25585405172663322,418.515630199805003,40.7917850075409589,16.9709966606184679,69.5299261741381827,-3.59273696192266723,109.871014609904151,1016.5060797345302,15.2880000000000003,0,10.8297196383701202,0.11990950256554854,-4.39549609462315294e-07,-0.025758396597981674,-0.0799048771099755001,0.00278165454735944829
1.25,31.2221406000535779,131.010492763785265,27.81456308729814,4.73154734382820052,-11.7575422674349284,18.9407749021388661,5.9493770186437569,1.21733511970348451,244.260946125734876,40.9509087290040767,17.0506183018373711,69.5120754115371113,-3.71374513245086568,109.741844040115339,1024.41661843193037,15.2880000000000003,0,10.8532948505511371,0.120377744259134306,-4.48823629205554462e-07,-0.026450368436047117,-0.081674319059668668,0.00286742386490058954
1.26,31.2221398656288613,131.010494339139655,28.1768423267760433,4.71237196640045575,-11.6205849998033894,11.2106214047069841,6.04724541014837058,1.17044560681423837,177.298446336408631,41.244409727936258,17.177767421443253,69.4936628789877204,-3.8371794965006667,109.610068030617981,1039.11735661900411,15.2880000000000003,0,10.8767441544816936,0.121241004419669965,-4.58121118718219202e-07,-0.0271546826158070818,-0.0834606623081513843,0.00296477223986465555
1.27,31.2221391260951791,131.010495922479862,28.5409585503044632,4.70639401832884996,-11.5163571816371366,37.5207774291896499,6.12763840124923043,1.12952148304815148,405.579686079964688,41.4237424458655141,17.2644271028466072,69.4746739757811866,-3.96305204115439302,109.475672653255089,1048.13660529778394,15.2880000000000003,0,10.9000789052176206,0.121768666655765467,-4.67440486467895572e-07,-0.0278712523450778647,-0.0852633280328891491,0.00305613220306370434
1.28,31.2221383809753377,131.010497515502749,28.9073666193078331,4.69713445160925591,-11.405223876963646,12.2394427866252578,6.21249669102345337,1.08661815935725814,186.429688124688823,41.6258728841873662,17.3590931619575528,69.4550946746542479,-4.0913692554398029,109.338649802883936,1058.35323959420703,15.2880000000000003,0,10.9232696918137417,0.122363352538156264,-4.76750142854930699e-07,-0.0286018552823404035,-0.0870863265262541431,0.00315143673230816471
1.29,31.2221376309028287,131.010499116137765,29.275506528120733,4.67942990451166274,-11.2752412759769225,20.0384456711397618,6.30929959380139405,1.03896349238166064,254.153128984572163,41.8960551318114724,17.4778040427241059,69.4349104109123658,-4.22213833067089439,109.198990573841158,1072.0988788940947,15.2880000000000003,0,10.9463199709206975,0.123158091570544734,-4.86088875794343133e-07,-0.0293443997817520418,-0.0889240775802919159,0.00325412355264593708
