Time,Latitude,Longitude,Altitude,Angle of Attack,Angle of Sideslip,X-Acceleration,Y-Acceleration,Z-Acceleration,Thrust,True Velocity,Ground Velocity,Pitch,Roll,Yaw,Dynamic Pressure,cp,cg,parachute_deploy_gain,Wind Speed,Wind Direction,Mach,omega_x,omega_y,omega_z,Cmq,Angle of Attack(total),Angle of Attack(gust),True Velocity(gust),Acceleration
0.0,31.222216000000007,131.010392,3.000000004412624,0.0,0.0,0.0,0.0,0.0,2.2828121974499247,0.0,0.0,69.99999999623412,0.0,119.9999999935444,0.0,1.274,1.0271675151847728,0,0.0,0.0,0.0,0.0,0.0,0.0,-0.0,0.0,90.0,0.0,0.0
0.01,31.22221599999084,131.01039200000497,3.000002745347096,0.0,0.0,0.0,0.0,0.0,34.242186961749226,3.465174813755316e-14,2.8705476994166025e-14,69.9999999962611,-2.1713911667908447e-11,119.99999999352175,7.352495975525499e-28,1.274,1.0271659134330349,0,0.0,0.0,1.0183245502395064e-16,-3.3305335486039093e-18,7.169286865560398e-18,5.624298769768554e-18,-7.715917190115602e-34,0.0,89.99999999999979,3.465174813755316e-14,0.0
0.02,31.222215999994315,131.0103920000094,3.0000030495639742,0.0,0.0,0.0,0.0,0.0,25.871876237766216,3.8197434737535036e-11,2.4171837235633357e-11,69.99999999628672,-1.1921727947863515e-11,119.99999999353136,8.93414285188691e-22,1.274,1.027164492361118,0,0.0,0.0,1.1225230367947217e-13,-6.657678965418802e-18,1.4338573731120796e-17,1.1241821275959074e-17,-1.7010872994127372e-30,0.0,89.99999999975682,3.8197434737535036e-11,0.0
0.03,31.222215999994315,131.0103920000094,3.0000030495639742,0.0,0.0,9.81877837424427,-2.5122800045972096e-05,3.3498614629347925,180.34219359854663,1.2659015405517447e-10,1.1364406173918436e-10,69.99999999631459,-1.6431898037347223e-11,119.99999999352724,9.812605835254651e-21,1.274,1.0271551940870716,0,0.0,0.0,3.720154642239108e-13,-9.991600645811728e-18,2.150108433310316e-17,1.6859343782149594e-17,-8.453698244545225e-30,0.0,89.99999999919412,1.2659015405517447e-10,10.374487003414373
0.04,31.222215999994315,131.0103920000094,3.0000030495639742,18.83801224594347,-0.0001111777826462,48.68248476615645,-1.016330065874988e-05,3.3497854396877287,548.635972453808,0.1556173050466994,0.0975908358443652,69.99999999633813,-2.0932768807056278e-11,119.99999999352085,0.0148286043323172,1.274,1.027133720825283,0,0.0,0.0,0.0004573186944143,-1.3322134194415637e-17,-1.04744143520903e-11,1.336824254131964e-11,5.0626055458604615e-15,18.83801224625964,89.06236267790787,0.1555998412814392,48.79759610369246
0.05,31.22221599164764,131.01039201704114,3.002326315126219,5.772385609593056,-4.395076213712875e-06,71.20344550265034,4.905512691849684e-05,3.349217396035405,761.6984298824663,0.8326471944351852,0.3620326097059287,70.00000001316391,-1.0866255162484559e-10,120.00000000231074,0.4245281043148827,1.274,1.027093426565204,0,0.0,0.0,0.0024469331205246,-5.0245994431125096e-18,-7.32924164976824e-07,2.217344936947165e-11,1.895424184525467e-09,5.772385609594774,84.74112356985832,0.8326465040582279,71.28217104309611
0.06,31.22221596664444,131.01039206837547,3.015081730143309,4.056581213689704,3.169093567502233e-05,53.16249142470188,0.0001203825427859,3.3481235983850643,590.4875390737236,1.657216205300742,0.6755452977614796,69.99999964391398,-3.9285905645317736e-10,120.0000000287861,1.6816755551786196,1.274,1.027050317124926,0,0.0,0.0,0.0048701272653724,3.095757869075056e-13,-7.483541766772344e-06,3.074135420506017e-11,3.8518749565858254e-08,4.056581213813337,79.59316473687034,1.657221183301277,53.26781792157489
0.07,31.22221592883117,131.0103921460222,3.034593611434361,4.115662018628709,6.450869598349036e-05,81.18203554989698,0.0001593212642178,3.347059402768047,855.2937749779172,2.099899704220947,0.8579771146174259,69.99999543281565,-8.233801910783518e-10,120.00000006883089,2.700101932075157,1.274,1.027003201295312,0,0.0,0.0,0.006171060252819,3.4704292086287e-12,-2.6327204536316785e-05,1.9541142932033486e-10,1.7170712165327165e-07,4.115662019133419,76.90111966094352,2.099909837223217,81.2510043180746
0.08,31.22221588914193,131.01039222747755,3.0542761843835606,3.459696193892355,8.037433511260004e-05,16.298214211652088,0.0002413456836072,3.344878926597744,241.2171988638792,3.051964775152957,1.2149999716613011,69.99998042886442,-1.0128995578004475e-09,120.00000011111383,5.703497661025892,1.274,1.0269597189470347,0,0.0,0.0,0.0089689344021769,1.458982438104473e-11,-5.702803872814215e-05,7.043261397829576e-10,5.405702492731987e-07,3.459696194824858,71.30331929508368,3.051977400323993,16.63790856991177
0.09,31.2222158241468,131.01039236098703,3.0886872184095737,4.313676956300389,0.0001337561018991,50.35975918308536,0.0002293282821279,3.344215841840564,563.0937377043203,2.893161298572128,1.191209213966114,69.99994788602814,-7.098432023887522e-10,120.00000018106356,5.125380275808925,1.274,1.026918932011013,0,0.0,0.0,0.0085022553945842,3.8672912027154325e-11,-0.0001115933708951,2.016054215232918e-09,1.0027525988343615e-06,4.313676958370176,72.2316578138625,2.893182308931483,50.47067588835877
0.1,31.2222157788302,131.01039245392113,3.109877853389092,4.035124630954496,0.0001457499816535,47.804664812504015,0.0002878217657545,3.341734392237128,538.7437595981891,3.5677148583138303,1.4531247507621967,69.99988403958329,1.9248461973355822e-09,120.0000002323013,7.7939962029572305,1.274,1.0268846934974103,0,0.0,0.0,0.0104845969583028,8.579678749070606e-11,-0.0001726817043215,3.984565639703107e-09,1.913455350430327e-06,4.0351246335824245,68.43243098813296,3.567737752667411,47.92132267234452
0.11,31.222215703308,131.01039260899836,3.148841432727305,4.043401107254707,0.0001752764476999,37.67622367577205,0.0003286462930162,3.3392563999062723,442.86563930529127,4.034183355956686,1.6436552022667772,69.99978525353545,7.302513231814865e-09,120.00000031883242,9.96528118825134,1.274,1.026848594915519,0,0.0,0.0,0.0118554331868328,1.5870341853361987e-10,-0.0002596204409236,7.232030302688121e-09,3.252930323390323e-06,4.04340111104746,65.92012987243639,4.034210888316708,37.82391391539392
0.12,31.222215627491828,131.01039276462643,3.186995101203875,4.17874459224363,0.0002066711490009,41.15991989399172,0.0003576945202315,3.336766085769504,475.58594813540793,4.361857560629481,1.7865750500940407,69.99963665601238,1.781774420198147e-08,120.00000041104812,11.649831899889556,1.274,1.0268114448194128,0,0.0,0.0,0.0128183893919737,2.682972478760441e-10,-0.0003710216542429,1.2215991071490164e-08,5.026311388647148e-06,4.178744597345269,64.21681651392016,4.361890024457652,41.29495143136631
0.13,31.22221554594398,131.01039293200228,3.2277173449026786,4.202734874672792,0.0002327160860324,45.44886120763352,0.0003953741266062,3.333578629398489,515.9156326236897,4.792165672014363,1.9646716520715424,69.99942424225341,3.613383418913551e-08,120.00000051758742,14.061726603124043,1.274,1.026779572895131,0,0.0,0.0,0.0140829618979635,4.248908088871395e-10,-0.0005056103199642,1.908859219307828e-08,7.5253154423526356e-06,4.202734881104192,62.048594618540655,4.792202226971676,45.570952718869485
0.14,31.222215454191247,131.01039312033683,3.2737880595608355,4.184830647080848,0.000257138757548,42.32232525579263,0.0004369426767266,3.329727443445437,486.2390860568421,5.269261304374574,2.158791628597544,69.99913473613935,6.515851355725497e-08,120.00000064630268,17.000925061330125,1.274,1.0267449573927567,0,0.0,0.0,0.0154850332441425,6.382432869666793e-10,-0.0006690086306358,2.8426433029675884e-08,1.0948547100483978e-05,4.184830654966803,59.74181173116622,5.269301695636157,42.45310707234106
0.15,31.222215353826755,131.0103933263496,3.3242182719560263,4.21963947489699,0.0002846467688673,40.886944113003565,0.0004726792395108,3.325585650885676,472.5421858721398,5.6781946837482895,2.329510773545807,69.99875162806286,1.0876776246115984e-07,120.00000079954532,19.742017654108928,1.274,1.0267115958081523,0,0.0,0.0,0.0166867950518804,9.204756288136623e-10,-0.000865746478554,4.08948221429571e-08,1.526771148078443e-05,4.219639484480408,57.84996018384879,5.678239395958187,41.02196629910223
0.16,31.222215247130432,131.01039354534575,3.3775922280208457,4.253495568077899,0.0003118339050386,32.26872905470846,0.0005078415214353,3.32090791922544,391.1218908297597,6.081244877834229,2.4981889727471702,69.99825581174558,1.7187028096464329e-07,120.0000009800088,22.644030778355887,1.274,1.026675762255412,0,0.0,0.0,0.0178712695992133,1.2856146928958252e-09,-0.0010961187242953,5.6923362293832417e-08,2.0702404729358337e-05,4.253495579487569,56.06022383757386,6.081293860589489,32.43916312841722
0.17,31.22221513260033,131.01039378041813,3.4348437275053194,4.364838523348639,0.0003448792023946,40.840448242802736,0.0005326487904353,3.3162727284953744,471.78125980632416,6.362544479165355,2.6250789114832647,69.99762801982864,2.5997588617291615e-07,120.00000119506798,24.78723182122683,1.274,1.0266409836796937,0,0.0,0.0,0.0186979513961862,1.747791994374917e-09,-0.0013624931601664,7.706724512977917e-08,2.6923621797558364e-05,4.364838536947241,54.85936171416122,6.362598652663785,40.97486885600156
0.18,31.222215014088988,131.01039402363364,3.4935801365785646,4.353948305387995,0.0003681615230806,33.992183768165326,0.0005718025428208,3.310131992647221,407.1015672119096,6.81502088160835,2.810667639293692,69.99684761766231,3.794979223522764e-07,120.00000144728236,28.437950785509614,1.274,1.0266048342046536,0,0.0,0.0,0.020027681385988,2.3221419748804155e-09,-0.0016616990447559,1.0147209890543081e-07,3.517105786247627e-05,4.353948320923495,52.99157233768714,6.815078712285162,34.152972512863755
0.19,31.22221488419521,131.01039429023237,3.558399965607869,4.432620772533925,0.0003996774584738,38.45149959021069,0.0005986099513107,3.304145139297767,448.95313283182486,7.1223367465208405,2.946425726785696,69.99589577323147,5.440084577183829e-07,120.00000176148238,31.060341085698347,1.274,1.026566130444714,0,0.0,0.0,0.0209308229359413,3.022391489754689e-09,-0.0020041563310821,1.3135864879722746e-07,4.433199397898183e-05,4.432620790516937,51.77883352025967,7.122399527709208,38.59320142454953
0.2,31.222214751373183,131.01039456280608,3.624052454705669,4.443889400961181,0.0004246617145652,35.23432408779927,0.0006337972852267,3.2968110145188256,418.5156301991588,7.530482904611057,3.1167566004785483,69.99474776398331,7.478025600151903e-07,120.00000211715036,34.72195181863731,1.274,1.026529240027363,0,0.0,0.0,0.0221302820454282,3.866698391504749e-09,-0.0023849544920781,1.668144671071589e-07,5.57780533277244e-05,4.443889421210987,50.22448880200342,7.530549610317194,35.38822625098952
0.21,31.222214608673173,131.01039485566503,3.6948551453492566,4.493351735844891,0.0004538195602194,33.79371564104691,0.0006629296043866,3.2891790438445727,404.8187610144608,7.868284042829251,3.2629204975089228,69.99338155599101,1.0150082652278477e-06,120.00000255293388,37.906665490338085,1.274,1.0264923657015164,0,0.0,0.0,0.0231230169900677,4.871073773182836e-09,-0.0028117605859743,2.089322918608601e-07,6.870935089180403e-05,4.493351758715364,48.992529909481824,7.868355328639073,33.95340801819282
0.22,31.22221446109996,131.01039515850383,3.767700382407304,4.5412639153933885,0.000482649303782,41.008966751568416,0.0006914639179131,3.2808061382386606,472.5421858721387,8.20057841132235,3.4071691679735228,69.9917708347139,1.3454961520984431e-06,120.00000305929996,41.175744234065135,1.274,1.0264494137127138,0,0.0,0.0,0.0240995709751246,6.054779813287368e-09,-0.0032829112061357,2.580881224843564e-07,8.3609968899004e-05,4.54126394098788,47.82515604752711,8.2006542256977,41.13999323561041
0.23,31.22221430675399,131.0103954752338,3.843768625625224,4.52371495179584,0.0005047555656171,33.98493478127787,0.0007294889663961,3.2705214710765107,406.340642146096,8.647938096586296,3.5908865300848416,69.98989017772566,1.7539876018835507e-06,120.00000365514876,45.79040229326471,1.274,1.0264133390858623,0,0.0,0.0,0.0254142776666487,7.436335125872812e-09,-0.0038001790077148,3.1489825108822685e-07,0.0001020628978177,4.523714979897577,46.31461705147579,8.648017383405135,34.14194053232237
0.24,31.222214142622448,131.0103958120587,3.92493179063287,4.57837522350066,0.0005351929930195,35.051650311058864,0.0007555049947555,3.26053011385611,416.2328240017099,8.954297884844461,3.72617527247482,69.98771316795013,2.25257161141768e-06,120.0000043564586,49.09180568115741,1.274,1.0263750048312463,0,0.0,0.0,0.0263146218848643,9.034877387788232e-09,-0.0043732521010013,3.809642748985157e-07,0.00012161410144,4.578375254714954,45.32798984252032,8.954381952763216,35.20297212911011
0.25,31.22221397517227,131.0103961556623,4.0071748888306855,4.6034117733065,0.0005618935542827,36.03738579534623,0.000785606492708,3.249069743648399,425.3640807915084,9.311611941121669,3.8789349536029696,69.98520781816889,2.8559738498748624e-06,120.00000517181904,53.08749562138344,1.274,1.0263373768840591,0,0.0,0.0,0.0273647110956883,1.0873791100894836e-08,-0.0049950711786164,4.5609738277273444e-07,0.0001444478241125,4.603411807525074,44.2165428352526,9.311700203154778,36.183554686886296
0.26,31.22221379934012,131.01039651647062,4.09364247475714,4.621386912291471,0.0005881033207375,39.29107511182762,0.0008162761165496,3.236407051295005,455.80158342417656,9.67833954512075,4.034902068846398,69.98234620927953,3.5784678110229355e-06,120.00000612171208,57.350948423913096,1.274,1.0263006300381676,0,0.0,0.0,0.0284424679130479,1.2973286442992724e-08,-0.0056712051373577,5.414206381221602e-07,0.0001704578711045,4.621386949630312,43.12063533194282,9.678431924174348,39.42414126789902
0.27,31.222213616776543,131.01039689108487,4.183310605341074,4.617158109135719,0.0006115457810536,35.90419462403674,0.0008503454714941,3.221982799915672,423.8421996598744,10.088790784535757,4.205862468567124,69.97909721779352,4.436165972465058e-06,120.000007221354,62.31798301949865,1.274,1.026260090595354,0,0.0,0.0,0.0296487219805601,1.5355910600537293e-08,-0.0064045199323113,6.379142666348734e-07,0.0002006609239367,4.617158149547818,41.94410287616451,10.08888684592241,36.048472443180565
0.28,31.22221342607797,131.0103972823952,4.277051150896916,4.642105655370123,0.0006389739579882,41.51133203546672,0.0008785747638736,3.2071101123224945,476.3468732012228,10.432377224420517,4.35383399240675,69.97542808435722,5.446665372087172e-06,120.00000849080963,66.63429581008447,1.274,1.0262212716723291,0,0.0,0.0,0.0306584788590473,1.8045308789081613e-08,-0.0072006835403936,7.469524967369969e-07,0.0002332868227611,4.642105699250441,41.0023231023774,10.432477594215127,41.63503624837164
0.29,31.22221323001776,131.01039768469093,4.373143569786686,4.62134615173668,0.0006600657405645,33.17552944492765,0.0009148746278066,3.1894209319791806,397.9703104221098,10.876662296046485,4.536381530986506,69.9713027936179,6.629751536885327e-06,120.00000994797426,72.43000748232016,1.274,1.026183007522519,0,0.0,0.0,0.0319641703260467,2.1067646517035105e-08,-0.0080566154554079,8.688043379161898e-07,0.000272130659453,4.621346198772975,39.83162628795024,10.876765978930557,33.32848872465723
0.3,31.22221302403368,131.01039810736614,4.4744193758467325,4.664362353358112,0.0006905183788532,31.08096762732793,0.0009381960428197,3.172549142946348,378.1859457108735,11.168362145070317,4.66647911311536,69.96668711012893,8.005507138509574e-06,120.00001161892672,76.36634300732833,1.274,1.0261430389738484,0,0.0,0.0,0.0328214509167604,2.4447409007156216e-08,-0.0089829108229115,1.0056222251461646e-06,0.0003115527202986,4.664362404357781,39.09908960432563,11.168470611443622,31.242464973103964
0.31,31.22221281503337,131.01039853619727,4.576593712520673,4.700143580504286,0.0007196683316923,32.79732593144512,0.0009620705970519,3.154230688182399,394.1656220930229,11.470279728974068,4.800072153432283,69.96154070456518,9.597499105113692e-06,120.00001352112182,80.55022837857167,1.274,1.0261054058068628,0,0.0,0.0,0.0337087616009043,2.8214060606649844e-08,-0.0099686353219717,1.1565909895184251e-06,0.0003550834484269,4.700143635477137,38.36463422765983,11.47039277421126,32.94865339301887
0.32,31.222212598991007,131.01039897947376,4.68216432480395,4.718667719113184,0.0007464384342556,35.7316568886908,0.0009885845337584,3.133859770838664,421.5593934624264,11.808280530415894,4.946054328851105,69.95582953472353,1.14278227255889e-05,120.00001568218067,85.36654007972253,1.274,1.026068246703101,0,0.0,0.0,0.0347021168382987,3.2392058795580455e-08,-0.0110163301561155,1.3226102501723267e-06,0.0004039614423012,4.718667778018562,37.5686120062341,11.808397780690962,35.8688218659563
0.33,31.222212376029034,131.0103994369436,4.791055524254013,4.72141404831576,0.0007708346814671,35.42013590291081,0.0010176135371143,3.1111955852784385,418.5156301991632,12.181577273013426,5.104163223586657,69.94951809396906,1.351997394754887e-05,120.00001812674968,90.84831229869296,1.274,1.0260310883392356,0,0.0,0.0,0.0357992034445943,3.700677535501642e-08,-0.0121310534481307,1.5051409581878843e-06,0.0004588955105349,4.721414111097893,36.7208578211118,12.181698355442045,35.55651229220977
0.34,31.222212145785647,131.0103999093516,4.903491659547144,4.73024573449122,0.0007962944975467,27.63851074646407,0.0010446307681611,3.0871492806781062,345.4656368807584,12.53557620048282,5.2556261014174765,69.94256797855994,1.5899658158227497e-05,120.000020882338,96.20413272674828,1.274,1.0259901535019136,0,0.0,0.0,0.0368395817555172,4.208561016221623e-08,-0.0133180771902383,1.7057647550599631e-06,0.0005184333231541,4.730245801363397,35.94841996438923,12.535701282129995,27.810389570354005
0.35,31.222211909310875,131.01040039453565,5.018822212845608,4.780248518778662,0.0008286678570753,30.332092807652543,0.0010618579815451,3.063967690608957,370.5765700527057,12.774786382148209,5.367579971644358,69.93493776125636,1.8594985713558667e-05,120.00002397748868,99.9096898192772,1.274,1.025950003202184,0,0.0,0.0,0.0375426220587071,4.7658312175989686e-08,-0.0145774693288123,1.9252724355785177e-06,0.0005782798420984,4.780248590437683,35.44790728185619,12.774916548990808,30.486451961956565
0.36,31.22221166933814,131.0104008868675,5.135354490370708,4.798132156899578,0.0008554457330409,34.32674769697476,0.0010851169437774,3.0374319611165923,407.8625232777224,13.09301701329486,5.506730645516068,69.92658597246795,2.163521613217148e-05,120.0000274401514,104.94818266210537,1.274,1.0259105142325406,0,0.0,0.0,0.0384778908056978,5.3755109608570216e-08,-0.0158991451700967,2.162609490834569e-06,0.0006464142451675,4.798132232978766,34.796094028187134,13.09315138639638,34.46087058603792
0.37,31.222211421355144,131.01040139563804,5.255882891363927,4.797392186816851,0.0008791822061288,32.551601855236584,0.00111162791192,3.0078619428913056,391.1218908297639,13.457513730739372,5.661815946371007,69.91747693543164,2.5047738471809164e-05,120.0000313040604,110.87154396328836,1.274,1.025872170958032,0,0.0,0.0,0.0395491312153729,6.040098808671168e-08,-0.0172926678053148,2.420031948898497e-06,0.0007226353721561,4.797392267189059,34.07332166419882,13.457651832357364,32.69027405888565
0.38,31.22221116634284,131.01040191882743,5.379799334000849,4.811698494594017,0.0009057112478668,34.02947987649063,0.0011338447913587,2.9774881690446744,404.81876101445977,13.77554886562956,5.800899861213392,69.90756948297444,2.886339581486796e-05,120.00003560072224,116.17243393848278,1.274,1.02583050512925,0,0.0,0.0,0.0404838339452728,6.762496638941508e-08,-0.0187646375218858,2.69955777313946e-06,0.0008026686661094,4.8116985796350695,33.46655348088405,13.775691134419684,34.15949264475229
0.39,31.222210906095896,131.01040245274032,5.505993307722699,4.813508003664984,0.000929862892873,29.00025983045028,0.0011579891265804,2.9442136901860865,357.6406249338268,14.124492165837273,5.950648592462506,69.8968186645841,3.311602501056718e-05,120.00004036395212,122.13093644173792,1.274,1.02579027384009,0,0.0,0.0,0.0415093739609825,7.545934774906889e-08,-0.020311592409804,3.0013532510753577e-06,0.0008908380763632,4.813508093268025,32.821616487639595,14.124638228358922,29.149330452482886
0.4,31.222210638473225,131.0104030017851,5.635788650457906,4.841647069358873,0.0009592124397379,27.71178845184976,0.0011749448424961,2.91135549588368,345.4656368807565,14.390874239274588,6.07193451174791,69.8851815212744,3.783947407715338e-05,120.00004563180136,126.77947425345651,1.274,1.0257493418632293,0,0.0,0.0,0.0422922854866381,8.39343718693383e-08,-0.021938519432511,3.3271332720311508e-06,0.0009803271643914,4.841647164150728,32.348088166612904,14.391024912012275,27.864299944624147
0.41,31.22221036681104,131.01040355909262,5.767123077463226,4.86553909860892,0.0009876699832274,31.306062598221665,0.0011918093836199,2.876450850006428,378.9468707766882,14.663028799871563,6.195223154320929,69.87261222561014,4.307011032901644e-05,120.0000514391194,131.6183642808765,1.274,1.025708445186429,0,0.0,0.0,0.0430921644173401,9.308325447883581e-08,-0.0236371933433427,3.6760977501392174e-06,0.0010761942383903,4.865539198612839,31.87689439156756,14.663183942709727,31.437931330109585
0.42,31.22221008906472,131.01040412887247,5.901259531771367,4.867510642114694,0.0010118258958528,35.308283402190774,0.0012128114559048,2.8374461227958245,416.23282400171047,14.9952917972178,6.33928625560071,69.85906967380902,4.884273094936628e-05,120.00005782486392,137.64909586091787,1.274,1.0256701057426505,0,0.0,0.0,0.0440686959134695,1.0293499639582845e-07,-0.0254093547296826,4.049238334851429e-06,0.0011830797791891,4.867510747027452,31.315270489291198,14.995450734457847,35.422111438762386
0.43,31.222209804115888,131.01040471342728,6.038886819939341,4.854590670645608,0.0010330089741511,31.00586934514032,0.0012363751872706,2.794478603999558,375.90313951343126,15.369430568701889,6.497852263156962,69.8445117629242,5.519340856908871e-05,120.00006482835984,144.60167924299955,1.274,1.0256308158337524,0,0.0,0.0,0.0451682983415116,1.135186446762958e-07,-0.0272634397889413,4.449073329427772e-06,0.0013010625065656,4.854590780289497,30.70250814963406,15.369592833372094,31.13154422839874
0.44,31.22220951192321,131.01040531284193,6.180028459770617,4.866912332640401,0.0010595850174406,28.57707721036899,0.0012525768202179,2.752165534925872,353.07501253892326,15.659290812546615,6.627318538707029,69.82889155423543,6.216182865383864e-05,120.00007249162944,150.1053167542629,1.274,1.025586171750536,0,0.0,0.0,0.0460202245100907,1.2486676023179565e-07,-0.0292060158163984,4.8779154055816594e-06,0.001420032405556,4.866912447705031,30.24619499837236,15.659457251771938,28.709297424144207
0.45,31.222209215425703,131.01040592106523,6.322872201489905,4.881836476567178,0.0010866574689855,33.31904824532484,0.0012669045761511,2.7082028218433374,397.2093853562887,15.934249290371609,6.751662050993672,69.81215834018458,6.97909417564726e-05,120.00008085697964,155.42080512416243,1.274,1.0255397023523487,0,0.0,0.0,0.0468283602442113,1.3701614206272197e-07,-0.0312276295846745,5.334643585560923e-06,0.0015449645531859,4.8818365972149325,29.82567893138932,15.934419982127675,33.428929688274074
0.46,31.22220891307435,131.0104065412864,6.468371919199588,4.869610441729251,0.0011078049156487,38.95909776354321,0.0012868374716666,2.6582856015412624,449.7140588976424,16.292139278621757,6.904766425053949,69.79426683863348,7.812149592850748e-05,120.00008996920153,162.4785746623087,1.274,1.02549635315424,0,0.0,0.0,0.0478802236363867,1.499987870203256e-07,-0.0333272350234362,5.819761874615242e-06,0.0016858511402973,4.869610567434908,29.29014635640275,16.292313292210977,39.04968351401366
0.47,31.22220860266524,131.01040717804253,6.6178810515614845,4.838450928223533,0.0011247917292402,26.253747818137555,0.0013104398935566,2.6026193242279367,331.0078106302504,16.710658191447514,7.078951441335346,69.77517236812905,8.719457259907165e-05,120.0000998741591,170.9309671061642,1.274,1.025453319323251,0,0.0,0.0,0.0491102725711187,1.6384464803343264e-07,-0.0355167087264168,6.3368207228363735e-06,0.0018427306558807,4.838451058652396,28.68386015667837,16.710834873319172,26.382435512333956
0.48,31.222208284201663,131.0104078313267,6.771393590864176,4.869339340099417,0.0011561785713505,25.860860976019296,0.0013165328518772,2.5543454292827983,327.20312230115803,16.911139899671,7.177575416403102,69.75482343794755,9.70562828082882e-05,120.00011062072316,175.0543877818846,1.274,1.0254092882449153,0,0.0,0.0,0.0496995461609974,1.7858865391586845e-07,-0.0378054080201581,6.88909442277235e-06,0.0019849793891693,4.869339477030596,28.40887970825325,16.911321511776286,25.986704537635287
0.49,31.22220796480208,131.01040848648364,6.924537656029012,4.881367714530694,0.0011829003785372,32.565703383222065,0.0013261973190012,2.5011623511055703,389.6000096981238,17.169005224738054,7.296160258358563,69.73316318155707,0.0001077573203115,120.000122255028,180.4309832312717,1.274,1.025367445590036,0,0.0,0.0,0.05045746454003,1.942747077649401e-07,-0.0401641298712614,7.47069711110948e-06,0.002140948887153,4.881367857509675,28.058569663954906,17.169191034294997,32.66161128464712
0.5,31.222207637929923,131.01040915697027,7.081324512896956,4.862566137860805,0.001202418260511,33.47759680712428,0.0013425340759632,2.4399894027711366,397.970310422106,17.52898693231981,7.450304424940405,69.71015149227495,0.0001193385310595,120.0001348274002,188.0736471953394,1.274,1.0253278572281015,0,0.0,0.0,0.0515154948878309,2.109295159784217e-07,-0.0426011733481599,8.084173008518589e-06,0.0023184335011768,4.862566286171007,27.57768313050809,17.529175807738486,33.56639745442473
0.51,31.22220730314019,131.01040984370235,7.24202048914867,4.8479762258125,0.001223054804074,25.49162310288008,0.0013562860883156,2.3767006597692686,323.39843497208153,17.86914397471067,7.597652147346554,69.68574349602717,0.0001318441288964,120.00014838524436,195.4407439266201,1.274,1.025286455263166,0,0.0,0.0,0.0525152689856776,2.2858192086249162e-07,-0.0451315948093539,8.734206149830708e-06,0.002503767471626,4.847976379721193,27.13799345359824,17.86933609171003,25.602178740977283
0.52,31.222206962738102,131.01041054193402,7.405210501673173,4.865306299521403,0.0012516517170965,30.733671928447727,0.0013599291289974,2.317711624364424,372.098451184342,18.08534843773428,7.701914987606457,69.65988568649581,0.0001453248538387,120.00016298000436,200.19561780583155,1.274,1.0252426840672306,0,0.0,0.0,0.0531507657929359,2.4726951523704535e-07,-0.0477531686556663,9.421346966092632e-06,0.0026812161964639,4.865306460134566,26.8699055233151,18.085545046726228,30.820940596104087
0.53,31.222206619320115,131.01041124632013,7.569307468221277,4.848802699234936,0.0012715119568563,32.301199055744725,0.0013711327835325,2.2490252325653923,386.55624643486095,18.41963113311156,7.8474319110539055,69.6325258319474,0.0001598315062727,120.0001786629144,207.6614205945027,1.274,1.0251993415311351,0,0.0,0.0,0.0541332845214831,2.67031759303889e-07,-0.0504479325599339,1.0141887756417996e-05,0.0028848299490111,4.848802865552398,26.45837260670532,18.419830861742675,32.37940050117613
0.54,31.22220626697288,131.01041196903336,7.737918664599091,4.831496690588052,0.0012913635058467,28.31291960103712,0.0013809098107221,2.177242866245296,349.2703242098436,18.75116898748492,7.992112829440902,69.60362200959217,0.0001754082864028,120.00019548734956,215.20067397992847,1.274,1.0251561018460285,0,0.0,0.0,0.0551077428911958,2.878941684235108e-07,-0.0532336286085667,1.090122304443916e-05,0.003098869611663,4.831496862756785,26.061835558272342,18.751371834390056,28.396510432451375
0.55,31.222205908994248,131.01041270328463,7.909026079894722,15.583667740966511,19.664999119857367,30.720439458472708,-1.3368252415728843,1.3946302070072405,365.2500005919912,22.576858604022103,8.113323699629928,69.57312211246325,0.0001921068626005,120.00021350480982,311.9656824561849,1.274,1.025112921033824,0,8.77241248081048,0.0,0.0663511763773331,3.0989272306468813e-07,-0.0561100530405476,1.1700476995263424e-05,0.0039326558448982,24.8978919174017,43.03553878934265,25.605539229253623,30.78112239120741
0.56,31.222205546564343,131.01041344664463,8.081909946161325,-13.875086331874591,19.418859498559605,28.48066750067093,-1.2154393479197414,2.707700456954562,346.22656194657776,18.66637978924028,8.244196224145494,69.54097415464405,0.0002099796112633,120.00023276987916,213.2518377230955,1.274,1.0250709539098009,0,8.804417249057844,75.00003213914121,0.0548587691028344,3.329453068617489e-07,-0.0676788746658307,0.0162031517425457,0.0039218209929396,23.709772028614896,45.90513068260493,21.65862405765558,28.634897517833668
0.57,31.22220518050852,131.0104142056356,8.258482545612129,-13.625600851562474,19.20189698879417,28.153484724572937,-1.4468057764256006,2.8424149891814454,343.1828296833045,18.908046763999423,8.38438116237121,69.50219571939748,0.0250463022753114,120.02674470608842,218.8056635129642,1.274,1.0250279191823897,0,8.836171976839461,75.00003213914121,0.0555691167476022,3.6973046979969177e-07,-0.0605101711599483,0.0271447105453605,0.0035517486663738,23.395313703159218,45.391443547346014,21.86812798669256,28.333571466763303
0.58,31.22220480693449,131.01041497708698,8.436724953792032,-13.397656291184,18.96949661284673,37.070256803431135,-1.6866783653531383,2.9828230041876647,426.12500585731766,19.15722294044909,8.51994507227915,69.4675142870037,0.0665367640919781,120.07104485187212,224.60679830253832,1.274,1.024981594484354,0,8.868005395768742,75.00003213914121,0.0563015372223624,4.0929766548140434e-07,-0.0532602140892372,0.0382581455798774,0.0031673437897136,23.080480480899308,44.86793181847671,22.0828055002942,37.228296448465024
0.59,31.222204429012468,131.01041576101989,8.61773681866521,-13.075709964058047,18.61108107653829,30.029179313152127,-1.9481291407494847,3.1266978180270057,360.68438819710633,19.531908557668128,8.70331521171877,69.43696262931323,0.1248808156265409,120.13335308916425,233.47458211984844,1.274,1.0249386802161349,0,8.899580703406038,75.00003213914121,0.0574028253283741,4.516958982320138e-07,-0.0459150545624451,0.0495416816442402,0.0027838894332191,22.61128116111225,44.08823026400962,22.40419198418347,30.254306414388942
0.6,31.22220404155608,131.01041656623892,8.803613813592401,-12.863430061768426,18.39144618270543,26.66907744288932,-2.2063072220814792,3.27952809432026,329.4859594986072,19.768855086415048,8.834377683504469,69.41057558843441,0.2002950287444532,120.21390627448864,239.16935169138247,1.274,1.024891335813742,0,8.931090331260128,75.00003213914121,0.0580993153664604,4.96962393525251e-07,-0.0384215382132833,0.0610707472587718,0.0023577660494596,22.315283736390985,43.60400764848609,22.60842144855541,26.96039294473418
0.61,31.22220365200612,131.0104173777007,8.990005430971678,-12.66263293045342,18.183598154761867,31.248910078295943,-2.4706537703317726,3.4371596624776166,372.0984511843332,19.9923759414952,8.960313510854336,69.3884119984666,0.2931317676579431,120.31308494135916,244.60399010506887,1.274,1.0248423929069768,0,8.962880987845132,75.00003213914121,0.0587563514458537,5.451658725368049e-07,-0.0308443772247568,0.0727541941169486,0.0019141549320389,22.03516619188068,43.15027937605282,22.800942588932077,31.534307946737055
0.62,31.22220325680569,131.01041820265712,9.179044051455785,-12.406247607904715,17.89911914159709,38.85729373752831,-2.7537210618826884,3.600058885612256,442.86563930529206,20.29583230194884,9.116562762198948,69.37048714783654,0.4036252336999241,120.43114200129028,252.08126286784628,1.274,1.0247996097896497,0,8.994205689679772,75.00003213914121,0.0596483180504042,5.963491170424269e-07,-0.0231920716703363,0.0845798582466354,0.001461084043941,21.661905368861618,42.54254256435519,23.061910194541998,39.12074488389873
0.63,31.222202854017496,131.01041904501707,9.371867680472109,-12.097216719873126,17.539920891676992,21.967572432239223,-3.060518881540442,3.771037759837968,286.11251274707456,20.68519649401504,9.30522559952118,69.35680466085945,0.5320128825039167,120.56833235799957,261.8412674622634,1.274,1.024756158874558,0,9.02541127764427,75.00003213914121,0.0607927699148815,6.505473248302119e-07,-0.0154333225571857,0.0965927205904995,0.0009909228209119,21.19853193753941,41.78239343733199,23.3975285613073,22.498038585087055
0.64,31.222202442739405,131.01041990653837,9.56898706212468,-11.96761604622115,17.418484738216108,21.544611929328823,-3.3354081968502336,3.9431832128723614,282.3078244179702,20.803758876287723,9.39147751226904,69.34737867422162,0.6786234005851804,120.7250068746849,264.8464741730106,1.274,1.024708534665538,0,9.05669916607268,75.00003213914121,0.0611413548586479,7.078060087253338e-07,-0.0075345667701783,0.1088415246017164,0.0004865333596943,21.027958005135385,41.53283572624824,23.497896575691502,22.15499819172351
0.65,31.222202033155828,131.01042076665811,9.764371922443347,-11.789294638275228,17.22916860119892,38.169893811075205,-3.626673662026533,4.119530872460436,436.7781447787504,20.99570919906104,9.505321985891262,69.34223437694949,0.8438835017868695,120.90161958374264,269.75128518518534,1.274,1.0246641738210605,0,9.08813756510803,75.00003213914121,0.0617056246340425,7.682098469613817e-07,0.0003824910094429,0.1211506544017088,-2.4926204765726044e-05,20.775112989366534,41.14563759667047,23.66145819226097,38.56246996768683
0.66,31.22220161611679,131.01042164374175,9.963417604762553,-11.466380394993948,16.840126862618934,32.4100992437131,-3.9695622889694833,4.3096025599993855,383.5125151715984,21.42377152389018,9.708002119487158,69.34132053256899,1.0279742896942017,121.0983604484487,280.8574704337583,1.274,1.0246195561629028,0,9.118771291427104,75.00003213914121,0.0629638256015908,8.317780312208899e-07,0.0083464776982056,0.1335611500940463,-0.0005550028875109,20.279295464124253,40.33928071651308,24.03109115076972,32.93546161781393
0.67,31.22220118743789,131.0104225459486,10.168525160849605,-11.242378631836132,16.58236017489123,22.217243228178152,-4.294852864142643,4.500861909800091,289.15624401033847,21.69406689355908,9.851125130572756,69.34459411436383,1.231162964092084,121.3155098239321,287.98344330532007,1.274,1.024572383541697,0,9.14946005843822,75.00003213914121,0.0637583631628815,8.985248519068093e-07,0.0164535561071504,0.146213546858244,-0.0011078686551059,19.94512505915382,39.81993911008368,24.26260670333742,23.071831650646022
0.68,31.222200757148496,131.0104234533071,10.37382303135964,-11.08485059944308,16.413490673568827,27.771913201279744,-4.603389963149228,4.690374940879708,340.89999248584934,21.84848234972393,9.95058423461794,69.35205680742173,1.4539574893125564,121.5536036795804,292.09193037861064,1.274,1.0245245285832842,0,9.18054719601684,75.00003213914121,0.0642123353532885,9.685346392239802e-07,0.0246312720655473,0.159002282014706,-0.0016702715294337,19.72025779324469,39.49853243331005,24.39158828273608,28.538920426292783
0.69,31.222200323768323,131.0104243687761,10.580184670792503,-10.854938841631387,16.14209487304546,34.22659793155163,-4.945445900927012,4.89072518353824,401.0140726853658,22.129993564131706,10.097416775206348,69.36366057022077,1.696728494803789,121.81302949670967,299.6615197802355,1.274,1.024479631064582,0,9.211133007291773,75.00003213914121,0.0650398436651908,1.041865794455168e-06,0.0328267439723728,0.1718492873408239,-0.0022546516492936,19.371510565969054,38.962997090605455,24.63217767895494,34.92615973662128
0.7,31.22219988152157,131.01042530348138,10.790908978947064,-10.591512645141377,15.820657999447164,28.611110693858947,-5.312638039015932,5.101484565089674,349.270324209851,22.477703773152847,10.268636818556354,69.37931901962092,1.959749992830504,122.09406983384068,309.14590739504285,1.274,1.0244351749185203,0,9.24139868964098,75.00003213914121,0.0660619177595344,1.1185334113213776e-06,0.0410880122428608,0.1848254239853901,-0.0028663461946374,18.963157290605228,38.32503361073842,24.931348187377555,29.543949005468054
0.71,31.22219943192624,131.01042625426211,11.005078520356111,-10.3863960084934,15.5779079582223,23.40161272340296,-5.66292551266507,5.30983781631785,301.3312640634036,22.7163369993012,10.398910661703612,69.39896248304805,2.243429952189284,122.3971487093398,315.73831616989526,1.274,1.0243880468141104,0,9.271824290365888,75.00003213914121,0.0667634215542511,1.198576283939874e-06,0.0494364438954174,0.1979626777304444,-0.0034852839175048,18.651308964397,37.86521105655095,25.13327282882313,24.65559938540792
0.72,31.22219897922196,131.01042721293996,11.220269546567772,-10.203408260263636,15.364180719707743,28.70170818619509,-6.0072703768844,5.517723798678176,350.7922053414578,22.90837929703508,10.511605244371289,69.42252226469053,2.5482514312900046,122.72276863227958,321.09270499235384,1.274,1.024337302174265,0,9.302184232167772,75.00003213914121,0.067327998226033,1.2820640744268543e-06,0.0578215650811778,0.2111859701624928,-0.0041108144059501,18.3753887406158,37.47653418312699,25.292959424803254,29.838241002193655
0.73,31.222198521933773,131.01042818227728,11.437311561656578,-9.970657378370245,15.07729319560466,36.38061245395172,-6.385081081690478,5.738454593917064,422.3203185282354,23.201495983217576,10.66133939436321,69.44989154473556,2.874604921279702,123.07133151906208,329.35528233412293,1.274,1.024292465384646,0,9.332219893760568,75.00003213914121,0.0681896386100381,1.3690426321740596e-06,0.0662191152822547,0.2244588799722994,-0.0047679750326191,18.011907765248925,36.93350836009148,25.54259275188911,37.37978175525957
0.74,31.22219805630045,131.01042916909873,11.658273867495668,-9.700416243147828,14.733377113625387,22.522947593033976,-6.796971203851563,5.973671557382019,294.4828134710563,23.580219046777994,10.84209416493986,69.48093981895856,3.2228466935823192,123.44320113618738,340.18809556802523,1.274,1.0242470321640116,0,9.362050934565817,75.00003213914121,0.0693028856689569,1.4595290752316007e-06,0.0746633218301412,0.2378327740765642,-0.0054636206578774,17.5807651822777,36.26963096005082,25.869111414246134,24.272757109566626
0.75,31.22219758207047,131.01043017356923,11.883240826210644,-9.534886707043327,14.537803185134244,26.33417146520165,-7.147651927802998,6.1881195657501245,330.24688556441737,23.72542604655367,10.936657664664205,69.51554337008326,3.5934367498356927,123.83885045243296,344.3833128340429,1.274,1.0241984712898409,0,9.39195307886938,75.00003213914121,0.0697298298480824,1.5535547279583011e-06,0.0831809019752657,0.2513482036839124,-0.0061242605398013,17.329130742779988,35.944752284675744,25.984594559749823,27.979820203133652
0.76,31.22219710850164,131.01043117880772,12.107102721459924,-9.315252684340525,14.26152830703108,28.33098942384848,-7.539793896058305,6.418809795841111,349.2703242098581,23.99229602021608,11.075322598163732,69.55357989445427,3.9869231291730847,124.2588448082359,352.1667469888756,1.274,1.0241522053390697,0,9.421865122885343,75.00003213914121,0.070514347819731,1.651214612802703e-06,0.0916733462323686,0.2648561183307786,-0.006825297280471,16.981239023377874,35.44537147303141,26.20943075627149,30.011573982789344
0.77,31.2221966251616,131.0104322034765,12.33555725522456,-9.089996538357989,13.974858412425757,26.374801855219616,-7.942312801214146,6.654707207239176,331.76876669606884,24.27075972952771,11.217685834494128,69.59486387055586,4.403637337540949,124.70351695853256,360.38104272305407,1.274,1.0241065975906936,0,9.451183117480754,75.00003213914121,0.0713329480040706,1.7525088471998629e-06,0.1001816682599318,0.2784185162879033,-0.0075451656595598,16.62157964408552,34.93016475070556,26.444224658137674,28.33717758614127
0.78,31.22219613624082,131.01043323980085,12.566266925853528,-8.879536053904948,13.707282641693192,21.451126358168143,-8.338653335928745,6.889120888970794,286.8734378128874,24.51279445168784,11.346266287175208,69.63921864235922,4.844028654015252,125.17332405766092,367.59637572479375,1.274,1.0240588105546735,0,9.480654823011786,75.00003213914121,0.0720444873935861,1.857472391990172e-06,0.1087020749542728,0.292029998012083,-0.0082683372989818,16.28567962565615,34.465070297853785,26.64544915722157,24.02382043126666
0.79,31.222195642338967,131.01043428661603,12.798890419841513,-8.690883788910808,13.46997395311394,30.76032719301832,-8.717710605349975,7.116879844323865,373.6203323159581,24.6944967860094,11.452556827153096,69.68645257483932,5.308555711061739,125.6687320000892,373.05789343300864,1.274,1.0240083170932772,0,9.509972742640535,75.00003213914121,0.0725787112977891,1.9661493878205456e-06,0.1172135891534583,0.3056583726036113,-0.0089816467626228,15.986646029610776,34.077404906091864,26.790918608734128,32.75433079668576
0.8,31.222195144570623,131.0104353419144,13.032818420158812,-8.44193082807111,13.14067819743072,31.09109631084732,-9.158846275408411,7.370879220794582,377.42502064505805,25.03536332884446,11.615435734255188,69.73635038600722,5.7976405871299885,126.19016660793255,383.41924971440346,1.274,1.0239625010683884,0,9.539071410431571,75.00003213914121,0.0735807341435062,2.078582801348352e-06,0.125686465697607,0.3192579192299043,-0.009763611313843,15.578442636646658,33.48351243861202,27.081448011275985,33.23959379105719
0.81,31.22219463599749,131.01043641705,13.27165917374211,-8.207724551764768,12.8307626728992,19.80526553082331,-9.59281568456299,7.622877116625847,273.9374926939922,25.337737312370965,11.763742455047977,69.78866934247657,6.311642600707424,126.73798594890924,392.7279525739999,1.274,1.0239149950770308,0,9.567868284278278,75.00003213914121,0.0744696337064944,2.1947566385304554e-06,0.1341706214893045,0.3329057942375627,-0.0105483217664201,15.19420229256941,32.941476970984375,27.33638560965504,23.2890298432458
0.82,31.22219412232458,131.01043750223317,13.5123709113196,-8.029146203110997,12.602373199164214,25.64510508374543,-9.966595298654076,7.849228614666746,328.725004432774,25.47658876054996,11.85324891529168,69.84317698265207,6.8510584326158765,127.31269378170438,397.0348869028557,1.274,1.0238644186635044,0,9.596838818483487,75.00003213914121,0.074877932554039,2.3147185280741115e-06,0.1426424917971874,0.3465659323422627,-0.0112755636989116,14.907805141433286,32.59909541650197,27.44024173490793,28.611445724548812
0.83,31.22219360725044,131.0104385915217,13.753050848982433,-7.801831259012937,12.298289478731313,32.796933260859795,-10.39773948328638,8.100225654794105,395.6875032246518,25.755904379421075,11.991869667877776,69.89961508581051,7.416333799880276,127.91473895367167,405.7791105844496,1.274,1.0238188483711983,0,9.625609881310467,75.00003213914121,0.0756990712516629,2.4385403498761948e-06,0.1510362986394454,0.3601358674894861,-0.0120696914892922,14.531953405138358,32.08445240682538,27.67291533456882,35.346364358136874
0.84,31.222193081765376,131.01043969899405,13.9982764345863,-7.5501463453836175,11.954631607245432,19.66924928688504,-10.86595605153564,8.36797686285713,275.45937482564227,26.1124471500422,12.156753468765393,69.9576816142039,8.007745728076152,128.5443904273976,417.0815685911921,1.274,1.0237739661568126,0,9.653960710840282,75.00003213914121,0.0767471969616833,2.5661917476263274e-06,0.1593924220874273,0.3736787096103571,-0.0129134726702332,14.109831791880412,31.48133186783461,27.976681061087643,23.9785613663715
0.85,31.222192547769644,131.01044082113256,14.24699388948466,-7.366780503424982,11.713494528013351,21.455429007399346,-11.241581529088142,8.594428236193696,292.9609323393965,26.2450669410086,12.242506429189268,70.017079548877,8.62567522463264,129.2020279762825,421.318807793378,1.274,1.0237227741398531,0,9.682432123902732,75.00003213914121,0.0771371967727286,2.697672667380796e-06,0.1677264847237973,0.387219557136302,-0.0136573600900375,13.810010727505963,31.134297907145303,28.07222822235095,25.70161056964665
0.86,31.22219201442288,131.0104419439909,14.49461174969101,-7.154359198587865,11.42577746144564,27.10990881676333,-11.65570569671299,8.837434049272911,346.2265619465616,26.46886667353517,12.359363143695584,70.0775040812884,9.270542140051626,129.88807292234054,428.52468291580055,1.274,1.023674789281455,0,9.710885339312515,75.00003213914121,0.0777951866398416,2.833076498391712e-06,0.1759546031262878,0.400626410193699,-0.014449176035625,13.455565572535257,30.681109096308717,28.251751786685727,30.804267105660184
0.87,31.222191471837103,131.01044308221805,14.746025926367384,-6.919298973972964,11.101112088840088,25.005194170935034,-12.105065201579174,9.09609278133164,327.9640783669946,26.768140868184368,12.501421028966854,70.13860083582047,9.942530080388243,130.60269587613044,438.2592406314105,1.274,1.0236288969245204,0,9.73877733937202,75.00003213914121,0.0786750127067698,2.97237170858944e-06,0.1840982479905658,0.4139331673623911,-0.0152884860634226,13.057956046892611,30.1439836866502,28.50100998517848,29.232366359007614
0.88,31.222190921230805,131.0104442334707,15.00054860295164,-6.699582371615069,10.798116537021752,21.244091257793208,-12.529698718192067,9.343044639333897,294.4828134710421,27.01096995114264,12.623135134791072,70.20001232256925,10.641862745406463,131.34611119828276,446.23579830658247,1.274,1.0235805388426191,0,9.766698451044672,75.00003213914121,0.0793889466283211,3.1155377876506645e-06,0.1921707070683246,0.4271616503026192,-0.0161032438485821,12.686629822915814,29.66777520241548,28.697111168212167,26.37417764539201
0.89,31.2221903659424,131.01044539278018,15.256525798539627,-6.489918245057833,10.509009925081612,23.33533272565658,-12.932728678946855,9.579217149889724,315.02813424808807,27.210805888470286,12.729356564426112,70.26137352059392,11.36877978708096,132.11855155168675,452.85188554637847,1.274,1.0235293752791452,0,9.794568285815584,75.00003213914121,0.0799765228468056,3.2626023600369145e-06,0.2001440335783798,0.4402676234300371,-0.0168950459622376,12.332256270370642,29.234534769630617,28.852317174414555,28.347039099438497
0.9,31.222189805452004,131.01044656075663,15.514191559366417,-6.2662380337144254,10.195946344414896,25.831785500965005,-13.358504923457136,9.825080936846469,339.3781423542166,27.461446553954648,12.851923572465626,70.32229593613103,12.123415592304845,132.92013944031976,461.221395781868,1.274,1.0234837388140003,0,9.82220692925066,75.00003213914121,0.0807134269267171,3.4135781077510448e-06,0.2079953926791791,0.4532147875704722,-0.0177191018240587,11.950203998126474,28.747330672176396,29.05458252950725,30.6963028942164
0.91,31.22218923699502,131.01044774080052,15.774806973286692,-6.035326672843574,9.869356040898577,18.991877046268296,-13.797290105035888,10.076241608137336,277.7421810230785,27.74044454843752,12.982999875596034,70.38237146859615,12.905804554734564,133.7508933394116,470.6288954257994,1.274,1.023436404813438,0,9.849643438222277,75.00003213914121,0.0815336848113406,3.568434342832924e-06,0.2157293293173981,0.4660109238683224,-0.0185642034145711,11.552840327068589,28.2316608892733,29.28306436490763,25.545787381262137
0.92,31.22218866109232,131.0104489318144,16.038065466966845,-5.828722478019753,9.579901394421793,22.8818181829526,-14.176597375063936,10.298200864274056,315.0281342480675,27.90871514917508,13.076168042801443,70.44118363828122,13.715951920896698,134.61080338505224,476.3437389776386,1.274,1.0233859136578225,0,9.87701286385853,75.00003213914121,0.0820285031646578,3.727148410894696e-06,0.2233428539432422,0.4786518323849793,-0.0193354655390154,11.19960327979332,27.822085148004422,29.4065209074106,28.820243884001133
0.93,31.2221880824636,131.01045012764192,16.301763628508894,-5.600761551610535,9.254209860790718,27.50797671222066,-14.599719045778954,10.539696057043423,359.16250706547066,28.169697906721986,13.19915368939349,70.49830533276783,14.553806267997532,135.49980253440495,485.2819698092552,1.274,1.0233407575091376,0,9.904281846895184,75.00003213914121,0.0827958226173188,3.889751535758248e-06,0.2307945112361573,0.4910706811422174,-0.0201669116573515,10.80442063950626,27.3224009955496,29.6170336775506,32.877435605451524
0.94,31.222187493941306,131.01045133690172,16.56914012412607,-5.362086381240203,8.909147603399873,19.073109096642806,-15.0474313747591,10.791854209323535,283.06875048378083,28.48189065263633,13.33778854746359,70.55328797562169,15.419138214145384,136.41763836869134,496.0851810633592,1.274,1.0232914783978162,0,9.931225623465693,75.00003213914121,0.0837136659505631,4.056173624957686e-06,0.2380989504379444,0.5032918375314089,-0.0210352110516462,10.38713853485509,26.77606511746188,29.87570371326628,26.583318055987995
0.95,31.222186896870635,131.01045255739976,16.839500849903775,-5.151554107306632,8.608214271621087,25.343611991618097,-15.411731082597704,11.002599002524544,342.421873617488,28.649131939270816,13.428069656739064,70.60568181609129,16.311697556796954,137.36404028280555,501.9151248055204,1.274,1.0232418269359267,0,9.958178002267696,75.00003213914121,0.084205476606108,4.226364258937696e-06,0.2452573344405049,0.5153181923166937,-0.0217942923768421,10.021964556559116,26.359886654889163,29.99622580361522,31.63664502684112
0.96,31.22218629783585,131.01045378135515,17.109894942518675,-4.914931801161311,8.262402247053052,24.5800445765888,-15.845308110069348,11.245233559005348,337.09533515678265,28.95262921223633,13.561422262988394,70.65503205662628,17.231168713074457,138.3386725547556,512.5923104962312,1.274,1.0231951201821403,0,9.985065762545416,75.00003213914121,0.0850977748644536,4.400361774042908e-06,0.2522215961081238,0.5270711052047696,-0.0226500049657575,9.605002996846784,25.822983438535637,30.24599075974681,31.332214385304816
0.97,31.222185686391224,131.01045502026443,17.384880533291778,-4.685319870135164,7.926404742077159,14.383254020432584,-16.251247359295043,11.47301743510239,245.0218871929888,29.216278777513345,13.68072572745565,70.7008676732941,18.1770129356711,139.34096755029557,521.9566078889304,1.274,1.0231476260761452,0,10.011598276067822,75.00003213914121,0.0858729619922813,4.578051441123099e-06,0.2590138220175616,0.5385877942963458,-0.0234711513560922,9.199990716550872,25.32104518942664,30.457387844131997,24.54813976690388
0.98,31.22218506937273,131.0104562661055,17.661402108258677,-4.479141290171452,7.627940289997162,22.29567646004796,-16.56536285019576,11.654323234200556,319.593746642963,29.335035072503054,13.752970316782472,70.74272321210114,19.1486752657601,140.3703454730948,526.1944828468863,1.274,1.0230935628253934,0,10.038226074043216,75.00003213914121,0.086222281446529,4.759409592739845e-06,0.2656116001047772,0.5498321132096964,-0.0241662169484842,8.839086987610406,24.938207286895278,30.529692739924887,30.121946902831656
0.99,31.222184450543143,131.01045751496576,17.93785494141972,-4.245059090985297,7.280896414763904,24.49232355465259,-16.968986691192267,11.877333739375556,341.66094855170127,29.62363969588006,13.877806151141009,70.78012891003584,20.145443397347684,141.42606510521483,536.5848040669321,1.274,1.0230490803133316,0,10.064649991264885,75.00003213914121,0.0870708270996911,4.944456836127228e-06,0.2719722215072552,0.5607329595804224,-0.0249877098635971,8.422282323395752,24.415403471323835,30.76424464865831,32.07633830704744
1.0,31.222183818449327,131.01045877811708,18.21903657456468,-4.011874920828134,6.933617855765048,21.306227824785644,-17.362454634618558,12.09356172934338,314.2672081822764,29.908184925318647,14.000004289885185,70.81261089017234,21.166375804232555,142.50714806021344,546.9277031521435,1.274,1.022999484445133,0,10.090722774626704,75.00003213914121,0.0879074511895992,5.133028199604312e-06,0.2781212235605077,0.5713343207925793,-0.0257974007019688,8.00571833690833,23.89738906813935,30.99465872268605,30.027727359264077
1.01,31.22218317959912,131.0104600485036,18.50212629765112,-3.7868987885796193,6.598424968064292,22.253865243907992,-17.712956865368447,12.28673968889122,324.92031610370094,30.137020662125195,14.103704709172744,70.83970855046778,22.21051378865737,143.61260355937534,555.3140110302867,1.274,1.0229507481225095,0,10.11690071676852,75.00003213914121,0.0885803381883145,5.32505793810904e-06,0.2840447069879847,0.5816140853917106,-0.0265477041788539,7.603705746776416,23.42336487168825,31.171209250346088,30.98301682197836
1.02,31.22218253466094,131.01046132536607,18.7868312618006,-3.55763303425815,6.2540912210870685,17.648641000078975,-18.072393566939542,12.48217396591854,284.59063161543185,30.39818709290115,14.21615868669878,70.8609682990406,23.27675567934296,144.74129530035415,564.9649318561785,1.274,1.0229039803623294,0,10.142917161214775,75.00003213914121,0.089348259518403,5.520502485981519e-06,0.2897199069100305,0.5915341633850216,-0.0273120373819656,7.191668081637453,22.925512526175435,31.378627791896577,28.176064404090948
1.03,31.222181880378688,131.0104626113393,19.074432119140432,-3.336824023804144,5.92299536624232,13.37076661976702,-18.376018748461583,12.6478503019092,247.3046933904342,30.588641205809804,14.305937894956228,70.87594622284232,24.36382534045428,145.89190819321456,572.0506700923669,1.274,1.022853416101322,0,10.168748237149854,75.00003213914121,0.0899083459703772,5.7192538992660905e-06,0.2951407351623849,0.6010852614336581,-0.0279966083196519,6.795334331789399,22.479216229607843,31.517366931998318,26.008144537886437
1.04,31.22218122142849,131.01046390202185,19.363002652016696,-3.119789068285247,5.597202181940787,23.834529078651588,-18.641353779962564,12.792188558544328,345.4656368807608,30.74070933327225,14.383176443529075,70.88421426632068,25.47032706442248,147.06300642182595,577.736571899169,1.274,1.0228049544826707,0,10.194512342840428,75.00003213914121,0.090355609816999,5.9212613709800855e-06,0.300283423799896,0.6102273183560469,-0.028625249985345,6.405526402131736,22.05908779662274,31.618518047288013,32.851559099503405
1.05,31.222180556952694,131.01046519801088,19.6528674570588,-2.8839753604157248,5.236235674481117,12.17165371941816,-19.007104886929778,12.983686763002977,240.4562587980608,31.07247418068359,14.51281976026526,70.88536202392591,26.59468970772609,148.25297416108,590.2577145662524,1.274,1.022755494436122,0,10.22003847040062,75.00003213914121,0.0913310589431924,6.126442510558305e-06,0.3051319475324449,0.618933183019803,-0.0294005510584648,5.975977373408511,21.51585527485783,31.893835699861015,26.038343119483514
1.06,31.22217987785173,131.0104665060121,19.94750548320773,-2.6702036412194494,4.913721733044615,19.321852265162114,-19.21506979625893,13.09459587682476,308.1796836557233,31.18088206039503,14.575168294568014,70.87900218861733,27.73519582019015,149.46004612892955,594.3667462456582,1.274,1.0227013895379469,0,10.24536084608197,75.00003213914121,0.0916500060058628,6.334558296776784e-06,0.3097022317580341,0.6272328223601358,-0.0299441779676937,5.5908100998421935,21.123681522618988,31.951781873985137,30.232785571448897
1.07,31.222179200844536,131.01046781291817,20.240413991679247,-2.4416490260886863,4.562391589721771,23.484393837966827,-19.51518640930345,13.24846099920152,348.5093681440431,31.45650633004824,14.68545153912531,70.8647748608055,28.89009656137337,150.68242878215716,604.9040131106092,1.274,1.0226540159946436,0,10.27078398356136,75.00003213914121,0.0924604543660137,6.545646510381599e-06,0.3139517001581161,0.6350513988187964,-0.030622509056358,5.173437900431169,20.62272828593892,32.17240800749219,33.28484600195651
1.08,31.222178508637462,131.01046913129915,20.538177971822456,-2.211723561257155,4.20684668788548,13.715327051103664,-19.819287221465487,13.401587516615304,261.0015785751465,31.76132320986332,14.802729892433012,70.84234893596543,30.05742216713676,151.918099212401,616.6663439262333,1.274,1.0226061614050743,0,10.295747874544094,75.00003213914121,0.0933567196425826,6.7594509964209685e-06,0.3178926965298565,0.6424125543735643,-0.0313064744580619,4.751892858159838,20.106642363968383,32.42153956630823,27.57747069713211
1.09,31.222177807489057,131.01047045595715,20.83832160625749,-1.9948787162068808,3.874276824932023,11.909087780633566,-19.99803882169916,13.489809082572007,246.54375332456465,31.90198800339432,14.871658551765131,70.81142677440356,31.23517886625421,153.16501290085068,622.1226978627209,1.274,1.0225512795791307,0,10.320820182558004,75.00003213914121,0.0937704961894961,6.975811771292747e-06,0.3215156903988825,0.6493015078650765,-0.0318025851911099,4.357005213702043,19.69376303684275,32.510094327807366,26.90209801419333
1.1,31.22217710465059,131.01047178206414,21.138151933553544,-1.77641970504858,3.5372809452229923,29.848796469775124,-20.1738347899994,13.573662931745998,413.1890617384087,32.06680729504379,14.946552351363696,70.7717457705724,32.42128809843647,154.4210386576401,628.549505148404,1.274,1.0224981043155532,0,10.345788754191876,75.00003213914121,0.0942552735079818,7.1947070444020896e-06,0.324793180386823,0.6556680254124829,-0.0322918273778345,3.957778786434648,19.26676554263322,32.62208918855241,38.499072537048285
1.11,31.222176392926016,131.01047311408087,21.440297120669555,-1.543080808643666,3.168672915171629,19.90450751343312,-20.519454752355607,13.738622011704736,324.1593910379213,32.5115714199822,15.098805474865454,70.72308370271661,33.613535642771566,155.68390388943467,646.0875375372683,1.274,1.0224548851875197,0,10.370434370033095,75.00003213914121,0.095562912645273,7.415957097888752e-06,0.32771942742013,0.6615026942400273,-0.0330337245813881,3.5240826149655065,18.682067724283787,33.009051715853964,31.717300917114343
1.12,31.22217566055066,131.01047445811497,21.748878799942688,-1.3242644276148932,2.8272085905366207,3.1582493458026906,-20.687957122749268,13.81276490599545,172.7328179403806,32.72057609739163,15.183712509769164,70.66526035088988,34.80966369593329,156.9512911220728,654.401750366743,1.274,1.0223979224661404,0,10.39497911800474,75.00003213914121,0.0961775856084834,7.639165941292485e-06,0.3303054597015859,0.666831354154453,-0.0335074375271377,3.1217560922998784,18.23578042876068,33.164492788758295,25.075058986795522
1.13,31.222174928963984,131.0104758015827,22.056178642031146,-1.1146459143909797,2.5036884947955955,24.190569510788084,-20.700273883224387,13.806587359682576,367.5328077894322,32.73084763532376,15.213030697933744,70.59813502073199,36.007449917925705,158.22092077295713,654.7933428900317,1.274,1.0223460397860296,0,10.419753220863038,75.00003213914121,0.0962081109862839,7.864356553374805e-06,0.3325217860548419,0.6715976456831068,-0.0337418632479985,2.740456288742025,17.898373352452733,33.124000956757115,34.70312445036208
1.14,31.222174197041703,131.0104771456302,22.36267485613924,-0.8908351896210416,2.1469758850125715,10.011290806553792,-20.964521083594736,13.921705440897869,239.6953177322812,33.142170394082704,15.35093318368372,70.52161559699462,37.20457629025276,159.4904111535441,671.3343309332316,1.274,1.0223022138470996,0,10.444137548165992,75.00003213914121,0.0974174781907526,8.091515073168481e-06,0.3343509940405132,0.675765169583171,-0.0343528270704346,2.3243754667384886,17.351920635048586,33.47933765978109,27.08414610544335
1.15,31.222173439060875,131.01047850240934,22.677200819477807,-0.6786656532098218,1.81520459840366,9.546879017449958,-20.99198466081368,13.916584129351724,237.4125115347709,33.238373201669766,15.402078305415737,70.43566088440326,38.398686984265126,160.7573385843233,675.2169944011649,1.274,1.0222426194541194,0,10.468181713141025,75.00003213914121,0.0977006016976964,8.320089321065211e-06,0.3358035762403659,0.6793635006057681,-0.0346011772361103,1.937885624431064,16.97200123396034,33.523457177625204,26.934691993839238
1.16,31.222172688373377,131.0104798555333,22.988215850040984,-0.4662158416530753,1.4800625173620063,36.92021763315278,-21.042089486834094,13.919439367823214,490.043774385954,33.40070773820356,15.47018161907888,70.34027093343873,39.58751839945155,162.01937421285928,681.808183281559,1.274,1.02219674531104,0,10.492574613979055,75.00003213914121,0.0981781110776856,8.550162187962761e-06,0.3368587874668539,0.6823472204217979,-0.0348783855934779,1.551738997754648,16.562170794866997,33.63316955950494,44.71714204156842
1.17,31.222171925272804,131.010481214128,23.302460677007456,-0.249333638212498,1.12703395844049,-0.0267074825869871,-21.35493556757393,14.047843911132004,153.70937929500428,33.97801145283915,15.647023424769545,70.2354993344551,40.76878942707904,163.27416654803636,705.559556893002,1.274,1.022149394360584,0,10.516426143241237,75.00003213914121,0.0998753930130512,8.78146246008381e-06,0.3375140444138999,0.6847123960972012,-0.0355491747209331,1.1542810699076258,15.9618489924181,34.15503411673271,25.561218768603126
