Time,Latitude,Longitude,Altitude,Angle of Attack,Angle of Sideslip,X-Acceleration,Y-Acceleration,Z-Acceleration,Thrust,True Velocity,Ground Velocity,Pitch,Roll,Yaw,Dynamic Pressure,cp,parachute_deploy_gain,Wind Speed,Mach,omega_x,omega_y,omega_z,Cmq
0,31.2221860000000042,131.010383999999988,3.00000000364323682,0,0,0,0,0,2.2828121974499247,0,0,69.9999999962342088,0,113.699999993883324,0,15.2880000000000003,0,0,0,0,0,0,-0
0.01,31.2221859999997946,131.010384000000556,3.00000016469923247,0,0,0,0,0,34.2421869617492334,9.11367326775851009e-12,8.66229497295429822e-12,69.9999999962370651,-4.92863947922479589e-13,113.699999993882884,5.08594204168408172e-23,15.2880000000000003,0,0,2.67827100510624443e-14,-3.65918233213857746e-19,7.58941520739853104e-19,4.81114714040442593e-19,-1.83541113936281872e-32
0.02,31.2221859999996028,131.010384000001039,3.00000030885429547,0,0,0,0,0,25.8718762377664078,1.96992978605390895e-11,1.88456988716431921e-11,69.9999999962400494,-1.04152381447771591e-12,113.699999993882386,2.37621641206600858e-22,15.2880000000000003,0,0,5.78911013494094702e-14,-7.28448334638698292e-19,1.51788304147970621e-18,9.75781955236953991e-19,-7.93451985123442364e-32
0.03,31.222185999409362,131.010384001586402,3.00018176030779937,18.6493779029494604,-0.000129237623237530007,10.7928899806483045,-1.97644583900689674e-05,3.34983967390763571,180.342193598546658,0.0785672533977095078,0.0490694047558625918,69.9999999976775626,-4.2497891361524094e-12,113.699999994705607,0.00377978965327356543,15.2880000000000003,0,0,0.000230888677896110966,2.88330015245363835e-17,-7.25223402354589416e-10,1.08188208080271277e-11,1.51197624781400831e-13
0.04,31.2221859959356287,131.010384010943454,3.00162780953569674,9.74253989061216075,-4.88763086122285772e-05,51.6475445943311158,1.54548216767323456e-06,3.34965665682309899,548.635972453807767,0.346420694310776434,0.171860503977579737,70.0000000036447574,-2.28205307288861013e-11,113.699999999565534,0.0734838809649275282,15.2880000000000003,0,0,0.00101804013696402693,1.80009747884589399e-15,-1.58734069119923437e-08,2.61929145365345784e-11,1.45916869803439425e-11
0.05,31.222185985910329,131.010384038045004,3.00715844163023283,5.5769968489095687,-4.21135943534799539e-06,75.3242160169835273,4.73080294831520123e-05,3.34902689347595528,761.698429882464552,0.947854334293939504,0.409211128642743283,70.0000000010935537,-1.04766136577077691e-10,113.700000013612069,0.55013262299765131,15.2880000000000003,0,0,0.00278549703395658196,1.95473045844392346e-14,-1.13584749331540247e-07,4.14067569904437612e-11,2.85688606727574374e-10
0.06,31.222185966868647,131.010384089593572,3.01868664272593046,4.48500474963244322,2.31139019787050305e-05,56.3605563030587007,9.71465785775115924e-05,3.34799244711343214,590.487539073720654,1.60618980149218604,0.665693519146445256,69.9999999197690244,-2.82941102348924619e-10,113.700000040305838,1.57971028663545732,15.2880000000000003,0,0,0.00472017413217633904,1.01936766184118274e-13,-4.07864410983111553e-07,5.76522069423461223e-11,1.73837509686130208e-09
0.07,31.2221859390775336,131.010384164863126,3.03600551209402658,4.00448286551149391,4.63712119495135773e-05,85.8192455386477917,0.000147926970097503541,3.34656708333141317,855.293774977913927,2.27788210706903049,0.926660947343454056,69.9999996219982279,-5.49831570978999292e-10,113.700000079276109,3.1772067926123353,15.2880000000000003,0,0,0.00669410445039518576,3.35900025920073467e-13,-9.92070622953462368e-07,7.83315922772719921e-11,5.99658406989250883e-09
0.08,31.2221859009658012,131.01038426812616,3.06033476575187802,3.77263127792190334,7.06371256062416025e-05,17.6076228145981588,0.000196957592070898702,3.34480227118667583,241.217198863884818,2.92612482887636283,1.17954495655796454,69.9999989088305909,-9.15694670892462832e-10,113.700000132739973,5.24285298735243899,15.2880000000000003,0,0,0.00859912396431777512,8.49635706706491564e-13,-2.01744800413265681e-06,1.10032289818440005e-10,1.56647792516492608e-08
0.09,31.2221858556197738,131.010384390989856,3.0892797608365723,3.74258231141200604,9.5325675231994802e-05,53.4176180048964397,0.000237730218002333866,3.34289666486112669,563.093737704317618,3.46187703891102627,1.39384941462988121,69.9999975134546446,-1.31671842773002699e-09,113.70000019638816,7.33844512707370811,15.2880000000000003,0,0,0.0101735644468633635,1.80613395740032365e-12,-3.4856561047658452e-06,1.59232278560273843e-10,3.20202005890100843e-08
0.1,31.2221858028175774,131.010384534057465,3.12301320909491364,3.81071421019783685,0.000121971080758598364,50.732831688561788,0.000271545837515448313,3.34090447591365036,538.7437595981919,3.9029133825176725,1.57567038389986336,69.999995157830341,-1.72222432289554893e-09,113.700000270567642,9.32732681847184431,15.2880000000000003,0,0,0.0114696609641860067,3.37914451533694905e-12,-5.48904943388414521e-06,2.34452541412924053e-10,5.68476506314615152e-08
0.11,31.2221857431700727,131.010384695667796,3.16106164078641116,3.84323765504598036,0.000147145408783231387,40.0848474374385688,0.000307099758177995722,3.33859717034531034,442.865639305294906,4.36819921201157246,1.76578242121538631,69.9999915253729768,-2.07703942468805025e-09,113.700000354470319,11.6837607126815346,15.2880000000000003,0,0,0.0128370221364947634,5.76365694334259916e-12,-8.08162139954488366e-06,3.4437809457680147e-10,9.36754562129998513e-08
0.12,31.2221856770245907,131.01038487487628,3.20315617196047642,3.86558564807459826,0.000171348089099210797,43.7480799143332604,0.000342946594964391399,3.33600966231316054,475.585948135404465,4.83801864946757032,1.95742650583495204,69.9999862600106582,-2.3147200577597177e-09,113.700000447673773,14.3321420062794882,15.2880000000000003,0,0,0.0142177082532951912,9.17772063248746377e-12,-1.13223702306849879e-05,4.98555567062495836e-10,1.45354343598177095e-07
0.13,31.2221856047215205,131.010385070757366,3.24903338361815308,3.95285669440916232,0.000198169826234992146,48.2585391180499741,0.000371981107240517913,3.33344523512332414,515.915632623689476,5.21512035057569623,2.1172615234944101,69.9999789703044399,-2.35265113573284059e-09,113.700000549782459,16.6533950244453948,15.2880000000000003,0,0,0.0153259223232261182,1.38588880633063252e-11,-1.52681962163171846e-05,7.07166414280215559e-10,2.11287244421402401e-07
0.14,31.2221855263490333,131.010385283071088,3.29862557546706325,3.99981420118284792,0.000223008237377726162,44.9721767850953427,0.000403855591455553264,3.33052592490198407,486.239086056840392,5.63167615200940475,2.29059513099545553,69.9999692426645623,-2.0964169591742506e-09,113.700000660771011,19.4199179783547713,15.2880000000000003,0,0,0.0165500839355928395,2.00553635588333716e-11,-1.99811439493909854e-05,9.81252131659242702e-10,2.9859131057555361e-07
0.15,31.2221854420015994,131.010385511560628,3.35186028506811029,4.05975476911301225,0.000248539990764711958,43.4637160193537753,0.000433543226731567866,3.32747422849243879,472.54218587214001,6.01888316560526437,2.45383766868271946,69.99995661705006,-1.43188768134039915e-09,113.700000780625842,22.182048585914238,15.2880000000000003,0,0,0.0176879988684610287,2.80404916713566325e-11,-2.55291719775422389e-05,1.33309260321839681e-09,4.07727088477750495e-07
0.16,31.2221853515819241,131.010385756490507,3.40881389436676407,4.08854462484130732,0.000272210944932510383,34.4023069357135967,0.000465877824565354701,3.32404684464906053,391.12189082975641,6.44303061809316624,2.62971580822363071,69.9999405987561403,-2.27841984783363582e-10,113.700000909623355,25.4183784408083007,15.2880000000000003,0,0,0.0189344747787753703,3.81042963600432359e-11,-3.19913711614788564e-05,1.77662362644707755e-09,5.46937370926295155e-07
0.17,31.2221852554099399,131.010386016990765,3.46923909377793649,4.13347468842419552,0.00029684158695823977,43.4155809381403728,0.000495744973995866601,3.3205135250562221,471.78125980632376,6.83404379119085981,2.79420112365087148,69.9999206448319882,1.67575894446247236e-09,113.700001047478835,28.5969980778046526,15.2880000000000003,0,0,0.0200835795555658371,5.05622819343119236e-11,-3.94162603380559734e-05,2.32482468580976756e-09,7.14768170397066036e-07
0.18,31.2221851530022434,131.010386294375877,3.53351204963262022,4.16207877285686756,0.000320492787063832857,36.2151660219171347,0.000526966735016640565,3.31665933612355879,407.101567211914528,7.2444022294323478,2.96528531587496236,69.9998961790314524,4.45070668055043651e-09,113.700001195059045,32.1341903991183955,15.2880000000000003,0,0,0.0212895378539265934,6.5741708189353534e-11,-4.79243856484647045e-05,2.99669991322666987e-09,9.21230820748327094e-07
0.19,31.2221850444828668,131.010386588308563,3.60153760019172342,4.17456309251139679,0.000342914278589344943,40.9041800427263027,0.00055982867240863632,3.31244583927210501,448.953132831826849,7.67810673790947895,3.14433961722118216,69.9998665624008964,8.30674092292676784e-09,113.700001352409558,36.0967170721845179,15.2880000000000003,0,0,0.0225641073333706747,8.40032927522686365e-11,-5.75836346763551867e-05,3.80911503044151526e-09,1.17316671380156179e-06
0.2,31.2221849296486234,131.01038689934137,3.67347464118590317,4.20078915399145636,0.000366573034254704516,37.5214898208491761,0.000590466919182690893,3.30812712915434881,418.515630199161365,8.08216006412957277,3.31318683933006453,69.9998311045104487,1.34800080829191884e-08,113.700001520067786,39.9955165273270055,15.2880000000000003,0,0,0.0237515420632470921,1.05728805481567758e-10,-6.85028882131185225e-05,4.78351733027568889e-09,1.4690610466811608e-06
0.21,31.2221848088436893,131.01038722653837,3.74905730552401684,4.22722562033261262,0.000390310433246848657,36.0064697775761644,0.000620601272787201603,3.30359776763142721,404.818761014464428,8.48018829437500621,3.47992805775657654,69.9997890742529592,2.02433263776548733e-08,113.700001697833756,44.0315784885794201,15.2880000000000003,0,0,0.0249212734096428447,1.31320595517854955e-10,-8.07208291683553139e-05,5.93661589182972911e-09,1.81631626331753899e-06
0.22,31.2221846819136672,131.010387570319409,3.82840670130281646,4.2176244726165093,0.000410696285369717819,43.5935627685881499,0.000655758920494764063,3.29841875767922987,472.542185872136486,8.94831461811120121,3.67066782999472752,69.9997397083127737,2.88926538075102191e-08,113.700001886238866,49.0266756129506618,15.2880000000000003,0,0,0.0262970098082033268,1.61186003536399267e-10,-9.43348117723774896e-05,7.29106197993283208e-09,2.23980539128825791e-06
0.23,31.2221845484548304,131.01038793178239,3.91183756115468473,4.25320537954326383,0.0004356497720089569,36.207459360748949,0.000683686922722525747,3.29355466128287455,406.340642146102141,9.31799902525197865,3.82760028360492655,69.9996821549030983,3.9766623706965518e-08,113.70000208621326,53.1608354775167555,15.2880000000000003,0,0,0.0273834518362109196,1.95767624418301473e-10,-0.000109505708778552874,8.87784718088286285e-09,2.70740355927931971e-06
0.24,31.2221844093456014,131.010388308538637,3.99866964940866776,4.27135264557773553,0.00045883378920767232,37.3286080087975947,0.000713911697673520317,3.2882529474867046,416.232824001711379,9.7203332459195213,3.9956861712714935,69.9996155408946805,5.32509871046438109e-08,113.700002296918697,57.8502398901668755,15.2880000000000003,0,0,0.0285658473732890855,2.35534745143307651e-10,-0.00012617657385590063,1.07071802425012536e-08,3.25424194465518317e-06
0.25,31.2221842644570167,131.010388700938847,4.08900446593793809,4.29698686981540234,0.000482848983334858658,38.3649566400252979,0.000742483922667206905,3.28284626589867479,425.364080791506922,10.1009615935159527,4.1562806652626314,69.9995389781877293,6.97479781374676735e-08,113.700002518962805,62.4689963611702623,15.2880000000000003,0,0,0.0296844577155840929,2.80933085873043406e-10,-0.000144451636124542286,1.28055329635332884e-08,3.87142965072796435e-06
0.26,31.2221841140756986,131.010389108203611,4.18262110402873155,4.32755423691547136,0.000507438991606541483,41.7865661614553829,0.000769736419800412888,3.27732087646770287,455.80158342417883,10.4644497354123782,4.31094871887776954,69.9994515368878751,8.97024502886333285e-08,113.700002752408935,67.0452443356678742,15.2880000000000003,0,0,0.0307527002093570291,3.32431765373287754e-10,-0.00016436315770221847,1.51925047864838523e-08,4.56355359993810651e-06
0.27,31.2221839578137299,131.010389531387915,4.27982215321117465,4.33742811840656994,0.000529702335486379188,38.2242911032538473,0.000800211178185602123,3.27123004841987974,423.842199659872563,10.8736118498261902,4.48123226393084195,69.9993522521519935,1.13587393208351198e-07,113.700002998306658,72.3900346549699947,15.2880000000000003,0,0,0.0319551720828357214,3.90484337603431509e-10,-0.000186059811616844751,1.79019946498730075e-08,5.36790267753501075e-06
0.28,31.2221837957695953,131.010389970223883,4.38053283172365671,4.35979025650862262,0.000553527510562852902,44.1207307275094038,0.000828072271385077072,3.26514386100193477,476.346873201222195,11.2478718916014184,4.63949182586423614,69.9992400702920463,1.41938296327408329e-07,113.700003257081931,77.4582454645660761,15.2880000000000003,0,0,0.0330550782151640757,4.55595825375374429e-10,-0.000209619220926101062,2.09616181379585756e-08,6.25569396794615011e-06
0.29,31.2221836278828384,131.010390424876022,4.48480177698289584,4.38135974025744623,0.00057737648726709299,35.3536197607625553,0.000855659611391794222,3.2588361863853601,397.970310422111766,11.6195889013503368,4.79682445966682813,69.9991139044831527,1.7532937395312496e-07,113.700003529427192,82.6616578528940948,15.2880000000000003,0,0,0.0341475147840558241,5.28268525040872464e-10,-0.000235137545717689308,2.44023887909330158e-08,7.24907222782668121e-06
0.3,31.2221834544381096,131.010390894570321,4.59240982688131272,4.39617507281761988,0.000600356665334356751,33.1490797613948018,0.000884158719714270942,3.25217107922164672,378.185945710871067,12.0052186882677852,4.95887519756831807,69.998972627127344,2.14383684192303281e-07,113.700003815596887,88.2385269149682756,15.2880000000000003,0,0,0.0352808420099011907,6.09029939588318471e-10,-0.000262641159892275291,2.82471356422800846e-08,8.36561857411674722e-06
0.31,31.2221832755909574,131.01039137888381,4.7032380575360353,4.42235615181669761,0.000624899913490765827,34.9528590290802086,0.000910025197609511073,3.24555398289468222,394.16562209302117,12.3556398803864607,5.10879227158949156,69.9988150759387651,2.59766173767152649e-07,113.700004116072961,93.4639131761651498,15.2880000000000003,0,0,0.0363107024397255479,6.98403788157463991e-10,-0.000292187019282257228,3.25229566712151178e-08,9.57826248689966157e-06
0.32,31.2221830914257232,131.010391877587324,4.81722282885169673,4.45155794779377789,0.000649944303128982049,38.0379859115142835,0.000934821026682707218,3.23882361682650144,421.559393462426954,12.6924793110791878,5.25399282922068878,69.9986400687318024,3.12179641788393281e-07,113.700004431478234,98.6283237403037703,15.2880000000000003,0,0,0.0373006526995305274,7.96905013945712519e-10,-0.000323836613651358495,3.72580440687311147e-08,1.09050644159405278e-05
0.33,31.22218290196043,131.01039239063175,4.9343519698327194,4.48019701204722054,0.000675004219851668761,37.7093551175013246,0.000959261610436717115,3.23189933669563656,418.515630199168186,13.0256844327599097,5.39788776638052958,69.9984463826819052,3.72372687880250348e-07,113.700004762578004,103.87354288045799,15.2880000000000003,0,0,0.0382799263433428877,9.05047894999210997e-10,-0.000357667290238851605,4.24836225249657193e-08,1.23603484615852587e-05
0.34,31.222182707020778,131.010392918491164,5.05476263450916541,4.49049305198152204,0.000697378143373914754,29.5227085089536203,0.000987142430045659337,3.22427911658814059,345.465636880756449,13.4081741031825317,5.55863100914667463,69.9982327456812641,4.41143957445642244e-07,113.700005110463266,110.062177258613033,15.2880000000000003,0,0,0.0394040418267209702,1.02333461745717641e-09,-0.000393806243978271305,4.82396483202145133e-08,1.40087103268591529e-05
0.35,31.2221825067937928,131.010393460657156,5.17831168393457641,4.50711781535187139,0.000720712543856854714,32.3530371383660977,0.00101333646443235357,3.21661305844837253,370.576570052703289,13.7686530554979374,5.71176159517965232,69.9979978091806316,5.19362042776584697e-07,113.700005475786654,116.058400304168075,15.2880000000000003,0,0,0.0404634764462946869,1.15232390415689195e-09,-0.000432299813734132244,5.45552399130644805e-08,1.57912776608867467e-05
0.36,31.2221823012122108,131.010394017312592,5.30505329869157727,4.52767240178778962,0.000744729708600240731,36.5526511043957356,0.00103828652712813154,3.20885713174522058,407.862523277719447,14.1132764952183631,5.85938873702120233,69.9977401961163537,6.07939829707116331e-07,113.700005859608282,121.939407863977465,15.2880000000000003,0,0,0.0414763190843316643,1.29254043868676357e-09,-0.000473255972436325862,6.14699225552327593e-08,1.77198251922661022e-05
0.37,31.222182090341061,131.010394588280832,5.43493909097431604,4.55039311415752579,0.00076918150115683735,34.6835787828593496,0.00106234372950533948,3.20097384516078431,391.121890829766642,14.446930470491731,6.00318739776240751,69.9974584775585669,7.0785096329375243e-07,113.700006262864989,127.771540530283914,15.2880000000000003,0,0,0.042456928843506235,1.4445318520011827e-09,-0.000516746496826029863,6.90186481791334769e-08,1.98053803654614999e-05
0.38,31.2221818741223878,131.010395173719473,5.56801609611825477,4.56315131642791805,0.000792019287104061913,36.2353933787001239,0.00108827974821363053,3.19255015153205646,404.818761014460279,14.8084413239345949,6.1564787166299757,69.9971511865591651,8.20121521966083772e-07,113.700006686723384,134.244380272309172,15.2880000000000003,0,0,0.0435194095147296359,1.60882660749176723e-09,-0.000562873331420229127,7.72423853301427293e-08,2.21128406351508731e-05
0.39,31.2221816525004634,131.010395773780147,5.704329739781131,4.57922628245169783,0.000815489716137310881,30.9425419640016202,0.00111309493143926189,3.18402316666385765,357.640624933827439,15.1559126959619999,6.30488433186772657,69.9968167722787769,9.45855271408966431e-07,113.700007132429306,140.616382889747683,15.2880000000000003,0,0,0.0445406353688629561,1.78596578656278109e-09,-0.000611756345505213715,8.61868943159197994e-08,2.45968452142520012e-05
0.4,31.2221814256617982,131.010396387955836,5.84373750626454935,4.59349479979191955,0.000838670682925170751,29.5834243852937959,0.00113797512888990423,3.17521289611434332,345.465636880754005,15.505969085398343,6.45410901523083158,69.9964536498379317,1.08621525395706341e-06,113.700007600947828,147.185065961143067,15.2880000000000003,0,0,0.045569462889951777,1.97653506559195414e-09,-0.000663427505461186432,9.58835144134294998e-08,2.72901174189528038e-05
0.41,31.2221811937141673,131.010397015953487,5.98615797249314241,4.60939449845229365,0.000862163931524819621,33.360545626359837,0.00116210409424792778,3.16624854525325983,378.946870776686467,15.8471768437686258,6.60022848408685459,69.9960602026584695,1.24241947051318175e-06,113.700008093413757,153.73182724817184,15.2880000000000003,0,0,0.0465722905345462151,2.18109996727848554e-09,-0.000717942131686907965,1.06367950505874699e-07,3.01820283711074823e-05
0.42,31.2221809567080335,131.010397657635991,6.13155423418529733,4.63387609959193458,0.000887317919769279608,37.5676427387571721,0.001183742077125155,3.15743374731593907,416.232824001711379,16.155026338188506,6.73482947265292431,69.9956347739890248,1.41574639558456e-06,113.700008611107208,159.760443802515937,15.2880000000000003,0,0,0.0474770882933877245,2.400206535531791e-09,-0.00077537935552726017,1.17680930846389008e-07,3.32294321368729263e-05
0.43,31.222180714655078,131.010398312971745,6.27991949833728835,4.65367427313455995,0.000911660169575580258,33.0386483003103493,0.00120612360190941372,3.14823214930187856,375.903139513433644,16.4750454055619109,6.87353555569934649,69.9951756835756242,1.60752723178871754e-06,113.700009155418982,166.15023929888028,15.2880000000000003,0,0,0.0484176551665520677,2.63438237315801404e-09,-0.000835821567166909188,1.29864614855892046e-07,3.65287677570896608e-05
0.44,31.2221804673911407,131.010398982407111,6.43138341412837455,4.65757387742934892,0.000932929976641759203,30.4788052564327749,0.00123214974254881528,3.13809943757763454,353.075012538921555,16.8483715860516412,7.03046484016701978,69.9946811832270441,1.81916859536649675e-06,113.700009728069276,173.762989227436179,15.2880000000000003,0,0,0.0495148886868988364,2.88411342836306464e-09,-0.000899417740154189794,1.42975581697416844e-07,4.01983191819108926e-05
0.45,31.2221802146980103,131.010399666535704,6.58611776122768511,4.65827001030579346,0.000953562143933252499,35.4620561517945134,0.00125873275223327787,3.12754579585638304,397.209385356286873,17.2316459864824161,7.19073264961644831,69.9941493995125938,2.05218870761162579e-06,113.700010330973456,181.755888424112015,15.2880000000000003,0,0,0.0506413642318551335,3.14987863732273609e-09,-0.000966369542842942814,1.57083782729145849e-07,4.41725079750487196e-05
0.46,31.2221799565319174,131.010400365476642,6.74415901717088939,4.66907507286434065,0.00097630283571516251,41.3913707355688842,0.0012823814722795761,3.11722412848720953,449.71405889764344,17.5754687869478978,7.33738035579407555,69.9935783582983362,2.30821229426708146e-06,113.700010965912341,189.078525726536213,15.2880000000000003,0,0,0.0516519027755614896,3.43223060675433133e-09,-0.00103681314204437207,1.7224885851047691e-07,4.83373548649469587e-05
0.47,31.2221796928065203,131.010401079464799,6.90557672428163105,4.67806301106434042,0.000998761260684927557,28.0209900204918974,0.00130616618884544979,3.10657060381263461,331.007810630253402,17.9233234115620377,7.48533101007974988,69.9929660462147325,2.5889364060732201e-06,113.700011634803886,196.634049649816575,15.2880000000000003,0,0,0.0526742959306323727,3.73170463860384924e-09,-0.0011108841623615434,1.88532207060213475e-07,5.28148505664365441e-05
0.48,31.2221794239793269,131.010401807256216,7.07001851744381948,4.68642527483421745,0.00102109091231145262,27.6007969606275125,0.00132978852885184593,3.09563681785184297,327.203122301157407,18.2709832353803314,7.63313726727991071,69.9923104035261474,2.89614261094227829e-06,113.700012338884164,204.33305198470137,15.2880000000000003,0,0,0.0536961221459722679,4.04904859899578719e-09,-0.00118849531779471017,2.05948560519311644e-07,5.75998398329450787e-05
0.49,31.2221791502289392,131.010402548365278,7.23734841566291642,4.70156796398202914,0.00104489945272251677,34.6487244505178253,0.00135120419031512233,3.08484494341801163,389.60000969812296,18.589315545984995,7.7707981814672209,69.9916093757078812,3.23165731652504743e-06,113.700013079832303,211.511801733856089,15.2880000000000003,0,0,0.0546317638991248022,4.38486615800834454e-09,-0.00126967773493266863,2.2453662401782158e-07,6.26054017926546362e-05
0.5,31.2221788715876762,131.010403302704333,7.40754387012007864,4.72212438923579736,0.00106996435823571525,35.6033845714535389,0.00137072557486675028,3.0741588573465477,397.970310422105001,18.8826594549893159,7.8998011517407587,69.9908609011483378,3.5973597360057951e-06,113.700013859590555,218.236320199079358,15.2880000000000003,0,0,0.0554939729313439212,4.73968531279909998e-09,-0.00135450679800636423,2.44344941868023912e-07,6.78409867869358833e-05
0.51,31.2221785881337617,131.010404070060673,7.5805467220577798,4.73558879650721298,0.00109346949398930206,27.1956639286467201,0.00139183542187690463,3.06284319292573448,323.39843497208409,19.200774511812984,8.03722958125224807,69.9900628955037689,3.99519228958782199e-06,113.700014680103109,225.647740475438098,15.2880000000000003,0,0,0.0564289867670437692,5.11403675587933804e-09,-0.00144303978709531136,2.65418546512062939e-07,7.34915902759761199e-05
0.52,31.2221782998783155,131.010404850466045,7.75636858307395194,4.74516649878375318,-14.3950247951826498,32.9068846713296281,0.845459616470839559,3.05078982766319928,372.098451184341457,20.1606198855201697,8.17728638341990255,69.9892125255241098,8.88034658211434618e-06,113.70002028280571,248.76766228809521,15.2880000000000003,0,5.0128861411609531,0.0592499853824799069,5.50882440813522554e-09,-0.00154722585262687118,-1.07896216777051183e-06,8.27353017287747234e-05
0.53,31.2221780062398508,131.010405644092913,7.93512843817431079,4.75551051044905737,-14.1974949243573771,34.5506403230514039,0.867250320474641012,3.03879838862152196,386.55624643486243,20.4780629678339778,8.31688786858483553,69.9883021132392855,-0.000204735951972804078,113.699793351107942,256.658975247383978,15.2880000000000003,0,5.03195012437429412,0.0601830392690472088,5.84579510603858133e-09,-0.0016435997778163887,-0.000301781075574726317,8.92710727718587087e-05
0.54,31.2221777068344686,131.010406451077955,8.1169037251127083,4.7656230222403968,-14.0065675547001067,30.348498407387936,0.889302234092356536,3.02654901445075053,349.270324209843579,20.7938299900459462,8.4557539443644032,69.9873354280177296,-0.000896844162434574737,113.699057185242623,264.630626681778949,15.2880000000000003,0,5.05097530944675288,0.0611111732099306471,6.03451125546933275e-09,-0.00174413017299766718,-0.000610246649954459337,9.61903731994905292e-05
0.55,31.2221774019000051,131.010407270699318,8.30149379865354753,4.77685071783080151,-13.825528802253535,32.1642355255409953,0.911358248609231869,3.01413602574551698,365.250000591990727,21.1023684724728824,8.591929372111478,69.9863100870647941,-0.00207937702360052159,113.697799078777379,272.537227768620255,15.2880000000000003,0,5.06993035521555147,0.0620180688629385288,6.07652154825953682e-09,-0.001848784367937166,-0.00092615997036535802,0.000103473226221281281
0.56,31.2221770914273797,131.01040810294171,8.48889878858920355,4.79015812126280593,-13.6565249761882779,30.0231706853267681,0.933214036071761233,3.00164020155447853,346.226561946578727,21.3993978996758152,8.72390836068567488,69.9852236853644456,-0.00376406260132914781,113.696006542629064,280.258454610921206,15.2880000000000003,0,5.0888155982628458,0.062891146083940766,5.97343193685771919e-09,-0.00195767167923963656,-0.00124963411260569008,0.00011110769166643885
0.57,31.222176775474459,131.010408947608767,8.67906715217767299,4.800993348140846,-13.4866908291779861,29.6881020300685456,0.955744423598726134,2.98872650151603825,343.182829683302316,21.7039745514354827,8.8584321697008761,69.984073771930241,-0.005962615371031545,113.693667101184388,288.287775782016695,15.2880000000000003,0,5.10763011479039708,0.0637864097311011263,5.72707971247443572e-09,-0.0020708543063329048,-0.00158064170424415239,0.00011920201569902269
0.58,31.2221764540114144,131.010409804742977,8.87201546854352685,4.80638494976458208,-13.3080710671167335,39.0811891944958418,0.979590321926443575,2.97513585575239414,426.12500585731533,22.0293450393281667,9.00017280136120945,69.9828578354013047,-0.00868684784535236725,113.690768173650724,296.990671629130588,15.2880000000000003,0,5.12637234641668726,0.064742790960098287,5.33936790968707461e-09,-0.00218844680849609617,-0.00191930585503662923,0.000127856943032978506
0.59,31.2221761266542899,131.01041067534814,9.06803459641034415,4.81744555718490464,-13.1502316588725048,31.6870177406192362,1.00252813693355503,2.96173975001869882,360.68438819711065,22.3276390925036985,9.13222459518745033,69.9815732182491814,-0.0119493269081300205,113.687296375825937,305.082341351844093,15.2880000000000003,0,5.14507001467840119,0.0656196025984954745,4.81191342755073843e-09,-0.0023108027510081678,-0.00226641326457645417,0.000136830918127458476
0.6,31.2221757935898907,131.010411558876456,9.26697298119736601,4.81934463569462945,-12.9737683171658098,28.1650756985970077,1.02762361706078553,2.9473176471551632,329.48595949860578,22.6638028665014843,9.27750712978448888,69.9802171895578056,-0.0157627758141760804,113.683238155145446,314.33210100500628,15.2880000000000003,0,5.1637039153115234,0.0666077174106486231,4.14685677425103024e-09,-0.00243791030730645649,-0.00262171121151331954,0.000146528050973888349
0.61,31.2221754547632706,131.010412455437432,9.46886654300063846,4.81951831387003438,-12.7983853280310615,32.9995177585513844,1.05340606867149189,2.93244191215988437,372.09845118432969,23.0059995092685696,9.4247792677029345,69.9787868894622278,-0.0201402022347646273,113.67857965830126,323.889568081897949,15.2880000000000003,0,5.18227603726418451,0.0676135692343268063,3.34623751716903715e-09,-0.00256991882377818328,-0.00298539835268952841,0.000156791443191881262
0.62,31.222175110270129,131.010413364730425,9.67363433352262803,4.83281038472243285,-12.661529327011678,41.0253382970364768,1.07659020924436244,2.9184568926963701,442.86563930529212,23.2864378392955622,9.550168654492456,69.9772794756146652,-0.0250949200075455334,113.673306696107801,331.827462897482349,15.2880000000000003,0,5.20078523440504714,0.0684379226192438767,2.41219133953319664e-09,-0.00270690557970939064,-0.00335747433748836283,0.000167158887780788161
0.63,31.2221747599316686,131.010414287204952,9.88140901327604837,4.84151872555460372,-12.5174951535022423,23.2753592687451949,1.10100479837495557,2.90380747902022796,286.112512747078938,23.5848816349329873,9.68178227152729676,69.9756920071561836,-0.0306397201794289149,113.667405643298864,340.380714670370935,15.2880000000000003,0,5.21923429263321204,0.0693151996401352583,1.3471191480332221e-09,-0.00284908111359405587,-0.00373828426599596758,0.000178189929742544791
0.64,31.2221744042771583,131.010415221383312,10.0917739973894918,4.84311275820785525,-12.360125048916748,22.8507960453645431,1.12729580818241071,2.88820389553549495,282.307824417967538,23.9140484706454757,9.82409603036916934,69.9740215083565289,-0.036787511620296226,113.660862743895009,349.941123062066708,15.2880000000000003,0,5.23757045458968751,0.0702827770545429581,1.53602862390132475e-10,-0.00299617945290172336,-0.0041269237072888024,0.000190001397580540971
0.65,31.2221740432799457,131.010416167302509,10.3047443437474513,4.85439347062660254,-12.2309259748256274,40.3710981820407042,1.15159879368816687,2.87326781677368537,436.778144778747503,24.1952969742267285,9.94943744939677011,69.9722649555905036,-0.043550870207700064,113.653664598429657,358.21337985118106,15.2880000000000003,0,5.25584262875805663,0.0711095300647173467,-1.16578614200196664e-09,-0.00314834860014579897,-0.00452358840121994468,0.000201995064381136334
0.66,31.2221736764659639,131.010417126219778,10.5206826185241304,4.86282393289499915,-12.0986055591507604,34.3415385083568907,1.1767983204571566,2.85778891071626084,383.512515171600171,24.4871396519469933,10.078392542753507,69.9704193656730951,-0.0509425113381128322,113.645797649316478,366.899398773668509,15.2880000000000003,0,5.2740311950296741,0.0719674256142759372,-2.60829088328848433e-09,-0.00330603813284792176,-0.00492922774308359769,0.000214666313707093418
0.67,31.2221733039961471,131.010418097660448,10.7394582122492643,4.86493980007475635,-11.9549956357965073,23.6467324915015489,1.203795666711998,2.84136833691172219,289.156244010342505,24.8068951880048658,10.2170439080296358,69.9684814206182324,-0.0589759871326710483,113.637247457225399,376.536068432644527,15.2880000000000003,0,5.29214203463906419,0.0729073634516659436,-4.1712988940913057e-09,-0.00346924408434163287,-0.00534362180093772739,0.000228200255499796413
0.68,31.2221729260160465,131.010419081192595,10.9609526672109521,4.86833520383871843,-11.8183450695930929,29.5253715357600512,1.2307840177266467,2.82477625082647199,340.899992485846269,25.1182931453889573,10.3526420511229595,69.966447900553419,-0.0676648253960379226,113.62799959522637,386.040413608266817,15.2880000000000003,0,5.31018811930922485,0.0738227452435271242,-5.85218805498684985e-09,-0.00363798593402894863,-0.00576661933711016938,0.000242298519885397919
0.69,31.2221725425897212,131.010420076607545,11.1851110692792908,4.87701803770410436,-11.6976133220475464,36.3573552261827331,1.25668403148239483,2.80848610512013508,401.014072685363431,25.401074908503567,10.4780828467955214,69.9643154032557248,-0.0770223051792493091,113.618039910915044,394.77293019527815,15.2880000000000003,0,5.32812891031507707,0.0746540305560613043,-7.64819733421883579e-09,-0.00381232522787275678,-0.00619817699884388403,0.000256762922938863958
0.7,31.2221721535832586,131.0104210842388,11.4120326927693956,4.88490778905637413,-11.578283868153596,30.4916084270968213,1.283020659385391,2.79183647544844549,349.270324209852845,25.6849478978218393,10.6038004747667998,69.9620806423256596,-0.087061565983199446,113.607354386936933,403.637111187403718,15.2880000000000003,0,5.34598509098707897,0.0754885295603905243,-9.55630990702457743e-09,-0.00399248458267011195,-0.00663863818433749198,0.000271895954556293246
0.71,31.2221717590370353,131.010422103944109,11.6416814576894065,4.88856731408400691,-11.4524873556567091,25.0547405906977794,1.31074250293915062,2.77439966382279435,301.331264063405797,25.9875130548566027,10.7359698502628422,69.9597400671168685,-0.0977960265498946379,113.595928717959012,413.193589212178381,15.2880000000000003,0,5.36377151007264885,0.0763779719498239029,-1.15736447424291699e-08,-0.00417854377753277759,-0.00708799498042479541,0.000287912757297081195
0.72,31.2221713589439283,131.010423135710937,11.8740582059353184,4.88725337387362657,-11.3186982556438931,30.6812750443069611,1.34012850016832252,2.75603322059830491,350.79220534145287,26.3133247112555466,10.8761829233413572,69.9572901393900537,-0.109239395777560047,113.583748278392974,423.609696442689767,15.2880000000000003,0,5.38147391283900056,0.0773357435676947369,-1.36973048682264903e-08,-0.00437064102939098767,-0.00754637949530688294,0.000304917537576525973
0.73,31.2221709532918901,131.010424179539456,12.1091675432154275,4.89611060067341697,-11.2108240377190942,38.8186041449774564,1.36699284259895015,2.73862864429607811,422.320318528233997,26.5841965736826431,10.9970200131904381,69.9547271323320388,-0.121405854841034389,113.570797940881022,432.36618073407692,15.2880000000000003,0,5.39907532630265408,0.0781320522968561582,-1.59244084849049236e-08,-0.00456893442553204122,-0.00801396715141506309,0.000322025453026371768
0.74,31.2221705420143181,131.010425235582431,12.3470571756627265,4.9010336126117835,-11.097006165886782,24.2954014658818025,1.39520874437327547,2.72043635777955384,294.482813471059444,26.8727162522555645,11.1239390023840361,69.9520473382425791,-0.134309052574643345,113.55706314174698,441.792001617153744,15.2880000000000003,0,5.41660880248375776,0.0789802355268719031,-1.82518554544220063e-08,-0.00477358046277299823,-0.00849091812727670835,0.000340092948889753402
0.75,31.2221701254347082,131.010426302925367,12.5874713274979317,4.90327273281155573,-10.9800887423304694,28.3685897922383106,1.42448551303756865,2.70157539482737619,330.246885564414924,27.1729118479531557,11.2548484385123757,69.9492469642919588,-0.147962729618701633,113.542529216213751,451.707237630565487,15.2880000000000003,0,5.43405578715806303,0.0798627417720379068,-2.06773109519156704e-08,-0.00498440093613559693,-0.00897662816478235134,0.000359071500254118869
0.76,31.2221697034426811,131.010427381842106,12.8304920986977073,4.90881350843269626,-10.8730267233384499,30.5396161279678964,1.45306860314609132,2.68285477586000187,349.270324209861712,27.4529542652035765,11.3785935933822735,69.9463221684495835,-0.162380491497271018,113.527181640989909,461.054990543419194,15.2880000000000003,0,5.45140416969657426,0.0806860236734278785,-2.31974944076410226e-08,-0.00520163851393313191,-0.00947146122120159396,0.000378574106875322893
0.77,31.222169275977194,131.010428472472569,13.0761634504117357,4.91482572880693525,-10.7694472436625279,28.5557235199948671,1.48176362608097967,2.66390337443318259,331.76876669607077,27.727631436676738,11.5003587486637873,69.9432689702222774,-0.177576064689684621,113.511005764242455,470.31610822631302,15.2880000000000003,0,5.468653351070909,0.0814935436763490617,-2.58092143772663556e-08,-0.00542547965056702254,-0.00997564162958748148,0.000398806582304203692
0.78,31.2221688430900493,131.010429574648469,13.3244416645659118,4.91711217514079468,-10.6603867890629669,23.4528202874288745,1.51186921292685827,2.64410526829917591,286.873437812889904,28.0198745948477814,11.6281754668150796,69.9400834343287556,-0.193563230725693591,113.49398686255239,480.270960573516106,15.2880000000000003,0,5.48582171465203317,0.0823526984455505706,-2.85096377443428437e-08,-0.00565598505725724721,-0.0104891090093390781,0.000420122065615199892
0.79,31.2221684048547345,131.010430688141895,13.5752661713042801,4.91710941224817866,-10.5489836978401925,33.3347893177660737,1.54300554638803411,2.62362765736751635,373.620332315953419,28.3223344219807807,11.7594683752161835,69.9367613679858664,-0.210355884897072298,113.476110099884707,490.683648161125745,15.2880000000000003,0,5.50290569002124652,0.0832418881280730522,-3.12960112780403166e-08,-0.00589321108899776118,-0.0110117973346375939,0.000442457574622541819
0.8,31.2221679610595864,131.010431813508006,13.8287987940184056,4.92306716380933018,-10.4523984634990281,33.7761460633794854,1.57253992509280072,2.60373359786638625,377.42502064505743,28.5890464879750503,11.8781419955274004,69.9332985462088743,-0.227968326466826077,113.457360198417732,499.956547418024286,15.2880000000000003,0,5.51991846993818669,0.0840260192287817231,-3.41645657341070694e-08,-0.00613754139792853544,-0.0115443485390495492,0.000465129753963534019
0.81,31.2221675117919375,131.010432950482766,14.0849685887199207,4.92454428782580855,-10.3486812556950394,21.9952499016112242,1.60378902609820551,2.58282244875191269,273.937492693991885,28.8780934452780258,12.0045356554511393,69.9296906511033853,-0.246414717344798778,113.437722024842685,510.10463450078197,15.2880000000000003,0,5.53682075663621553,0.0848758019713383577,-3.71127613689574431e-08,-0.006388987560381372,-0.0120865869676180602,0.00048906872614176537
0.82,31.2221670572183427,131.010434098584199,14.3436427705543572,4.92394944088566877,-10.2429479868696287,28.2432090338913255,1.63604806836452665,2.56122457054352637,328.725004432770049,29.1764734887673534,12.134097456886801,69.9259332769682516,-0.265709193009639799,113.417180470524684,520.68736902912417,15.2880000000000003,0,5.55363228642008089,0.0857530230664612925,-4.01383508012536066e-08,-0.00664750073524694469,-0.0126382161171186107,0.000514102524297564028
0.83,31.2221665973162992,131.010435257850588,14.6048362514399468,4.93069008991248037,-10.1541778462000263,35.8821648110875344,1.66611472155228602,2.54051277618755567,395.68750322465047,29.4301452867356659,12.2479181602665168,69.9220219071584097,-0.285865961267565083,113.395720346856734,529.767564224601074,15.2880000000000003,0,5.57036207807031403,0.086498848664084485,-4.32382210006203597e-08,-0.00691326557993945847,-0.0131994378656465246,0.00053929115503001542
0.84,31.2221661319819006,131.010436428548047,14.8686282744647684,4.93551107987125093,-10.063428766950663,22.1827929505122938,1.69707356483782812,2.5191765822101102,275.459374825645227,29.6917961230393601,12.3644341003606417,69.9179520856534964,-0.306898870563378168,113.373326837368609,539.215651708404266,15.2880000000000003,0,5.58701126984036556,0.0872681326696131132,-4.640901138386333e-08,-0.00718651168214695397,-0.0137705362067742088,0.000565576367068567959
0.85,31.222165661481295,131.010437609922576,15.1348087630462835,4.9336519826633296,-9.96131673715930255,24.1834411621538052,1.73066879289212139,2.49633149721775061,292.960932339393764,29.9897141917867032,12.4935449426373815,69.9137191407926224,-0.32882164893337229,113.34998525967427,550.076513236961318,15.2880000000000003,0,5.60356630117879551,0.0881440181610976953,-4.96492511380125382e-08,-0.0074670399014349605,-0.0143509082652462129,0.00059353501571820697
0.86,31.2221651856476683,131.010438802413915,15.4035062649836529,4.93613846095969944,-9.86972139080031674,30.2649928886580675,1.76302429990329745,2.47390770974809904,346.226561946558718,30.2595001804569925,12.6127196523780505,69.9093183738805664,-0.351648536388430966,113.325680370591499,560.003500768937101,15.2880000000000003,0,5.62003869010653645,0.0889372270233872719,-5.29550352928860016e-08,-0.00775522645015781689,-0.0149411397729482601,0.000621971626673009409
0.87,31.2221647044977217,131.01044000595752,15.6747061429962784,4.94049589403764955,-9.78350014892486541,28.1876034700579545,1.79495446072301568,2.45150212767864017,327.964078366998024,30.5152114641369998,12.7268794018570475,69.9047449512339369,-0.37539358501910175,113.300397127274579,569.493403636947392,15.2880000000000003,0,5.63640691625925072,0.0896890754256991218,-5.63236205101953866e-08,-0.00805118668414928768,-0.0155412707699053403,0.000651147397313799948
0.88,31.2221642180591985,131.010441220459484,15.9483854010297854,4.94134765920949626,-9.69219423758787357,24.372002062386958,1.82845336055866325,2.42810120485234293,294.482813471041823,30.7889844628436187,12.8472633418109243,69.89999396416232,-0.400070719284863707,113.274120617731853,579.742640863831184,15.2880000000000003,0,5.65268513988173193,0.0904940173863292424,-5.97525463508853704e-08,-0.00835499182570864987,-0.0161512509284211445,0.000681762339779849584
0.89,31.2221637264021084,131.010442445709089,16.2244879291039368,4.93876595117836281,-9.59606795871799889,26.722629050101105,1.86356646888074495,2.40366592150196645,315.028134248086985,31.0809353945727587,12.9739119774930813,69.8950603592695359,-0.425693919008351851,113.246835868156722,590.773710475016173,15.2880000000000003,0,5.66887612605564861,0.091352394992235797,-6.32394518327508562e-08,-0.00866670754661861935,-0.0167710211734844183,0.000713885104033241589
0.9,31.2221632294521676,131.010443681895424,16.503070884061227,4.94369887470218838,-9.51588421481210212,29.5088986987656305,1.89607603126001489,2.3803679820437722,339.378142354214447,31.3241879610257357,13.0834408565181874,69.8899390528770823,-0.452277571963256519,113.21852745388145,600.041133567327847,15.2880000000000003,0,5.68498609117404818,0.0920676469243231904,-6.67809680613780561e-08,-0.00898659807016890903,-0.0174009125151532648,0.000746008228216210297
0.91,31.2221627272702094,131.010444928836279,16.7840860295186722,4.94517213106999254,-9.4306908137399752,22.4739259596141565,1.93018710086566414,2.35603873432229793,277.742181023078899,31.5856029833932297,13.1992302762776621,69.8846248305034976,-0.479835361449554298,113.189180706118833,610.081707847984603,15.2880000000000003,0,5.70101018816226457,0.0928362889240566674,-7.03749670339352427e-08,-0.00931470074894213268,-0.0180408023696988391,0.000779677203722251521
0.92,31.2221622200368962,131.010446186015088,17.0673907115217212,4.94328296932942379,-9.34077259691385819,26.7385726350795707,1.96593139072435541,2.33064421921245613,315.028134248062145,31.865126307691078,13.3212653418094806,69.8791124467170732,-0.508381023760390738,113.158780887058398,620.910681947665125,15.2880000000000003,0,5.71694074496755977,0.0936581622421657212,-7.40203840263078776e-08,-0.00965088391094936528,-0.0186902497191174001,0.000814943831178986254
0.93,31.2221617076654603,131.010447453660589,17.3530528813287894,4.94826525750761981,-9.26503775285708464,31.7881227508183564,1.99914498839236443,2.30637075784963486,359.162507065472823,32.0986427975990551,13.4271289785726768,69.8733965328652289,-0.537928296735601053,113.127313252261686,630.027153649762113,15.2880000000000003,0,5.73278603502091322,0.0943448193410684061,-7.77134989256788537e-08,-0.0099954580015664575,-0.0193496644620344549,0.000850202532801409968
0.94,31.2221611900527094,131.0104487320516,17.6411542767370939,4.94646796630171526,-9.1782654406778903,23.0948573966740192,2.03542005670060089,2.28026815150618978,283.068750483778672,32.3718134948645044,13.5467677243233506,69.8674716849690896,-0.568490549096192122,113.094763443561675,640.778557406752384,15.2880000000000003,0,5.74854585449758204,0.0951480361114583062,-8.14511851621630171e-08,-0.0103486627768272933,-0.0200193071150937679,0.00088771237459524244
0.95,31.2221606674591605,131.01045002044836,17.9314893417026511,4.94530943167329262,-9.09409759365634329,29.8864580399973327,2.07172415797381282,2.25392841956268697,342.421873617487279,32.6381770910828664,13.6639446888138014,69.8613322948166342,-0.600081615431659943,113.061116598922155,651.348759301759401,15.2880000000000003,0,5.76421379441030801,0.0959312528576827667,-8.52331307254178109e-08,-0.0107102870390733337,-0.0206985938429608551,0.000926266386030511618
0.96,31.2221601396148394,131.010451319597877,18.2242717880979797,4.94746623594633572,-9.0172623261795195,29.28288182347789,2.10687649940817057,2.22798906303565003,337.095335156783449,32.8801582786798932,13.7725096721605542,69.8549726845233465,-0.632715107579155389,113.02635808683344,661.02424380050843,15.2880000000000003,0,5.77980225615348875,0.096642811556346922,-8.90540569717203421e-08,-0.0110809027314857627,-0.0213884000100558747,0.000965396520403911788
0.97,31.2221596065355413,131.010452629448736,18.5194900095983463,4.94759987921955791,-8.93809225293363951,18.753340211983577,2.14316587437038875,2.20122033380353654,245.021887192993233,33.1319967837436877,13.8844339248119084,69.848387014267729,-0.666404853797734953,112.99047303703712,671.169938427986608,15.2880000000000003,0,5.79530968740001384,0.0973833507919917435,-9.29117946802671937e-08,-0.0114606308239171527,-0.0220887492508815668,0.0010060985121784253
0.98,31.2221590684803765,131.010453949265553,18.8169397328904644,4.94128628010664794,-8.84883911439376014,27.2908029386419635,2.18264052448259083,2.1724919987934217,319.593746642958081,33.4231615899294852,14.0100282419259674,69.841569367914957,-0.701164462105340336,112.95344680536283,682.998776198358541,15.2880000000000003,0,5.81072548325871807,0.0982394878049747261,-9.68070735663679462e-08,-0.0118491747390002608,-0.0227989077584094674,0.00104931915029193206
0.99,31.222158525312512,131.010455279425543,19.1167301715456688,4.94523997487830513,-8.77890186855075427,29.8217985886218884,2.21772789211196786,2.14592890268158509,341.660948551705417,33.6437008451477624,14.1108468690881566,69.8345136540244624,-0.73700778512063847,112.915264479177054,692.021980175764156,15.2880000000000003,0,5.82606080539751137,0.0988880453581619245,-1.00735319324993467e-07,-0.0122469836145645411,-0.0235195030250102653,0.00109167247667372146
1,31.2221579770298128,131.010456619932881,19.4188649236905064,4.9429173576084251,-8.69917550200268153,26.6902832554244931,2.25595105408278407,2.11742012799107915,314.26720818227642,33.9025395384703856,14.2249749240634422,69.8272138520502637,-0.773947732799645682,112.875912141049128,702.690728339616157,15.2880000000000003,0,5.8413087410843012,0.0996491828485494835,-1.04694811828729361e-07,-0.0126541394437818342,-0.024250483407880781,0.00113661061068248887
1.01,31.2221574237932415,131.010457970328304,19.7232175682967643,4.94140079083172079,-8.62203814220705844,27.9149813520544718,2.29405562076749359,2.0887418933055879,324.920316103697928,34.1529457425867022,14.3360772303580006,69.8196637014703896,-0.81199773829045796,112.835375306849528,713.088450071326747,15.2880000000000003,0,5.85647158621053254,0.100385542479311959,-1.08684930845804413e-07,-0.0130705532769702266,-0.024991499960370981,0.00118265018396958321
1.02,31.2221568655331474,131.010459330807123,20.0298454645283321,4.94125463868862713,-8.54838094506957979,23.2990459305247484,2.33174177977865682,2.06006271478699476,284.590631615404163,34.3908692148536659,14.4427356643105949,69.8118568773202099,-0.851170728401971388,112.793640025675927,723.03709792360371,15.2880000000000003,0,5.8715530406599914,0.101085219221565381,-1.12702496266238071e-07,-0.0134964932544265077,-0.0257428350238162774,0.00122966119559152448
1.03,31.2221563023104629,131.010460701197104,20.3387024948366282,4.93675671429966201,-8.468454533590414,19.0293975558420527,2.37180920825406716,2.02981284527761741,247.30469339049705,34.6552212761267384,14.5585616021395463,69.8037870977218375,-0.891479349037380686,112.750692627346339,734.173568102941204,15.2880000000000003,0,5.88655037847704321,0.101862585294924826,-1.167462905742503e-07,-0.0139319819103475746,-0.0265043340234818771,0.00127905749978806044
1.04,31.222155734179335,131.010462081342865,20.6497475710905434,4.93601401816879459,-8.39596513027276892,30.2840952649412962,2.41028624588353058,2.00021233830509049,345.465636880722968,34.8907161244582653,14.6642204024761078,69.7954477465681151,-0.932936613753844401,112.706519048227264,744.163191248396743,15.2880000000000003,0,5.90146573047084289,0.102555138607602098,-1.20814493486974198e-07,-0.0143771138726615649,-0.0272759724300322588,0.00132885352190874675
1.05,31.2221551608871444,131.010463471967881,20.963185497222117,4.93171930785171142,-8.31860955487031895,18.2485971699088303,2.45080699003714741,1.96921193249516469,240.456258798199826,35.1474086861250825,14.7772148284947882,69.7868321974392529,-0.975555107405602362,112.661105668612763,755.130420156203286,15.2880000000000003,0,5.916305656909147,0.103310006750540168,-1.24901576976013261e-07,-0.0148325071851514775,-0.0280586137196107629,0.00138098932047987051
1.06,31.2221545826443396,131.010464872473733,21.278850801825989,4.924382004230762,-8.23732031814306787,26.0178451715390331,2.49321294828506046,1.93687995036290994,308.179683655939243,35.4223647621942348,14.8965278915915356,69.7779335506414782,-1.01934797757374374,112.614438257480103,766.968058900793835,15.2880000000000003,0,5.93106136585530486,0.104118565627526222,-1.29008706447321467e-07,-0.0152979198088540637,-0.0288516444717327077,0.00143542070002126076
1.07,31.2221539993484924,131.010466283155267,21.5968282698026357,4.92341189715406369,-8.16756199923145054,30.6484203889846825,2.5325610155691245,1.90603917831330816,348.509368144030759,35.6493574044331112,14.9989834853944117,69.7687447140331756,-1.06432854255627007,112.566502390824994,776.805557038975735,15.2880000000000003,0,5.94574399845961388,0.104786151398315208,-1.33131702960488413e-07,-0.01577378515431304,-0.0296556009070086911,0.00148951073328802848
1.08,31.2221534109123731,131.010467704270553,21.9171917483463012,4.92085011832287034,-8.09616188215713528,20.611697633627255,2.57298268864288238,1.87433082593449662,261.001578574662346,35.8840034453040815,15.1040392439769651,69.7592585858017742,-1.11050947258289545,112.517284323340604,787.040946796796902,15.2880000000000003,0,5.96035448490566822,0.105476240944813421,-1.37267697503791025e-07,-0.0162604037814896817,-0.0304707769542368334,0.00154552082682045443
1.09,31.222152817579726,131.010469135126044,22.239749181260553,4.91103896623861669,-8.01404718895108381,18.9541917302383673,2.61762368795085543,1.83991497378873814,246.543753324744074,36.1672927368902677,15.2260543912347526,69.7494679202082608,-1.15790336660304538,112.466770372893095,799.491950804893577,15.2880000000000003,0,5.97488412243746136,0.106309318977151401,-1.41419208108578868e-07,-0.0167574126377097003,-0.0312963638630697621,0.0016052850319694602
1.1,31.222152219418291,131.010470575531656,22.5644494735470609,4.90466955447260045,-7.93850902502372247,38.0893385622055334,2.66069388367028248,1.80613231540379005,413.189061738584087,36.4229117471483406,15.3383201122552126,69.7393653268160847,-1.20652273605227101,112.414946938134278,810.80771289712402,15.2880000000000003,0,5.98933576520202227,0.107061071971738392,-1.45584723290609054e-07,-0.0172648982801724762,-0.032132310364199855,0.00166553717909870259
1.11,31.22215161607825,131.010472026507983,22.8915788861362799,4.90540123139627315,-7.87519178377953644,27.8711627726716635,2.69998047599582458,1.77429793957550563,324.159391037639693,36.6232127522135258,15.4311389696574004,69.7289432312315398,-1.25638015336503761,112.361800340089118,819.724247714407511,15.2880000000000003,0,6.00372329716927755,0.107650231747758285,-1.49755938806351511e-07,-0.0177838195316506152,-0.0329799776106776202,0.00172497768990417062
1.12,31.2221510076182085,131.010473487902061,23.2210956564101387,4.89229799131528154,-7.79094084199216574,10.4798792305762607,2.74746973871377165,1.73736766373664353,172.73281794065943,36.9213249600873326,15.5581421635526969,69.7181940411242778,-1.3074875373547914,112.307317582231917,833.09727068761697,15.2880000000000003,0,6.01804038453050794,0.108526906003368465,-1.53933283792987216e-07,-0.0183141540048182908,-0.0338391041448435695,0.00179082188782975064
1.13,31.222150394554113,131.010474958219675,23.5525858869444562,4.88641068739063833,-7.71899739872883384,32.8625292483430727,2.79107243818728046,1.7024378212016642,367.532807790070478,37.1633026459058371,15.6654302364109537,69.7071096853973415,-1.35985804571778046,112.251484332373508,844.026207924948608,15.2880000000000003,0,6.03227745599642429,0.109238586232830032,-1.58123555623612146e-07,-0.018854994040259563,-0.0347080322838676306,0.0018557314476803585
1.14,31.2221497763139695,131.010476439143559,23.8865185827561213,4.88553753327873874,-7.6556928261079058,18.1747760264588827,2.83189116424009502,1.66888759106205198,239.695317731955441,37.3639955485333957,15.7581773656185078,69.6956823816140769,-1.41350288610899177,112.194288324215478,853.139442784525954,15.2880000000000003,0,6.04645350116798141,0.109828921009528166,-1.62313824356762949e-07,-0.0194078364801199416,-0.0355889414901848708,0.00192039661447770634
1.15,31.2221491533241959,131.010477929447632,24.2225537074533293,4.87063562220118573,-7.57160671308317657,17.9129131643689519,2.88145454235136844,1.62982323353650949,237.412511535467729,37.6666579337842649,15.8866061330418518,69.6839042305110752,-1.46843299434874486,112.135717564846871,866.988936728914723,15.2880000000000003,0,6.06055120207256159,0.110718996345048296,-1.6651211284250038e-07,-0.0199717566633531227,-0.0364801473335281123,0.00199213988902119691
1.16,31.2221485257056521,131.010479428785885,24.560597029166054,4.87062483554491177,-7.51120674773820429,46.9647348430544085,2.92210325298779994,1.5958108280491845,490.043774384589426,37.8532106407707545,15.9742795577249517,69.6717668556089507,-1.52466045411099604,112.075758822302376,875.569693023554237,15.2880000000000003,0,6.07457658695951075,0.111267781871858706,-1.70716969113961453e-07,-0.0205467885611220757,-0.0373815114804447457,0.00205958181597600161
1.17,31.2221478927134726,131.010480939374503,24.901263061776433,4.86312111551118864,-7.44018102497565614,8.28743866092738024,2.96760007284341443,1.55859127714229451,153.709379294867944,38.0926290265461702,16.0804100061734694,69.6592621443196833,-1.58219551352814869,112.014400807189844,886.651515181631225,15.2880000000000003,0,6.0885482544581313,0.111971971739803874,-1.74912369169162737e-07,-0.0211348930203499145,-0.0382958592377939597,0.00213186237656315001
1.18,31.2221472553412731,131.010482458303755,25.2437465925674474,4.84569540186279202,-7.3550895255069042,22.8177309572705589,3.01975839790717249,1.5170083523704383,280.025018221967457,38.4056014069471061,16.2123068914771942,69.6463815980436891,-1.64104915788470218,111.95163142483959,901.251331130832341,15.2880000000000003,0,6.10243590541508141,0.112892379605801965,-1.7911863711431923e-07,-0.0217336668318382775,-0.0392192569889878717,0.00221019937669792105
1.19,31.2221466131477996,131.010483986891217,25.5884136020065789,4.84938625528617173,-7.30239133614625402,39.8955866182715226,3.05840540868718946,1.48335322714820128,428.407813052929214,38.5508585847909728,16.2853007286022091,69.6331164499563471,-1.70123259973348651,111.887438323165227,908.051561887490607,15.2880000000000003,0,6.11625201201944702,0.113319800505156082,-1.83321261198011261e-07,-0.0223446557928589501,-0.0401538824968356439,0.00228085261009597666
1.2,31.2221459657610154,131.010485526276881,25.9355782945190896,4.83563950142744403,-7.22447881314422702,4.07706114616651405,3.10870247564059143,1.44225965887248608,117.184374136023607,38.8280687213075595,16.4045368017778657,69.6194583127305435,-1.76275477797608704,111.821811557549921,921.126965630812606,15.2880000000000003,0,6.12999698268980175,0.114135103644679617,-1.87513233765741863e-07,-0.0229688414030364621,-0.0411009844102521171,0.00236134744761886881
1.21,31.2221453141686709,131.010487073538002,26.2844348738653224,4.82255084406281131,-7.14839325940474701,32.0224609945826515,3.15887041615864561,1.4009053386554764,359.923432132008998,39.0972778227724191,16.5209416536951998,69.6053980841878257,-1.82562654294281823,111.754739124283361,933.912964317389537,15.2880000000000003,0,6.14365957480421265,0.114926896235087367,-1.91714774086546247e-07,-0.0236037726268537237,-0.042056655464310061,0.00244336531359466659
1.22,31.2221446576298476,131.01048863091134,26.6356004339022086,4.82398345251954286,-7.09425605833236084,23.1751998955482641,3.19921999687898584,1.3653177936027443,283.068750482576149,39.2467037701471781,16.5952123798466786,69.5909268686552167,-1.88985711368828024,111.686210743816119,941.033508328771632,15.2880000000000003,0,6.15726780444189092,0.115366592727628239,-1.95904416312143531e-07,-0.0242518354054301576,-0.043024261719243409,0.00251995978883230286
1.23,31.2221439964516279,131.010490197514684,26.9888310300278356,4.80904110233991133,-7.01701203859173095,8.97609166413112192,3.2510805654992061,1.32225211837024093,159.796873822227951,39.5230661121488325,16.7140354750591413,69.5760359807270135,-1.95545410319496415,111.616217829674412,954.300683150736972,15.2880000000000003,0,6.17080578355796661,0.11617942935897041,-2.00090719985646396e-07,-0.024912153929320096,-0.0440022634076413788,0.00260671158787953395
1.24,31.2221433310513987,131.010491772113255,27.3437878077766996,4.79949519458633223,-6.94831472389045324,38.7845042462979634,3.29934446418513039,1.28108909449144104,418.515630199805003,39.7525601802719777,16.8163631934558531,69.5607161578804494,-2.02242642438874798,111.544750388833592,965.382398137453379,15.2880000000000003,0,6.18426872197367405,0.116854503276634672,-2.04280653105708772e-07,-0.0255837642425736957,-0.0449890434837512052,0.00269243864016864174
1.25,31.2221426607505279,131.010493356789539,27.7010422353213386,4.7981875515980148,-6.89202452925859177,18.7067960508886415,3.34172796606856348,1.24330288857903826,244.260946125734876,39.9103797399356637,16.8934249722593961,69.5449583027806142,-2.09078152922113158,111.471799969007122,973.029448411086719,15.2880000000000003,0,6.19767946311379614,0.117318894245014252,-2.08453738124860595e-07,-0.0262689623927550991,-0.0459877391937104363,0.00277542912211090759
1.26,31.2221419860143783,131.010494950175342,28.0602176766694242,4.7797694438921603,-6.81210554272837765,10.9867773149881884,3.3967727410126769,1.19717502099827677,177.298446336408631,40.204411570602808,17.0183745402548787,69.5287533552417756,-2.16052589836064657,111.397359132505869,987.38539689060508,15.2880000000000003,0,6.2110046493743587,0.118183697069757856,-2.12623191130228181e-07,-0.02696633370057357,-0.0469960610987154234,0.00287000063041944814
1.27,31.2221413069986546,131.010496551819415,28.4211911788225926,4.77490928574153184,-6.75195856423831842,37.3073239267993557,3.44186267451344241,1.15700600705670009,405.579686079964688,40.3826702862408453,17.1025556451751761,69.5120914834275538,-2.23166790205917742,111.321418404353693,996.126022944708552,15.2880000000000003,0,6.22424481282338515,0.118708184718199231,-2.16787967433305906e-07,-0.0276757931416517847,-0.0480136902334539484,0.00295846493765708485
1.28,31.2221406231713523,131.010498163391873,28.7844179613406368,4.76669589882016531,-6.68770883054578658,12.0367174977384508,3.48951143395662688,1.11487052107867868,186.429688124688823,40.5840295475730528,17.1948154158151105,69.4949634689281481,-2.30421285903004058,111.2439715464767,1006.04960918184668,15.2880000000000003,0,6.23743087299742704,0.119300585908954787,-2.20933048305594558e-07,-0.0283991100919860316,-0.0490429172835456853,0.00305081631675724243
1.29,31.2221399352127555,131.010499782846892,29.1493381229252115,4.74981888228448046,-6.61211339256397679,19.8467670348960574,3.54397024160816976,1.06800285212898216,254.153128984572163,40.85428920996209,17.3113364666853577,69.4773597043320876,-2.37816659226128291,111.165011758964127,1019.4575789465805,15.2880000000000003,0,6.25054416322885054,0.12009553431720181,-2.25076420970634733e-07,-0.0291342017815605647,-0.0500805655018372667,0.00315051623328607526
