Time,Latitude,Longitude,Altitude,Angle of Attack,Angle of Sideslip,X-Acceleration,Y-Acceleration,Z-Acceleration,Thrust,True Velocity,Ground Velocity,Pitch,Roll,Yaw,Dynamic Pressure,cp,cg,parachute_deploy_gain,Wind Speed,Wind Direction,Mach,omega_x,omega_y,omega_z,Cmq,Angle of Attack(total),Angle of Attack(gust),True Velocity(gust),Acceleration
0.0,31.222216000000007,131.010392,3.000000004412624,0.0,0.0,0.0,0.0,0.0,2.2828121974499247,0.0,0.0,69.99999999623412,0.0,119.9999999935444,0.0,1.274,1.0271675151847728,0.0,0.0,0.0,0.0,0.0,0.0,0.0,-0.0,0.0,90.0,0.0,0.0
0.01,31.22221599999084,131.01039200000497,3.000002745347096,0.0,0.0,0.0,0.0,0.0,34.242186961749226,3.465174813755316e-14,2.8705476994166025e-14,69.9999999962611,-2.1713911667908447e-11,119.99999999352175,7.352495975525499e-28,1.274,1.0271659134330349,0.0,0.0,0.0,1.0183245502395064e-16,-3.3305335486039093e-18,7.169286865560398e-18,5.624298769768554e-18,-7.715917190115602e-34,0.0,89.99999999999979,3.465174813755316e-14,0.0
0.02,31.222215999994315,131.0103920000094,3.0000030495639742,0.0,0.0,0.0,0.0,0.0,25.871876237766216,3.8197434737535036e-11,2.4171837235633357e-11,69.99999999628672,-1.1921727947863515e-11,119.99999999353136,8.93414285188691e-22,1.274,1.027164492361118,0.0,0.0,0.0,1.1225230367947217e-13,-6.657678965418802e-18,1.4338573731120796e-17,1.1241821275959074e-17,-1.7010872994127372e-30,0.0,89.99999999975682,3.8197434737535036e-11,0.0
0.03,31.222215999994315,131.0103920000094,3.0000030495639742,0.0,0.0,9.81877837424427,-2.5122800045972096e-05,3.3498614629347925,180.34219359854663,1.2659015405517447e-10,1.1364406173918436e-10,69.99999999631459,-1.6431898037347223e-11,119.99999999352724,9.812605835254651e-21,1.274,1.0271551940870716,0.0,0.0,0.0,3.720154642239108e-13,-9.991600645811728e-18,2.150108433310316e-17,1.6859343782149594e-17,-8.453698244545225e-30,0.0,89.99999999919412,1.2659015405517447e-10,10.374487003414373
0.04,31.222215999994315,131.0103920000094,3.0000030495639742,18.83801224594347,-0.0001111777826462,48.68248476615645,-1.016330065874988e-05,3.3497854396877287,548.635972453808,0.1556173050466994,0.0975908358443652,69.99999999633813,-2.0932768807056278e-11,119.99999999352085,0.0148286043323172,1.274,1.027133720825283,0.0,0.0,0.0,0.0004573186944143,-1.3322134194415637e-17,-1.04744143520903e-11,1.336824254131964e-11,5.0626055458604615e-15,18.83801224625964,89.06236267790787,0.1555998412814392,48.79759610369246
0.05,31.22221599164764,131.01039201704114,3.002326315126219,5.772385609593056,-4.395076213712875e-06,71.20344550265034,4.905512691849684e-05,3.349217396035405,761.6984298824663,0.8326471944351852,0.3620326097059287,70.00000001316391,-1.0866255162484559e-10,120.00000000231074,0.4245281043148827,1.274,1.027093426565204,0.0,0.0,0.0,0.0024469331205246,-5.0245994431125096e-18,-7.32924164976824e-07,2.217344936947165e-11,1.895424184525467e-09,5.772385609594774,84.74112356985832,0.8326465040582279,71.28217104309611
0.06,31.22221596664444,131.01039206837547,3.015081730143309,4.056581213689704,3.169093567502233e-05,53.16249142470188,0.0001203825427859,3.3481235983850643,590.4875390737236,1.657216205300742,0.6755452977614796,69.99999964391398,-3.9285905645317736e-10,120.0000000287861,1.6816755551786196,1.274,1.027050317124926,0.0,0.0,0.0,0.0048701272653724,3.095757869075056e-13,-7.483541766772344e-06,3.074135420506017e-11,3.8518749565858254e-08,4.056581213813337,79.59316473687034,1.657221183301277,53.26781792157489
0.07,31.22221592883117,131.0103921460222,3.034593611434361,4.115662018628709,6.450869598349036e-05,81.18203554989698,0.0001593212642178,3.347059402768047,855.2937749779172,2.099899704220947,0.8579771146174259,69.99999543281565,-8.233801910783518e-10,120.00000006883089,2.700101932075157,1.274,1.027003201295312,0.0,0.0,0.0,0.006171060252819,3.4704292086287e-12,-2.6327204536316785e-05,1.9541142932033486e-10,1.7170712165327165e-07,4.115662019133419,76.90111966094352,2.099909837223217,81.2510043180746
0.08,31.22221588914193,131.01039222747755,3.0542761843835606,3.459696193892355,8.037433511260004e-05,16.298214211652088,0.0002413456836072,3.344878926597744,241.2171988638792,3.051964775152957,1.2149999716613011,69.99998042886442,-1.0128995578004475e-09,120.00000011111383,5.703497661025892,1.274,1.0269597189470347,0.0,0.0,0.0,0.0089689344021769,1.458982438104473e-11,-5.702803872814215e-05,7.043261397829576e-10,5.405702492731987e-07,3.459696194824858,71.30331929508368,3.051977400323993,16.63790856991177
0.09,31.2222158241468,131.01039236098703,3.0886872184095737,4.313676956300389,0.0001337561018991,50.35975918308536,0.0002293282821279,3.344215841840564,563.0937377043203,2.893161298572128,1.191209213966114,69.99994788602814,-7.098432023887522e-10,120.00000018106356,5.125380275808925,1.274,1.026918932011013,0.0,0.0,0.0,0.0085022553945842,3.8672912027154325e-11,-0.0001115933708951,2.016054215232918e-09,1.0027525988343615e-06,4.313676958370176,72.2316578138625,2.893182308931483,50.47067588835877
0.1,31.2222157788302,131.01039245392113,3.109877853389092,4.035124630954496,0.0001457499816535,47.804664812504015,0.0002878217657545,3.341734392237128,538.7437595981891,3.5677148583138303,1.4531247507621967,69.99988403958329,1.9248461973355822e-09,120.0000002323013,7.7939962029572305,1.274,1.0268846934974103,0.0,0.0,0.0,0.0104845969583028,8.579678749070606e-11,-0.0001726817043215,3.984565639703107e-09,1.913455350430327e-06,4.0351246335824245,68.43243098813296,3.567737752667411,47.92132267234452
0.11,31.222215703308,131.01039260899836,3.148841432727305,4.043401107254707,0.0001752764476999,37.67622367577205,0.0003286462930162,3.3392563999062723,442.86563930529127,4.034183355956686,1.6436552022667772,69.99978525353545,7.302513231814865e-09,120.00000031883242,9.96528118825134,1.274,1.026848594915519,0.0,0.0,0.0,0.0118554331868328,1.5870341853361987e-10,-0.0002596204409236,7.232030302688121e-09,3.252930323390323e-06,4.04340111104746,65.92012987243639,4.034210888316708,37.82391391539392
0.12,31.222215627491828,131.01039276462643,3.186995101203875,4.17874459224363,0.0002066711490009,41.15991989399172,0.0003576945202315,3.336766085769504,475.58594813540793,4.361857560629481,1.7865750500940407,69.99963665601238,1.781774420198147e-08,120.00000041104812,11.649831899889556,1.274,1.0268114448194128,0.0,0.0,0.0,0.0128183893919737,2.682972478760441e-10,-0.0003710216542429,1.2215991071490164e-08,5.026311388647148e-06,4.178744597345269,64.21681651392016,4.361890024457652,41.29495143136631
0.13,31.22221554594398,131.01039293200228,3.2277173449026786,4.202734874672792,0.0002327160860324,45.44886120763352,0.0003953741266062,3.333578629398489,515.9156326236897,4.792165672014363,1.9646716520715424,69.99942424225341,3.613383418913551e-08,120.00000051758742,14.061726603124043,1.274,1.026779572895131,0.0,0.0,0.0,0.0140829618979635,4.248908088871395e-10,-0.0005056103199642,1.908859219307828e-08,7.5253154423526356e-06,4.202734881104192,62.048594618540655,4.792202226971676,45.570952718869485
0.14,31.222215454191247,131.01039312033683,3.2737880595608355,4.184830647080848,0.000257138757548,42.32232525579263,0.0004369426767266,3.329727443445437,486.2390860568421,5.269261304374574,2.158791628597544,69.99913473613935,6.515851355725497e-08,120.00000064630268,17.000925061330125,1.274,1.0267449573927567,0.0,0.0,0.0,0.0154850332441425,6.382432869666793e-10,-0.0006690086306358,2.8426433029675884e-08,1.0948547100483978e-05,4.184830654966803,59.74181173116622,5.269301695636157,42.45310707234106
0.15,31.222215353826755,131.0103933263496,3.3242182719560263,4.21963947489699,0.0002846467688673,40.886944113003565,0.0004726792395108,3.325585650885676,472.5421858721398,5.6781946837482895,2.329510773545807,69.99875162806286,1.0876776246115984e-07,120.00000079954532,19.742017654108928,1.274,1.0267115958081523,0.0,0.0,0.0,0.0166867950518804,9.204756288136623e-10,-0.000865746478554,4.08948221429571e-08,1.526771148078443e-05,4.219639484480408,57.84996018384879,5.678239395958187,41.02196629910223
0.16,31.222215247130432,131.01039354534575,3.3775922280208457,4.253495568077899,0.0003118339050386,32.26872905470846,0.0005078415214353,3.32090791922544,391.1218908297597,6.081244877834229,2.4981889727471702,69.99825581174558,1.7187028096464329e-07,120.0000009800088,22.644030778355887,1.274,1.026675762255412,0.0,0.0,0.0,0.0178712695992133,1.2856146928958252e-09,-0.0010961187242953,5.6923362293832417e-08,2.0702404729358337e-05,4.253495579487569,56.06022383757386,6.081293860589489,32.43916312841722
0.17,31.22221513260033,131.01039378041813,3.4348437275053194,4.364838523348639,0.0003448792023946,40.840448242802736,0.0005326487904353,3.3162727284953744,471.78125980632416,6.362544479165355,2.6250789114832647,69.99762801982864,2.5997588617291615e-07,120.00000119506798,24.78723182122683,1.274,1.0266409836796937,0.0,0.0,0.0,0.0186979513961862,1.747791994374917e-09,-0.0013624931601664,7.706724512977917e-08,2.6923621797558364e-05,4.364838536947241,54.85936171416122,6.362598652663785,40.97486885600156
0.18,31.222215014088988,131.01039402363364,3.4935801365785646,4.353948305387995,0.0003681615230806,33.992183768165326,0.0005718025428208,3.310131992647221,407.1015672119096,6.81502088160835,2.810667639293692,69.99684761766231,3.794979223522764e-07,120.00000144728236,28.437950785509614,1.274,1.0266048342046536,0.0,0.0,0.0,0.020027681385988,2.3221419748804155e-09,-0.0016616990447559,1.0147209890543081e-07,3.517105786247627e-05,4.353948320923495,52.99157233768714,6.815078712285162,34.152972512863755
0.19,31.22221488419521,131.01039429023237,3.558399965607869,4.432620772533925,0.0003996774584738,38.45149959021069,0.0005986099513107,3.304145139297767,448.95313283182486,7.1223367465208405,2.946425726785696,69.99589577323147,5.440084577183829e-07,120.00000176148238,31.060341085698347,1.274,1.026566130444714,0.0,0.0,0.0,0.0209308229359413,3.022391489754689e-09,-0.0020041563310821,1.3135864879722746e-07,4.433199397898183e-05,4.432620790516937,51.77883352025967,7.122399527709208,38.59320142454953
0.2,31.222214751373183,131.01039456280608,3.624052454705669,4.443889400961181,0.0004246617145652,35.23432408779927,0.0006337972852267,3.2968110145188256,418.5156301991588,7.530482904611057,3.1167566004785483,69.99474776398331,7.478025600151903e-07,120.00000211715036,34.72195181863731,1.274,1.026529240027363,0.0,0.0,0.0,0.0221302820454282,3.866698391504749e-09,-0.0023849544920781,1.668144671071589e-07,5.57780533277244e-05,4.443889421210987,50.22448880200342,7.530549610317194,35.38822625098952
0.21,31.222214608673173,131.01039485566503,3.6948551453492566,4.493351735844891,0.0004538195602194,33.79371564104691,0.0006629296043866,3.2891790438445727,404.8187610144608,7.868284042829251,3.2629204975089228,69.99338155599101,1.0150082652278477e-06,120.00000255293388,37.906665490338085,1.274,1.0264923657015164,0.0,0.0,0.0,0.0231230169900677,4.871073773182836e-09,-0.0028117605859743,2.089322918608601e-07,6.870935089180403e-05,4.493351758715364,48.992529909481824,7.868355328639073,33.95340801819282
0.22,31.22221446109996,131.01039515850383,3.767700382407304,4.5412639153933885,0.000482649303782,41.008966751568416,0.0006914639179131,3.2808061382386606,472.5421858721387,8.20057841132235,3.4071691679735228,69.9917708347139,1.3454961520984431e-06,120.00000305929996,41.175744234065135,1.274,1.0264494137127138,0.0,0.0,0.0,0.0240995709751246,6.054779813287368e-09,-0.0032829112061357,2.580881224843564e-07,8.3609968899004e-05,4.54126394098788,47.82515604752711,8.2006542256977,41.13999323561041
0.23,31.22221430675399,131.0103954752338,3.843768625625224,4.52371495179584,0.0005047555656171,33.98493478127787,0.0007294889663961,3.2705214710765107,406.340642146096,8.647938096586296,3.5908865300848416,69.98989017772566,1.7539876018835507e-06,120.00000365514876,45.79040229326471,1.274,1.0264133390858623,0.0,0.0,0.0,0.0254142776666487,7.436335125872812e-09,-0.0038001790077148,3.1489825108822685e-07,0.0001020628978177,4.523714979897577,46.31461705147579,8.648017383405135,34.14194053232237
0.24,31.222214142622448,131.0103958120587,3.92493179063287,4.57837522350066,0.0005351929930195,35.051650311058864,0.0007555049947555,3.26053011385611,416.2328240017099,8.954297884844461,3.72617527247482,69.98771316795013,2.25257161141768e-06,120.0000043564586,49.09180568115741,1.274,1.0263750048312463,0.0,0.0,0.0,0.0263146218848643,9.034877387788232e-09,-0.0043732521010013,3.809642748985157e-07,0.00012161410144,4.578375254714954,45.32798984252032,8.954381952763216,35.20297212911011
0.25,31.22221397517227,131.0103961556623,4.0071748888306855,4.6034117733065,0.0005618935542827,36.03738579534623,0.000785606492708,3.249069743648399,425.3640807915084,9.311611941121669,3.8789349536029696,69.98520781816889,2.8559738498748624e-06,120.00000517181904,53.08749562138344,1.274,1.0263373768840591,0.0,0.0,0.0,0.0273647110956883,1.0873791100894836e-08,-0.0049950711786164,4.5609738277273444e-07,0.0001444478241125,4.603411807525074,44.2165428352526,9.311700203154778,36.183554686886296
0.26,31.22221379934012,131.01039651647062,4.09364247475714,4.621386912291471,0.0005881033207375,39.29107511182762,0.0008162761165496,3.236407051295005,455.80158342417656,9.67833954512075,4.034902068846398,69.98234620927953,3.5784678110229355e-06,120.00000612171208,57.350948423913096,1.274,1.0263006300381676,0.0,0.0,0.0,0.0284424679130479,1.2973286442992724e-08,-0.0056712051373577,5.414206381221602e-07,0.0001704578711045,4.621386949630312,43.12063533194282,9.678431924174348,39.42414126789902
0.27,31.222213616776543,131.01039689108487,4.183310605341074,4.617158109135719,0.0006115457810536,35.90419462403674,0.0008503454714941,3.221982799915672,423.8421996598744,10.088790784535757,4.205862468567124,69.97909721779352,4.436165972465058e-06,120.000007221354,62.31798301949865,1.274,1.026260090595354,0.0,0.0,0.0,0.0296487219805601,1.5355910600537293e-08,-0.0064045199323113,6.379142666348734e-07,0.0002006609239367,4.617158149547818,41.94410287616451,10.08888684592241,36.048472443180565
0.28,31.22221342607797,131.0103972823952,4.277051150896916,4.642105655370123,0.0006389739579882,41.51133203546672,0.0008785747638736,3.2071101123224945,476.3468732012228,10.432377224420517,4.35383399240675,69.97542808435722,5.446665372087172e-06,120.00000849080963,66.63429581008447,1.274,1.0262212716723291,0.0,0.0,0.0,0.0306584788590473,1.8045308789081613e-08,-0.0072006835403936,7.469524967369969e-07,0.0002332868227611,4.642105699250441,41.0023231023774,10.432477594215127,41.63503624837164
0.29,31.22221323001776,131.01039768469093,4.373143569786686,4.62134615173668,0.0006600657405645,33.17552944492765,0.0009148746278066,3.1894209319791806,397.9703104221098,10.876662296046485,4.536381530986506,69.9713027936179,6.629751536885327e-06,120.00000994797426,72.43000748232016,1.274,1.026183007522519,0.0,0.0,0.0,0.0319641703260467,2.1067646517035105e-08,-0.0080566154554079,8.688043379161898e-07,0.000272130659453,4.621346198772975,39.83162628795024,10.876765978930557,33.32848872465723
0.3,31.22221302403368,131.01039810736614,4.4744193758467325,4.664362353358112,0.0006905183788532,31.08096762732793,0.0009381960428197,3.172549142946348,378.1859457108735,11.168362145070317,4.66647911311536,69.96668711012893,8.005507138509574e-06,120.00001161892672,76.36634300732833,1.274,1.0261430389738484,0.0,0.0,0.0,0.0328214509167604,2.4447409007156216e-08,-0.0089829108229115,1.0056222251461646e-06,0.0003115527202986,4.664362404357781,39.09908960432563,11.168470611443622,31.242464973103964
0.31,31.22221281503337,131.01039853619727,4.576593712520673,4.700143580504286,0.0007196683316923,32.79732593144512,0.0009620705970519,3.154230688182399,394.1656220930229,11.470279728974068,4.800072153432283,69.96154070456518,9.597499105113692e-06,120.00001352112182,80.55022837857167,1.274,1.0261054058068628,0.0,0.0,0.0,0.0337087616009043,2.8214060606649844e-08,-0.0099686353219717,1.1565909895184251e-06,0.0003550834484269,4.700143635477137,38.36463422765983,11.47039277421126,32.94865339301887
0.32,31.222212598991007,131.01039897947376,4.68216432480395,4.718667719113184,0.0007464384342556,35.7316568886908,0.0009885845337584,3.133859770838664,421.5593934624264,11.808280530415894,4.946054328851105,69.95582953472353,1.14278227255889e-05,120.00001568218067,85.36654007972253,1.274,1.026068246703101,0.0,0.0,0.0,0.0347021168382987,3.2392058795580455e-08,-0.0110163301561155,1.3226102501723267e-06,0.0004039614423012,4.718667778018562,37.5686120062341,11.808397780690962,35.8688218659563
0.33,31.222212376029034,131.0103994369436,4.791055524254013,4.72141404831576,0.0007708346814671,35.42013590291081,0.0010176135371143,3.1111955852784385,418.5156301991632,12.181577273013426,5.104163223586657,69.94951809396906,1.351997394754887e-05,120.00001812674968,90.84831229869296,1.274,1.0260310883392356,0.0,0.0,0.0,0.0357992034445943,3.700677535501642e-08,-0.0121310534481307,1.5051409581878843e-06,0.0004588955105349,4.721414111097893,36.7208578211118,12.181698355442045,35.55651229220977
0.34,31.222212145785647,131.0103999093516,4.903491659547144,4.73024573449122,0.0007962944975467,27.63851074646407,0.0010446307681611,3.0871492806781062,345.4656368807584,12.53557620048282,5.2556261014174765,69.94256797855994,1.5899658158227497e-05,120.000020882338,96.20413272674828,1.274,1.0259901535019136,0.0,0.0,0.0,0.0368395817555172,4.208561016221623e-08,-0.0133180771902383,1.7057647550599631e-06,0.0005184333231541,4.730245801363397,35.94841996438923,12.535701282129995,27.810389570354005
0.35,31.222211909310875,131.01040039453565,5.018822212845608,4.780248518778662,0.0008286678570753,30.332092807652543,0.0010618579815451,3.063967690608957,370.5765700527057,12.774786382148209,5.367579971644358,69.93493776125636,1.8594985713558667e-05,120.00002397748868,99.9096898192772,1.274,1.025950003202184,0.0,0.0,0.0,0.0375426220587071,4.7658312175989686e-08,-0.0145774693288123,1.9252724355785177e-06,0.0005782798420984,4.780248590437683,35.44790728185619,12.774916548990808,30.486451961956565
0.36,31.22221166933814,131.0104008868675,5.135354490370708,4.798132156899578,0.0008554457330409,34.32674769697476,0.0010851169437774,3.0374319611165923,407.8625232777224,13.09301701329486,5.506730645516068,69.92658597246795,2.163521613217148e-05,120.0000274401514,104.94818266210537,1.274,1.0259105142325406,0.0,0.0,0.0,0.0384778908056978,5.3755109608570216e-08,-0.0158991451700967,2.162609490834569e-06,0.0006464142451675,4.798132232978766,34.796094028187134,13.09315138639638,34.46087058603792
0.37,31.222211421355144,131.01040139563804,5.255882891363927,4.797392186816851,0.0008791822061288,32.551601855236584,0.00111162791192,3.0078619428913056,391.1218908297639,13.457513730739372,5.661815946371007,69.91747693543164,2.5047738471809164e-05,120.0000313040604,110.87154396328836,1.274,1.025872170958032,0.0,0.0,0.0,0.0395491312153729,6.040098808671168e-08,-0.0172926678053148,2.420031948898497e-06,0.0007226353721561,4.797392267189059,34.07332166419882,13.457651832357364,32.69027405888565
0.38,31.22221116634284,131.01040191882743,5.379799334000849,4.811698494594017,0.0009057112478668,34.02947987649063,0.0011338447913587,2.9774881690446744,404.81876101445977,13.77554886562956,5.800899861213392,69.90756948297444,2.886339581486796e-05,120.00003560072224,116.17243393848278,1.274,1.02583050512925,0.0,0.0,0.0,0.0404838339452728,6.762496638941508e-08,-0.0187646375218858,2.69955777313946e-06,0.0008026686661094,4.8116985796350695,33.46655348088405,13.775691134419684,34.15949264475229
0.39,31.222210906095896,131.01040245274032,5.505993307722699,4.813508003664984,0.000929862892873,29.00025983045028,0.0011579891265804,2.9442136901860865,357.6406249338268,14.124492165837273,5.950648592462506,69.8968186645841,3.311602501056718e-05,120.00004036395212,122.13093644173792,1.274,1.02579027384009,0.0,0.0,0.0,0.0415093739609825,7.545934774906889e-08,-0.020311592409804,3.0013532510753577e-06,0.0008908380763632,4.813508093268025,32.821616487639595,14.124638228358922,29.149330452482886
0.4,31.222210638473225,131.0104030017851,5.635788650457906,4.841647069358873,0.0009592124397379,27.71178845184976,0.0011749448424961,2.91135549588368,345.4656368807565,14.390874239274588,6.07193451174791,69.8851815212744,3.783947407715338e-05,120.00004563180136,126.77947425345651,1.274,1.0257493418632293,0.0,0.0,0.0,0.0422922854866381,8.39343718693383e-08,-0.021938519432511,3.3271332720311508e-06,0.0009803271643914,4.841647164150728,32.348088166612904,14.391024912012275,27.864299944624147
0.41,31.22221036681104,131.01040355909262,5.767123077463226,4.86553909860892,0.0009876699832274,31.306062598221665,0.0011918093836199,2.876450850006428,378.9468707766882,14.663028799871563,6.195223154320929,69.87261222561014,4.307011032901644e-05,120.0000514391194,131.6183642808765,1.274,1.025708445186429,0.0,0.0,0.0,0.0430921644173401,9.308325447883581e-08,-0.0236371933433427,3.6760977501392174e-06,0.0010761942383903,4.865539198612839,31.87689439156756,14.663183942709727,31.437931330109585
0.42,31.22221008906472,131.01040412887247,5.901259531771367,4.867510642114694,0.0010118258958528,35.308283402190774,0.0012128114559048,2.8374461227958245,416.23282400171047,14.9952917972178,6.33928625560071,69.85906967380902,4.884273094936628e-05,120.00005782486392,137.64909586091787,1.274,1.0256701057426505,0.0,0.0,0.0,0.0440686959134695,1.0293499639582845e-07,-0.0254093547296826,4.049238334851429e-06,0.0011830797791891,4.867510747027452,31.315270489291198,14.995450734457847,35.422111438762386
0.43,31.222209804115888,131.01040471342728,6.038886819939341,4.854590670645608,0.0010330089741511,31.00586934514032,0.0012363751872706,2.794478603999558,375.90313951343126,15.369430568701889,6.497852263156962,69.8445117629242,5.519340856908871e-05,120.00006482835984,144.60167924299955,1.274,1.0256308158337524,0.0,0.0,0.0,0.0451682983415116,1.135186446762958e-07,-0.0272634397889413,4.449073329427772e-06,0.0013010625065656,4.854590780289497,30.70250814963406,15.369592833372094,31.13154422839874
0.44,31.22220951192321,131.01040531284193,6.180028459770617,4.866912332640401,0.0010595850174406,28.57707721036899,0.0012525768202179,2.752165534925872,353.07501253892326,15.659290812546615,6.627318538707029,69.82889155423543,6.216182865383864e-05,120.00007249162944,150.1053167542629,1.274,1.025586171750536,0.0,0.0,0.0,0.0460202245100907,1.2486676023179565e-07,-0.0292060158163984,4.8779154055816594e-06,0.001420032405556,4.866912447705031,30.24619499837236,15.659457251771938,28.709297424144207
0.45,31.222209215425703,131.01040592106523,6.322872201489905,4.881836476567178,0.0010866574689855,33.31904824532484,0.0012669045761511,2.7082028218433374,397.2093853562887,15.934249290371609,6.751662050993672,69.81215834018458,6.97909417564726e-05,120.00008085697964,155.42080512416243,1.274,1.0255397023523487,0.0,0.0,0.0,0.0468283602442113,1.3701614206272197e-07,-0.0312276295846745,5.334643585560923e-06,0.0015449645531859,4.8818365972149325,29.82567893138932,15.934419982127675,33.428929688274074
0.46,31.22220891307435,131.0104065412864,6.468371919199588,4.869610441729251,0.0011078049156487,38.95909776354321,0.0012868374716666,2.6582856015412624,449.7140588976424,16.292139278621757,6.904766425053949,69.79426683863348,7.812149592850748e-05,120.00008996920153,162.4785746623087,1.274,1.02549635315424,0.0,0.0,0.0,0.0478802236363867,1.499987870203256e-07,-0.0333272350234362,5.819761874615242e-06,0.0016858511402973,4.869610567434908,29.29014635640275,16.292313292210977,39.04968351401366
0.47,31.22220860266524,131.01040717804253,6.6178810515614845,4.838450928223533,0.0011247917292402,26.253747818137555,0.0013104398935566,2.6026193242279367,331.0078106302504,16.710658191447514,7.078951441335346,69.77517236812905,8.719457259907165e-05,120.0000998741591,170.9309671061642,1.274,1.025453319323251,0.0,0.0,0.0,0.0491102725711187,1.6384464803343264e-07,-0.0355167087264168,6.3368207228363735e-06,0.0018427306558807,4.838451058652396,28.68386015667837,16.710834873319172,26.382435512333956
0.48,31.222208284201663,131.0104078313267,6.771393590864176,4.869339340099417,0.0011561785713505,25.860860976019296,0.0013165328518772,2.5543454292827983,327.20312230115803,16.911139899671,7.177575416403102,69.75482343794755,9.70562828082882e-05,120.00011062072316,175.0543877818846,1.274,1.0254092882449153,0.0,0.0,0.0,0.0496995461609974,1.7858865391586845e-07,-0.0378054080201581,6.88909442277235e-06,0.0019849793891693,4.869339477030596,28.40887970825325,16.911321511776286,25.986704537635287
0.49,31.22220796480208,131.01040848648364,6.924537656029012,4.881367714530694,0.0011829003785372,32.565703383222065,0.0013261973190012,2.5011623511055703,389.6000096981238,17.169005224738054,7.296160258358563,69.73316318155707,0.0001077573203115,120.000122255028,180.4309832312717,1.274,1.025367445590036,0.0,0.0,0.0,0.05045746454003,1.942747077649401e-07,-0.0401641298712614,7.47069711110948e-06,0.002140948887153,4.881367857509675,28.058569663954906,17.169191034294997,32.66161128464712
0.5,31.222207637929923,131.01040915697027,7.081324512896956,4.862566137860805,0.001202418260511,33.47759680712428,0.0013425340759632,2.4399894027711366,397.970310422106,17.52898693231981,7.450304424940405,69.71015149227495,0.0001193385310595,120.0001348274002,188.0736471953394,1.274,1.0253278572281015,0.0,0.0,0.0,0.0515154948878309,2.109295159784217e-07,-0.0426011733481599,8.084173008518589e-06,0.0023184335011768,4.862566286171007,27.57768313050809,17.529175807738486,33.56639745442473
0.51,31.22220730314019,131.01040984370235,7.24202048914867,4.8479762258125,0.001223054804074,25.49162310288008,0.0013562860883156,2.3767006597692686,323.39843497208153,17.86914397471067,7.597652147346554,69.68574349602717,0.0001318441288964,120.00014838524436,195.4407439266201,1.274,1.025286455263166,0.0,0.0,0.0,0.0525152689856776,2.2858192086249162e-07,-0.0451315948093539,8.734206149830708e-06,0.002503767471626,4.847976379721193,27.13799345359824,17.86933609171003,25.602178740977283
0.52,31.222206962738102,131.01041054193402,7.405210501673173,4.865306299521403,0.0012516517170965,30.733671928447727,0.0013599291289974,2.317711624364424,372.098451184342,18.08534843773428,7.701914987606457,69.65988568649581,0.0001453248538387,120.00016298000436,200.19561780583155,1.274,1.0252426840672306,0.0,0.0,0.0,0.0531507657929359,2.4726951523704535e-07,-0.0477531686556663,9.421346966092632e-06,0.0026812161964639,4.865306460134566,26.8699055233151,18.085545046726228,30.820940596104087
0.53,31.222206619320115,131.01041124632013,7.569307468221277,4.848802699234936,0.0012715119568563,32.301199055744725,0.0013711327835325,2.2490252325653923,386.55624643486095,18.41963113311156,7.8474319110539055,69.6325258319474,0.0001598315062727,120.0001786629144,207.6614205945027,1.274,1.0251993415311351,0.0,0.0,0.0,0.0541332845214831,2.67031759303889e-07,-0.0504479325599339,1.0141887756417996e-05,0.0028848299490111,4.848802865552398,26.45837260670532,18.419830861742675,32.37940050117613
0.54,31.22220626697288,131.01041196903336,7.737918664599091,4.831496690588052,0.0012913635058467,28.31291960103712,0.0013809098107221,2.177242866245296,349.2703242098436,18.75116898748492,7.992112829440902,69.60362200959217,0.0001754082864028,120.00019548734956,215.20067397992847,1.274,1.0251561018460285,0.0,0.0,0.0,0.0551077428911958,2.878941684235108e-07,-0.0532336286085667,1.090122304443916e-05,0.003098869611663,4.831496862756785,26.061835558272342,18.751371834390056,28.396510432451375
0.55,31.222205908994248,131.01041270328463,7.909026079894722,9.733191319765169,9.297818225662493,30.185670857136675,-0.5263022773373187,1.815646682234368,365.2500005919912,20.15488583947672,8.113323699629928,69.57312211246325,0.0001921068626005,120.00021350480982,248.62252994758688,1.274,1.025112921033824,0.0,3.7596053489187766,0.0,0.0592332356177263,3.0989272306468813e-07,-0.0561100530405476,1.1700476995263424e-05,0.0035107731766435,13.429437566264813,34.42032336603195,21.608982020748854,30.244806034379348
0.56,31.222205546564343,131.01041344664463,8.081909946161325,11.525760380996235,-7.397848794297048,28.174937677143525,0.327104462556941,1.5366184990713807,346.22656194657776,20.780030904372964,8.247294810559758,69.54097415464405,0.0002099796112633,120.00023276987916,264.28040583126966,1.274,1.0250709539098009,0.0,3.773321678167647,255.00010927308023,0.0610705948450627,3.3302698971832e-07,-0.0625881051614596,0.0063968696062511,0.0040374999779952,13.668587651785192,19.33032997986044,19.621205632190943,28.21870491096349
0.57,31.222205178420328,131.01041420495483,8.258296221886255,11.436134128893007,-7.305501454636087,27.872703530391888,0.4383791681590719,1.3520924934625576,343.1828296833045,21.05342405131368,8.367011488353532,69.50511423405666,0.0100165048196521,120.01070091644786,271.2755840648269,1.274,1.0250279191823897,0.0,3.786930847216913,255.00010927308023,0.0618741952136834,3.622876038953544e-07,-0.0707790230775057,0.0009668332745417,0.0046258813224237,13.54415423739693,19.14470592477078,19.90898541725202,27.90892209489779
0.58,31.22220480355018,131.01041497099322,8.436591298799339,11.34228644244567,-7.223437774075907,36.816695265628944,0.5543735534649294,1.1602449509390664,426.12500585731766,21.332841372289504,8.48930129177987,69.46456149633492,0.0114768236237127,120.01226028976656,278.5192417239894,1.274,1.024981594484354,0.0,3.800559440921576,255.00010927308023,0.0626955046931051,3.920321004746754e-07,-0.079125757198574,-0.004537222352065,0.0052399402229136,13.421677272493516,18.947742596739317,20.20118979823851,36.83914424447378
0.59,31.22220442342083,131.0104157492852,8.617573400550294,11.174750644797246,-7.0965196658034175,29.804611678862805,0.678655355722524,0.9451837252284556,360.68438819710633,21.744167412566945,8.659257025329886,69.41922691090349,0.0045285751754395,120.00483961445909,289.3582139127491,1.274,1.0249386802161349,0.0,3.814095960681348,255.00010927308023,0.0639044893082627,4.222878357174905e-07,-0.0876293005363923,-0.0101245723601247,0.0059148581044102,13.213432991793228,18.655018487322096,20.632296621521697,29.827316719646316
0.6,31.22220403333961,131.01041654657715,8.803456086120665,11.08295213702727,-7.017341624223859,26.4757487146864,0.8036434247326267,0.739323343105362,329.4859594986072,22.00953760246311,8.776694663022024,69.36901948761196,-0.0108921295541189,119.9883650649902,296.4587917667328,1.274,1.024891335813742,0.0,3.827598085144357,255.00010927308023,0.0646845281818537,4.530725113969288e-07,-0.0963412434227576,-0.0158275600147783,0.0065821475931987,13.09421979176087,18.47787931207603,20.91000985053586,26.498258655296485
0.61,31.22220364067547,131.0104173481164,8.989873368796898,10.995267800472256,-6.941489154228148,31.08879179923853,0.9318140679713924,0.529019669764732,372.0984511843332,22.2603855634792,8.889019716666931,69.31381719683992,-0.034885086921213,119.96272346067047,303.2494960186386,1.274,1.0248423929069768,0.0,3.841223291783284,255.00010927308023,0.0654218907931152,4.844214736472537e-07,-0.1051976553993951,-0.0216049836424406,0.0072690125631245,12.980241092200586,18.314288170758665,21.172684398034963,31.10725180411584
0.62,31.22220324188972,131.0104181611977,9.178956900488696,10.861792715124084,-6.838008550480596,38.732377645165016,1.0676647799641108,0.2999494949285299,442.86563930529206,22.594721654635,9.0318066399173,69.25353315215096,-0.0674736090864956,119.92788234138692,312.4214395374168,1.274,1.0247996097896497,0.0,3.854650140782052,255.00010927308023,0.0664046254492145,5.163604688216685e-07,-0.1141890365511987,-0.027450505485186,0.0080086662546867,12.813074861420734,18.09408539653197,21.523157804151268,38.74825100349127
0.63,31.222202835067204,131.01041898976652,9.371844184548513,10.683107132969807,-6.707571040359708,21.87997286090928,1.2134954453976488,0.0480868389836113,286.11251274707456,23.01836851560168,9.207284664152484,69.1880843764922,-0.1086577744115748,119.88383308047668,324.24095615113293,1.274,1.024756158874558,0.0,3.8680272689769777,255.00010927308023,0.0676498471270951,5.489101557051147e-07,-0.1233457733661774,-0.0333827705299378,0.0088129145351533,12.593538629843144,17.81709630008304,21.96715075648733,21.913650903813608
0.64,31.22220241933348,131.0104198356406,9.569044878439696,10.637554165575008,-6.6594487177838975,21.497094306744057,1.3481927954602706,-0.1661399355228322,282.3078244179702,23.15803942100688,9.279743637109847,69.1173688983489,-0.1584518143634418,119.8305508808249,328.1815395585522,1.274,1.024708534665538,0.0,3.8814408752198095,255.00010927308023,0.0680604844256175,5.820936935236416e-07,-0.1327008178285988,-0.039422018679881,0.0095386719288032,12.529749662343423,17.73954792032394,22.11432932862588,21.539969589694277
0.65,31.22220200476516,131.0104206780085,9.76453431422633,10.551032339158883,-6.58674045782693,38.16442491705566,1.48956407403813,-0.3970946536227529,436.7781447787504,23.374265484076545,9.380294589253868,69.04126418738615,-0.2168855914720663,119.76799310467428,334.33232053600926,1.274,1.0246641738210605,0.0,3.8949200273501794,255.00010927308023,0.0686961150501998,6.159610319985252e-07,-0.1421302244774869,-0.0454898587848171,0.010311664767463,12.418432885554203,17.610777664644008,22.341900158106228,38.19554705124905
0.66,31.22220158233816,131.01042153554707,9.963701125640766,10.348074965159636,-6.44341187177701,32.44866733842465,1.6519978164020734,-0.6798149557337952,383.5125151715984,23.83637014927851,9.571183139752971,68.95971729667616,-0.283857711268377,119.69625657032638,347.6757127837602,1.274,1.0246195561629028,0.0,3.908055682885944,255.00010927308023,0.0700543812363272,6.505313779090533e-07,-0.1516612211373227,-0.0516031204001859,0.0112204618836542,12.171582677754678,17.322247758607727,22.826373424473765,32.497803882711565
0.67,31.22220114799224,131.0104224167345,10.168939223392444,10.217793585213808,-6.345098602020864,22.30277462600555,1.8082268242114428,-0.9414811617332948,289.15624401033847,24.133313817133686,9.70197216898363,68.87265811433498,-0.3592788285146717,119.61542422056868,356.38504664225457,1.274,1.024572383541697,0.0,3.9212157822703735,255.00010927308023,0.0709272540466377,6.858145051841795e-07,-0.1613911692340233,-0.0578220031749409,0.012088829003968,12.009809618670536,17.147194270282355,23.138664033166656,22.39575466565245
0.68,31.222200711575823,131.01042330113793,10.374387734316468,10.13617714564466,-6.276978465167975,27.907068306368537,1.9580200271494843,-1.184955298603186,340.89999248584934,24.309392569395552,9.788601614315697,68.77995893598586,-0.4431342812127644,119.5254978782317,361.5973167378109,1.274,1.0245245285832842,0.0,3.934546781816208,255.00010927308023,0.0714449110404642,7.218583059924707e-07,-0.1712444402169665,-0.0640988051884083,0.0129202086046849,11.905054355578072,17.05112685080387,23.32537822495772,28.000757542300985
0.69,31.22220027163178,131.01042419178023,10.58091891094898,9.993613218373907,-6.172227170103668,34.41362064064392,2.121874244304673,-1.4609352184155209,401.0140726853658,24.61720547192357,9.924254904390002,68.681533959073,-0.5353249141698962,119.42656884558497,370.8052488553436,1.274,1.024479631064582,0.0,3.9476641857141326,255.00010927308023,0.0723497367493752,7.587035123394671e-07,-0.1811643373015347,-0.0703980124484128,0.0138414562907618,11.72950453361598,16.8741257258213,23.649548413820018,34.50991115055505
0.7,31.22219982259099,131.0104251003586,10.79181847154318,9.819988409561256,-6.049189993487088,28.85260000785675,2.296618782499028,-1.759864861626363,349.270324209851,24.99312383395553,10.085717412137267,68.57732856571187,-0.6356872502561319,119.3187964630666,382.20877936551454,1.274,1.0244351749185203,0.0,3.9606453338554575,255.00010927308023,0.0734547320703536,7.963672451281886e-07,-0.1911990904183571,-0.0767490510510427,0.0148309131934067,11.518055422910471,16.65931919239807,24.044683594007005,28.997312106067515
0.71,31.222199365982146,131.0104260237579,11.006167960617756,9.689391770261093,-5.9527398393785695,23.700592685903423,2.4646037598990094,-2.0407529483424804,301.3312640634036,25.255531241484366,10.205517063994163,68.46725892191837,-0.7440882714724015,119.202306427546,390.26863888210863,1.274,1.0243880468141104,0.0,3.973694390720583,255.00010927308023,0.0742261263172652,8.348763560714131e-07,-0.2013694642213613,-0.0831642160478997,0.0157834781564593,11.356968616154049,16.5165494874001,24.322158332635134,23.91562330261488
0.72,31.222198905896928,131.0104269533907,11.221553494715865,9.5734704977776,-5.865539032435892,29.060992184510155,2.630187324918038,-2.315188156628308,350.7922053414578,25.46942005112379,10.30765163566932,68.35122776411666,-0.8603998728596469,119.07721814880608,396.8987827307784,1.274,1.024337302174265,0.0,3.9867159109976646,255.00010927308023,0.0748549284357832,8.742767282040948e-07,-0.2116204835850215,-0.0896091819076229,0.0167270889686566,11.21315699265841,16.404328873331444,24.549671828908423,29.271474993804322
0.73,31.22219844093417,131.01042789223547,11.43879969460082,9.41324318776499,-5.752052220847766,36.80277839425933,2.8101371290941968,-2.6207583210084406,422.3203185282354,25.787394549251875,10.449385226156616,68.22916823545813,-0.9844333694973462,118.94371522494043,406.86237032351926,1.274,1.024292465384646,0.0,3.9995990514244415,255.00010927308023,0.0757896450212462,9.146053618070808e-07,-0.2219243950979585,-0.0960664970899901,0.0177601675286007,11.018022977877902,16.233700485129436,24.885381255183724,37.00283424818172
0.74,31.22219796758074,131.0104288478512,11.659958471387188,9.21779388097025,-5.617939834679612,23.01082776034607,3.004899566826281,-2.9570789396101045,294.4828134710563,26.193126927789105,10.62496837178584,68.10102835832207,-1.115965580854716,118.8020175710864,419.7571151211197,1.274,1.0242470321640116,0.0,4.012394780748914,255.00010927308023,0.0769822923055854,9.558832060983514e-07,-0.2323153582081666,-0.1025566766493663,0.0188838522609066,10.782209001731012,16.01735809258416,25.31207633951525,23.393843879920883
0.75,31.22219748568088,131.0104298207048,11.885106997488707,9.106196354033967,-5.534488575560407,26.891357356522,3.173248378171976,-3.2351090801437747,330.24688556441737,26.357782624793703,10.709957345784376,67.96673526952841,-1.2547925301252307,118.65232365104988,425.0418818279328,1.274,1.0241984712898409,0.0,4.025219000079634,255.00010927308023,0.07746641652246,9.98136114430392e-07,-0.2428197208169142,-0.1090953628036483,0.0198613499040936,10.644006485350427,15.938752943375,25.489778496810025,27.27050671524403
0.76,31.22219700390569,131.01043079218158,12.109177505881664,8.945752556763024,-5.422227879424844,28.960058530093576,3.359478382646881,-3.55143857919278,349.2703242098581,26.647441608720605,10.843033345192564,67.82619969251417,-1.4007219775479776,118.4948184457904,434.4258657937516,1.274,1.0241522053390697,0.0,4.03804746185996,255.00010927308023,0.0783179320771767,1.0414286141140787e-06,-0.2533297402704722,-0.1156163484057695,0.0209482760074352,10.449287491700328,15.792901326809922,25.7969908011526,29.369777000373976
0.77,31.2221965125808,131.01043178321933,12.33781311851638,8.77749233702279,-5.3055611947717045,27.078871599611546,3.550138815288799,-3.876661961893887,331.76876669606884,26.94855749716379,10.981308084406663,67.67939402632389,-1.5534636536346456,118.32979206010828,444.28960070007327,1.274,1.0241065975906936,0.0,4.050622591452694,255.00010927308023,0.0792031284177518,1.0857769932105592e-06,-0.2638867064624567,-0.1221445287517609,0.0220673453153594,10.245617139950518,15.643913744897118,26.1163523983218,27.584366599268943
0.78,31.22219601566788,131.01043278537625,12.568692491741665,8.618247616504647,-5.194696612118408,22.23340108354704,3.737936962351376,-4.195627806816585,286.8734378128874,27.21191292962768,11.105834334056912,67.52626593875459,-1.7127552207730892,118.15750393459832,453.005649289817,1.274,1.0240588105546735,0.0,4.063261804276896,255.00010927308023,0.0799773512369951,1.1312146076474589e-06,-0.2744844046603231,-0.1286755434610791,0.0231773710231898,10.052618230186722,15.517743338008302,26.397049337042056,22.932500717752433
0.79,31.222195513747728,131.0104337974423,12.801475683003884,8.474749175703801,-5.093452952323763,31.624046065427816,3.9178873605801847,-4.498634797838021,373.6203323159581,27.413085019408648,11.207009405008904,67.36676606656819,-1.8783230128538475,117.97822527352344,459.7180864514223,1.274,1.0240083170932772,0.0,4.0758342563229215,255.00010927308023,0.0805688189833419,1.1777812578654746e-06,-0.2850973229178159,-0.1351936358003392,0.0242509507711647,9.878009150668516,15.426214972552977,26.61406068927632,32.18179370331637
0.8,31.222195007857703,131.01043481718295,13.035559133412397,8.275931942652797,-4.959785572575323,32.03902950691902,4.124936787834484,-4.857596074374824,377.42502064505805,27.77700707338153,11.37234747765136,67.20085941907575,-2.0498685879613534,117.7922537252078,471.9944592369128,1.274,1.0239625010683884,0.0,4.088310225513494,255.00010927308023,0.0816386248971402,1.2255187042228328e-06,-0.2956904975793629,-0.1416773138628702,0.0254853599933402,9.639456481266944,15.253591030276352,26.998898411245165,32.666661214005934
0.81,31.222194491847866,131.0104358584022,13.2744916635519,8.086537158320885,-4.832043113791869,20.84092031498221,4.3285314150620975,-5.2093339334056,273.9374926939922,28.101015305307225,11.523185916162012,67.02853115950529,-2.227063657367999,117.59991909767724,483.05886843433854,1.274,1.0239149950770308,0.0,4.100658117398276,255.00010927308023,0.0825911310723149,1.2744367294948751e-06,-0.3063155399498574,-0.1481573044628669,0.0267084713207281,9.411982400629675,15.105379204366196,27.342899165370483,21.91386099746799
0.82,31.222193970897514,131.01043690970604,13.515270701608284,7.942632596936635,-4.731458670264974,26.772114397338875,4.505063357001196,-5.5068615660910005,328.725004432774,28.25757279424439,11.608886085155804,66.84973603049808,-2.4096178997254887,117.40150985439584,488.445041117036,1.274,1.0238644186635044,0.0,4.113076967160911,255.00010927308023,0.0830514916631215,1.3245774806824066e-06,-0.3169440053943354,-0.1546160162601986,0.027788515401284,9.237340718786047,15.04287876302874,27.51520142801654,27.701393998549687
0.83,31.22219344825549,131.01043796375427,13.756027944798891,7.753009200864167,-4.604249517318121,34.01807803545897,4.706625466604841,-5.855777509705589,395.6875032246518,28.557360939383347,11.752129457039231,66.66444529682086,-2.5972177165666963,117.19733962181397,498.85243324525527,1.274,1.0238188483711983,0.0,4.1254089859270655,255.00010927308023,0.083932823374195,1.3760000175899758e-06,-0.3275005481222195,-0.161008064586586,0.0290180355799379,9.009920320900664,14.912483460623896,27.83490525992936,34.83779681255178
0.84,31.222192916113144,131.01043903840238,14.001248876202794,7.538725512714602,-4.462882830791632,20.98777389710536,4.924212036427769,-6.237202476620224,275.45937482564227,28.935469685860404,11.927877010252663,66.47267462753278,-2.789495092341736,116.98778139062824,512.1377614275582,1.274,1.0237739661568126,0.0,4.137561343966344,255.00010927308023,0.085044356542838,1.4287114907314438e-06,-0.3380265518729354,-0.1673578848170352,0.0303465294963427,8.754118411474135,14.748635397734104,28.235150350351297,22.441862936709928
0.85,31.22219237626468,131.01044012983328,14.249887115764045,7.382224024890931,-4.3556362687339965,22.87524145573452,5.100017339000068,-6.53634784320749,292.9609323393965,29.085033055039805,12.012853753906583,66.27441567780639,-2.9861156553370343,116.77317182123991,517.4334249898495,1.274,1.0237227741398531,0.0,4.149761239293065,255.00010927308023,0.0854841786529255,1.4827322384357964e-06,-0.3485364193048767,-0.1736735573182264,0.0314510418557624,8.565258959743389,14.69632567439039,28.40151010849018,24.331269832124665
0.86,31.22219183655092,131.01044121994144,14.497453290666437,7.197007325750316,-4.231883136137736,28.633851327077608,5.292416622908325,-6.869847333376812,346.2265619465616,29.327284289319287,12.1360668406924,66.06965192938604,-3.1867580265368534,116.55383367632363,526.0762905040617,1.274,1.023674789281455,0.0,4.161947906453275,255.00010927308023,0.0861964229981026,1.538133489203816e-06,-0.3589340752168384,-0.1798977593923998,0.0326582961792609,8.343346208162073,14.603065414530434,28.6631458757803,29.91825392491221
0.87,31.22219128861545,131.0104423282428,14.748724587957597,6.988956559879857,-4.095030112808012,26.63638072240924,5.499916221197993,-7.23431871021354,327.9640783669946,29.64594787478929,12.291620726844442,65.8584241574945,-3.391038643970594,116.3301582058451,537.5578799335448,1.274,1.0236288969245204,0.0,4.1738973692254575,255.00010927308023,0.0871332607017938,1.5949253959789368e-06,-0.3692399979154109,-0.1860424384050075,0.0339602270422912,8.095153084502444,14.478281860633665,29.00324954837046,28.143937599957066
0.88,31.222190733631976,131.01044345228587,15.003016003674547,6.791835962405972,-3.9648452899388382,22.985971489781,5.695683394399507,-7.5769644976362756,294.4828134710421,29.906919721539484,12.424754573753813,65.6407618461687,-3.59859626676526,116.10251302974092,547.0503687676068,1.274,1.0235805388426191,0.0,4.185855095957023,255.00010927308023,0.0879005427788235,1.6531220896642984e-06,-0.3794661909795953,-0.192114183796224,0.0352071338649287,7.859727123189458,14.383669644913155,29.284620213082103,24.86375043425074
0.89,31.222190174427777,131.01044458548756,15.258713411395348,6.601212729346381,-3.838669944500893,25.191168552165845,5.8810732072666,-7.900874626441162,315.02813424808807,30.123989798485308,12.540796811267564,65.41668822347968,-3.809085499323712,115.87124921005164,555.0067490877504,1.274,1.0235293752791452,0.0,4.197786928399278,255.00010927308023,0.088538796965254,1.7127624451292117e-06,-0.3895781161590433,-0.1980924075409474,0.036406780811681,7.631914567741357,14.312185870444807,29.52146392497134,27.048212786718466
0.9,31.222189610605938,131.01044572886468,15.516041257969563,6.395327343132917,-3.7039202297362817,27.804552958889825,6.075865940997968,-8.244815779912894,339.3781423542166,30.392354498102275,12.679335286234,65.18624797405457,-4.022147173722433,115.63673387264213,564.9255802894851,1.274,1.0234837388140003,0.0,4.209617744942157,255.00010927308023,0.0893278192861712,1.773879644423438e-06,-0.3995469357093265,-0.2039599720974115,0.037670089483362,7.386622972751463,14.221679286122432,29.81094922047637,29.630833593089967
0.91,31.22218904001493,131.01044688781244,15.776212117077248,6.180248864754559,-3.564158546133306,21.084651430031588,6.275636046148723,-8.60008375534531,277.7421810230785,30.689161269381543,12.831174562949911,64.94950408756306,-4.237414606805048,115.3993435851954,575.9990079553403,1.274,1.023436404813438,0.0,4.221359642974448,255.00010927308023,0.090200444962698,1.8364857361357447e-06,-0.4093744852151227,-0.2097176429000072,0.0389726054405,7.130875391710942,14.123080298363,30.12966555678336,23.620067195260233
0.92,31.222188463181435,131.01044806127996,16.038918607337326,5.985179041332157,-3.4360736714721405,25.09788546318789,6.447946290088522,-8.903991983603698,315.0281342480675,30.873564660514056,12.936649894034908,64.70651974522933,-4.454534505029318,115.15944147909684,582.9271612314202,1.274,1.0233859136578225,0.0,4.233068423545485,255.00010927308023,0.090742705541994,1.90059634893409e-06,-0.4190541138333134,-0.2153612095278266,0.0401328107785547,6.898259481201647,14.076906626533969,30.334150939338816,27.400017141002728
0.93,31.22218788387191,131.0104492400414,16.302032817298485,5.767955158511332,-3.2956110247696264,29.84995140641085,6.638937933720459,-9.2460759748361,359.16250706547066,31.1516113115642,13.08323858052044,64.45736343365625,-4.673162138909245,114.9173826300728,593.4591034111011,1.274,1.0233407575091376,0.0,4.244729929383486,255.00010927308023,0.0915602041871474,1.9662548856649504e-06,-0.4285359800270273,-0.2208615588907434,0.041409456029689,6.640303888042567,13.994867704274109,30.634223345881956,31.94659632551366
0.94,31.22218729655941,131.01045043805857,16.56866310591261,5.538440443334621,-3.148438677512435,21.54382773621104,6.8398933792263055,-9.609339450705436,283.06875048378083,31.48112091357505,13.253567509510669,64.20213492164666,-4.8929369964242015,114.67354119753185,606.0647416311876,1.274,1.0232914783978162,0.0,4.256251299535174,255.00010927308023,0.0925289707016032,2.0334557045821348e-06,-0.4378330741232639,-0.2262259502669628,0.0427542557289575,6.368366255609545,13.896267425823964,30.98681417595765,24.561352968548043
0.95,31.222186702433813,131.01045165266845,16.838127240623017,5.332893039673292,-3.0150695534460468,27.946207867652028,7.002571611540201,-9.901017423831522,342.421873617488,31.663914849987325,13.361637626614105,63.94092780515835,-5.113521744333394,114.4282674176742,613.1074921435912,1.274,1.0232418269359267,0.0,4.267770022347447,255.00010927308023,0.0930665196239334,2.102201605204808e-06,-0.4469434228384349,-0.2314528175197318,0.0438961588022016,6.124060832877127,13.863155064239496,31.19052738425549,30.4640228693418
0.96,31.222186106536007,131.01045287107186,17.1075973844458,5.100552424439424,-2.866933207874929,27.316759979337508,7.195072863426257,-10.252345330183978,337.09533515678265,31.984119798697623,13.53114496198732,63.673838465906016,-5.33459304584436,114.18189777645736,625.5542409018441,1.274,1.0231951201821403,0.0,4.279255477171089,255.00010927308023,0.0940079512418907,2.172539465645405e-06,-0.4558094015640365,-0.2365090171759882,0.0452184635275319,5.849206253172715,13.77837040184877,31.53397088129827,30.051373247292602
0.97,31.222185501091428,131.01045411351893,17.381418411527843,4.87278434800521,-2.7216005404898858,17.256815184070597,7.374053338709715,-10.580015723022033,245.0218871929888,32.26380183541963,13.684490676947776,63.40099961874756,-5.55581192821775,113.93478819449616,636.5255310480266,1.274,1.0231476260761452,0.0,4.290588504138416,255.00010927308023,0.0948302876491424,2.2444425899615512e-06,-0.4644521797980957,-0.2414063187931024,0.0464775519796904,5.579719289302481,13.715457890033775,31.836454570935523,21.54323712069982
0.98,31.222184891319287,131.01045536672737,17.656663627122107,4.66512011654967,-2.587680213144139,25.30864639917032,7.5110253406809635,-10.829643749161244,319.593746642963,32.39723251586856,13.77395028101492,63.122533039997215,-5.776868484801283,113.68726430050133,641.7843018210939,1.274,1.0230935628253934,0.0,4.30195337307014,255.00010927308023,0.0952227649913615,2.317927193976143e-06,-0.4728432333555783,-0.2461281329770496,0.0475116714392698,5.333350617182791,13.715756681098938,31.99089882758172,28.534615258670225
0.99,31.222184279959595,131.01045662343395,17.931810338892607,4.429134190869259,-2.438344429743186,27.64633563645876,7.686585370156785,-11.15586170753894,341.66094855170127,32.701679398820175,13.941484794010393,62.838579495062056,-5.997454857327292,113.43965164602,653.8857918264662,1.274,1.0230490803133316,0.0,4.313227504972534,255.00010927308023,0.0961179013731954,2.393031969398888e-06,-0.4809309993309379,-0.2506453837923439,0.0487771665827207,5.054790213476631,13.652911041684144,32.31878075447288,30.78728177696387
1.0,31.22218365883772,131.01045790572425,18.211393408242067,4.19223509590836,-2.288780415604914,24.603392910043485,7.856239479786622,-11.473411000329724,314.2672081822764,33.00175218368635,14.108934540140083,62.54931278112603,-6.217255626459225,113.19228673721804,665.9231666968644,1.274,1.022999484445133,0.0,4.32435125743637,255.00010927308023,0.0970001916300734,2.469706999682119e-06,-0.4887408099482366,-0.2549718609621555,0.0500227637358573,4.775353206911218,13.59754455610109,32.64232700623006,28.261043884333485
1.01,31.22218303276924,131.01045920100685,18.4927274210174,3.961136593930505,-2.142726865416879,25.696136795118143,8.005438147742895,-11.754563987327442,324.92031610370094,33.24558649187728,14.252335082586772,62.25489335361012,-6.435987215220545,112.94547282891288,675.7816411412966,1.274,1.0229507481225095,0.0,4.335509727515476,255.00010927308023,0.0977171902763883,2.547947956644033e-06,-0.496253809240141,-0.2590965651590919,0.0511656148348743,4.502728467261897,13.569473287671594,32.90908619301336,29.369171943773573
1.02,31.222182402257303,131.01046050799343,18.77553284811236,3.7241853762846464,-1.9938070819207767,21.237529519731886,8.157125443882702,-12.04335688842722,284.59063161543185,33.52176605100249,14.412256212635452,61.955494995449214,-6.6533751551604094,112.69950546567348,687.0373964806009,1.274,1.0229039803623294,0.0,4.346594382670304,255.00010927308023,0.0985292662897655,2.6277611143184893e-06,-0.5034405775677429,-0.2630030405613681,0.0523363771723343,4.223650433960737,13.534407524736446,33.20864277121785,25.741285918748297
1.03,31.222181765126376,131.01046183292044,19.061003606442103,3.493829740295595,-1.8486699653940155,17.107728563031515,8.282685808442999,-12.285156771227076,247.3046933904342,33.72668244805062,14.54058869062138,61.651311238557206,-6.869150176291601,112.45467701065476,695.4436326298146,1.274,1.022853416101322,0.0,4.357595716718184,255.00010927308023,0.0991318886675945,2.709122166216525e-06,-0.5102907277417132,-0.2666851745418036,0.0533713197521944,3.952238549614001,13.531938330055274,33.43634443134793,22.631887629655946
1.04,31.22218112466144,131.01046316680154,19.347325069660343,3.2656917067333624,-1.704932798071516,27.72053187006252,8.389947386144318,-12.495015427392447,345.4656368807608,33.8929294537956,14.65203034060174,61.34254386692871,-7.083057413828576,112.2112662932156,702.2972379389718,1.274,1.0228049544826707,0.0,4.368561323440594,255.00010927308023,0.099620855665159,2.7920332004063046e-06,-0.5167744377254629,-0.270126470978163,0.0543143803585838,3.6835294983418434,13.549188406446104,33.62515875694982,31.542741079877587
1.05,31.22218048031424,131.0104645112779,19.63479704784225,3.018056343284521,-1.5513325510772544,16.207166886194447,8.539669807811267,-12.789265940548685,240.4562587980608,34.23950151683166,14.850679690357309,61.02941472203764,-7.29484817206076,111.96954803335616,716.7135589384642,1.274,1.022755494436122,0.0,4.379422445270385,255.00010927308023,0.1006398549212023,2.8764814556145026e-06,-0.522870711287815,-0.2733154560308064,0.0555155256369487,3.3930915687637286,13.503861987474938,33.995848542514615,22.341968181014842
1.06,31.22217982617501,131.01046588370411,19.92664253419109,2.790594691045017,-1.4083935971680523,23.507771579388685,8.618555851460936,-12.951199427762427,308.1796836557233,34.36168354403113,14.943730054820556,60.71216037380181,-7.504284544899934,111.72978767725157,721.8175684968539,1.274,1.0227013895379469,0.0,4.390192957114401,255.00010927308023,0.1009993160456524,2.9623798602212e-06,-0.5285938001185088,-0.2762588658840959,0.0563218657192516,3.1256075372696306,13.54796150516486,34.14047587343621,28.189153875402855
1.07,31.22217917330592,131.01046725215537,20.21681262013355,2.5474011545561144,-1.2578491164288168,27.820512161319567,8.736042995600169,-13.190321876195016,348.5093681440431,34.65161583326497,15.119153171173608,60.39101065267173,-7.711153012144401,111.49222577135704,734.0294062138779,1.274,1.0226540159946436,0.0,4.400994077165358,255.00010927308023,0.1018518476778412,3.0497690671673383e-06,-0.5338938647215247,-0.2789304634824843,0.0573649806416268,2.840843950124404,13.534550327162613,34.45404922688004,32.004436182140964
1.08,31.222178510519143,131.01046864958784,20.51140274163309,2.301920219284584,-1.1065559590688718,18.201617799392984,8.85324459763811,-13.432403999063691,261.0015785751465,34.97061595659677,15.31094847195418,60.066227588967294,-7.915239273708202,111.25710684659468,747.5852986861705,1.274,1.0226061614050743,0.0,4.411602871088603,255.00010927308023,0.1027898296815333,3.138553136053308e-06,-0.5387807397082361,-0.2813346325711371,0.0584213362433074,2.5539467277756165,13.516146207937863,34.796809358271524,24.292144977643495
1.09,31.222177842030806,131.0104700640334,20.808100969049857,2.067934561826732,-0.9612677521995476,16.545315728371076,8.914053084391561,-13.569839242109705,246.54375332456465,35.1249630410292,15.4234668006245,59.73806908815828,-8.116351040638534,111.02465321122956,754.1774874756645,1.274,1.0225512795791307,0.0,4.422244877094268,255.00010927308023,0.1032438508049608,3.2286787114190675e-06,-0.5432408435509682,-0.2834633985830536,0.0591632546089866,2.280348168331127,13.563368549740822,34.97397453914736,23.18077548313547
1.1,31.222177172417208,131.01047148172609,21.104428643671977,1.8315145322179025,-0.8151333125836469,34.63393151437315,8.971793996098244,-13.704848496177902,413.1890617384087,35.30347387960476,15.549207589169658,59.40680314057995,-8.31430813039033,110.79507627405816,761.8409910353826,1.274,1.0224981043155532,0.0,4.432835548949049,255.00010927308023,0.1037689000163017,3.3201554442774064e-06,-0.5472410884155366,-0.2853002203072006,0.0599000997246006,2.004659937868423,13.606478062128184,35.17543735749501,38.312206565974556
1.11,31.22217649722085,131.0104729163174,21.40279476132197,1.5797895247084166,-0.662630932962496,24.837153719568214,9.100495738144206,-13.980070675917805,324.1593910379213,35.76232217997472,15.817709820336768,59.07271958596699,-8.50893678480675,110.5685831515255,781.7509695894349,1.274,1.0224548851875197,0.0,4.443288768907116,255.00010927308023,0.1051179649259696,3.41291967711444e-06,-0.5507724347392265,-0.2868401478377404,0.0610684457617546,1.713097609526825,13.552682133471842,35.658238676677136,29.91898400135103
1.12,31.22217580945832,131.01047439001618,21.706939272253376,1.341290989496858,-0.5165626960791327,8.237367294984953,9.150475555797934,-14.107813438078272,172.7328179403806,35.98490136722981,15.969264614259428,58.736115478918606,-8.700077346163084,110.3453677498036,791.4891249566809,1.274,1.0223979224661404,0.0,4.453692145570191,255.00010927308023,0.1057725659729239,3.50680668352014e-06,-0.5538422550924241,-0.2880841033496252,0.0617892147164563,1.4373064359927372,13.589755986648647,35.9037609879092,18.72473825860765
1.13,31.222175122228105,131.01047586225465,22.009810408915705,1.1109034904781336,-0.3741611745674519,29.414216482736208,9.131652886238378,-14.106494957920242,367.5328077894322,36.00852920920384,16.020164119428344,58.39728513959016,-8.887586619965226,110.12560784838676,792.5058015433821,1.274,1.0223460397860296,0.0,4.464174460512089,255.00010927308023,0.1058423784359846,3.601841861201089e-06,-0.5564164048451207,-0.2890162160827133,0.0621153514367852,1.172213976299354,13.702775756128506,35.94975652707268,33.875897268203026
1.14,31.22217443471865,131.01047733521304,22.31186082638324,0.8664429135770731,-0.2271517701771218,15.376623237961592,9.218023671837065,-14.312175677172508,239.6953177322812,36.43355606596652,16.279488557933718,58.056545152020014,-9.071327510801428,109.90947719693084,811.3013700895762,1.274,1.0223022138470996,0.0,4.474493672936542,255.00010927308023,0.1070920545056838,3.698033429179392e-06,-0.5584748548104875,-0.2896287591081519,0.0630792069298351,0.8957216732458947,13.675374937641385,36.39787524281442,22.940158570311088
1.15,31.22217373196442,131.0104788573226,22.62106765580116,0.6330366444319175,-0.0844974543511107,15.051439986184256,9.201187437822954,-14.322367220940531,237.4125115347709,36.54308691212329,16.37707315126156,57.71422562182984,-9.251174383814249,109.69713921865572,816.1625217646136,1.274,1.0222426194541194,0.0,4.484670112035779,255.00010927308023,0.1074143820453166,3.79514242555132e-06,-0.5600231997979548,-0.289919461963821,0.0634423686743167,0.6386508611608342,13.765480624462612,36.52981408784268,22.723069747178286
1.16,31.222173033530314,131.01048036575935,22.92698777319664,0.3987786425655096,0.0575694513568977,42.56056405228814,9.19174892216362,-14.350640907073869,490.043774385954,36.71886718901248,16.510476155044,57.370654967910895,-9.427013611545163,109.48874617717496,824.0090351000055,1.274,1.02219674531104,0.0,4.494970799211411,255.00010927308023,0.1079314414221975,3.893217066047064e-06,-0.5610403705408514,-0.2898816759408532,0.0638614485800293,0.4029126381483804,13.835208753734168,36.72791017576358,45.8457277741427
