Time,Latitude,Longitude,Altitude,Angle of Attack,Angle of Sideslip,X-Acceleration,Y-Acceleration,Z-Acceleration,Thrust,True Velocity,Ground Velocity,Pitch,Roll,Yaw,Dynamic Pressure,cp,cg,parachute_deploy_gain,Wind Speed,Wind Direction,Mach,omega_x,omega_y,omega_z,Cmq,Angle of Attack(total),Angle of Attack(gust),True Velocity(gust),Acceleration
0.0,31.222216000000007,131.010392,3.000000004412624,0.0,0.0,0.0,0.0,0.0,2.2828121974499247,0.0,0.0,69.99999999623412,0.0,119.9999999935444,0.0,1.274,1.0271675151847728,0.0,0.0,0.0,0.0,0.0,0.0,0.0,-0.0,0.0,90.0,0.0,0.0
0.01,31.22221599999084,131.01039200000497,3.000002745347096,0.0,0.0,0.0,0.0,0.0,34.242186961749226,3.465174813755316e-14,2.8705476994166025e-14,69.9999999962611,-2.1713911667908447e-11,119.99999999352175,7.352495975525499e-28,1.274,1.0271659134330349,0.0,0.0,0.0,1.0183245502395064e-16,-3.3305335486039093e-18,7.169286865560398e-18,5.624298769768554e-18,-7.715917190115602e-34,0.0,89.99999999999979,3.465174813755316e-14,0.0
0.02,31.222215999994315,131.0103920000094,3.0000030495639742,0.0,0.0,0.0,0.0,0.0,25.871876237766216,3.8197434737535036e-11,2.4171837235633357e-11,69.99999999628672,-1.1921727947863515e-11,119.99999999353136,8.93414285188691e-22,1.274,1.027164492361118,0.0,0.0,0.0,1.1225230367947217e-13,-6.657678965418802e-18,1.4338573731120796e-17,1.1241821275959074e-17,-1.7010872994127372e-30,0.0,89.99999999975682,3.8197434737535036e-11,0.0
0.03,31.222215999994315,131.0103920000094,3.0000030495639742,0.0,0.0,9.81877837424427,-2.5122800045972096e-05,3.3498614629347925,180.34219359854663,1.2659015405517447e-10,1.1364406173918436e-10,69.99999999631459,-1.6431898037347223e-11,119.99999999352724,9.812605835254651e-21,1.274,1.0271551940870716,0.0,0.0,0.0,3.720154642239108e-13,-9.991600645811728e-18,2.150108433310316e-17,1.6859343782149594e-17,-8.453698244545225e-30,0.0,89.99999999919412,1.2659015405517447e-10,10.374487003414373
0.04,31.222215999994315,131.0103920000094,3.0000030495639742,18.83801224594347,-0.0001111777826462,48.68248476615645,-1.016330065874988e-05,3.3497854396877287,548.635972453808,0.1556173050466994,0.0975908358443652,69.99999999633813,-2.0932768807056278e-11,119.99999999352085,0.0148286043323172,1.274,1.027133720825283,0.0,0.0,0.0,0.0004573186944143,-1.3322134194415637e-17,-1.04744143520903e-11,1.336824254131964e-11,5.0626055458604615e-15,18.83801224625964,89.06236267790787,0.1555998412814392,48.79759610369246
0.05,31.22221599164764,131.01039201704114,3.002326315126219,5.772385609593056,-4.395076213712875e-06,71.20344550265034,4.905512691849684e-05,3.349217396035405,761.6984298824663,0.8326471944351852,0.3620326097059287,70.00000001316391,-1.0866255162484559e-10,120.00000000231074,0.4245281043148827,1.274,1.027093426565204,0.0,0.0,0.0,0.0024469331205246,-5.0245994431125096e-18,-7.32924164976824e-07,2.217344936947165e-11,1.895424184525467e-09,5.772385609594774,84.74112356985832,0.8326465040582279,71.28217104309611
0.06,31.22221596664444,131.01039206837547,3.015081730143309,4.056581213689704,3.169093567502233e-05,53.16249142470188,0.0001203825427859,3.3481235983850643,590.4875390737236,1.657216205300742,0.6755452977614796,69.99999964391398,-3.9285905645317736e-10,120.0000000287861,1.6816755551786196,1.274,1.027050317124926,0.0,0.0,0.0,0.0048701272653724,3.095757869075056e-13,-7.483541766772344e-06,3.074135420506017e-11,3.8518749565858254e-08,4.056581213813337,79.59316473687034,1.657221183301277,53.26781792157489
0.07,31.22221592883117,131.0103921460222,3.034593611434361,4.115662018628709,6.450869598349036e-05,81.18203554989698,0.0001593212642178,3.347059402768047,855.2937749779172,2.099899704220947,0.8579771146174259,69.99999543281565,-8.233801910783518e-10,120.00000006883089,2.700101932075157,1.274,1.027003201295312,0.0,0.0,0.0,0.006171060252819,3.4704292086287e-12,-2.6327204536316785e-05,1.9541142932033486e-10,1.7170712165327165e-07,4.115662019133419,76.90111966094352,2.099909837223217,81.2510043180746
0.08,31.22221588914193,131.01039222747755,3.0542761843835606,3.459696193892355,8.037433511260004e-05,16.298214211652088,0.0002413456836072,3.344878926597744,241.2171988638792,3.051964775152957,1.2149999716613011,69.99998042886442,-1.0128995578004475e-09,120.00000011111383,5.703497661025892,1.274,1.0269597189470347,0.0,0.0,0.0,0.0089689344021769,1.458982438104473e-11,-5.702803872814215e-05,7.043261397829576e-10,5.405702492731987e-07,3.459696194824858,71.30331929508368,3.051977400323993,16.63790856991177
0.09,31.2222158241468,131.01039236098703,3.0886872184095737,4.313676956300389,0.0001337561018991,50.35975918308536,0.0002293282821279,3.344215841840564,563.0937377043203,2.893161298572128,1.191209213966114,69.99994788602814,-7.098432023887522e-10,120.00000018106356,5.125380275808925,1.274,1.026918932011013,0.0,0.0,0.0,0.0085022553945842,3.8672912027154325e-11,-0.0001115933708951,2.016054215232918e-09,1.0027525988343615e-06,4.313676958370176,72.2316578138625,2.893182308931483,50.47067588835877
0.1,31.2222157788302,131.01039245392113,3.109877853389092,4.035124630954496,0.0001457499816535,47.804664812504015,0.0002878217657545,3.341734392237128,538.7437595981891,3.5677148583138303,1.4531247507621967,69.99988403958329,1.9248461973355822e-09,120.0000002323013,7.7939962029572305,1.274,1.0268846934974103,0.0,0.0,0.0,0.0104845969583028,8.579678749070606e-11,-0.0001726817043215,3.984565639703107e-09,1.913455350430327e-06,4.0351246335824245,68.43243098813296,3.567737752667411,47.92132267234452
0.11,31.222215703308,131.01039260899836,3.148841432727305,4.043401107254707,0.0001752764476999,37.67622367577205,0.0003286462930162,3.3392563999062723,442.86563930529127,4.034183355956686,1.6436552022667772,69.99978525353545,7.302513231814865e-09,120.00000031883242,9.96528118825134,1.274,1.026848594915519,0.0,0.0,0.0,0.0118554331868328,1.5870341853361987e-10,-0.0002596204409236,7.232030302688121e-09,3.252930323390323e-06,4.04340111104746,65.92012987243639,4.034210888316708,37.82391391539392
0.12,31.222215627491828,131.01039276462643,3.186995101203875,4.17874459224363,0.0002066711490009,41.15991989399172,0.0003576945202315,3.336766085769504,475.58594813540793,4.361857560629481,1.7865750500940407,69.99963665601238,1.781774420198147e-08,120.00000041104812,11.649831899889556,1.274,1.0268114448194128,0.0,0.0,0.0,0.0128183893919737,2.682972478760441e-10,-0.0003710216542429,1.2215991071490164e-08,5.026311388647148e-06,4.178744597345269,64.21681651392016,4.361890024457652,41.29495143136631
0.13,31.22221554594398,131.01039293200228,3.2277173449026786,4.202734874672792,0.0002327160860324,45.44886120763352,0.0003953741266062,3.333578629398489,515.9156326236897,4.792165672014363,1.9646716520715424,69.99942424225341,3.613383418913551e-08,120.00000051758742,14.061726603124043,1.274,1.026779572895131,0.0,0.0,0.0,0.0140829618979635,4.248908088871395e-10,-0.0005056103199642,1.908859219307828e-08,7.5253154423526356e-06,4.202734881104192,62.048594618540655,4.792202226971676,45.570952718869485
0.14,31.222215454191247,131.01039312033683,3.2737880595608355,4.184830647080848,0.000257138757548,42.32232525579263,0.0004369426767266,3.329727443445437,486.2390860568421,5.269261304374574,2.158791628597544,69.99913473613935,6.515851355725497e-08,120.00000064630268,17.000925061330125,1.274,1.0267449573927567,0.0,0.0,0.0,0.0154850332441425,6.382432869666793e-10,-0.0006690086306358,2.8426433029675884e-08,1.0948547100483978e-05,4.184830654966803,59.74181173116622,5.269301695636157,42.45310707234106
0.15,31.222215353826755,131.0103933263496,3.3242182719560263,4.21963947489699,0.0002846467688673,40.886944113003565,0.0004726792395108,3.325585650885676,472.5421858721398,5.6781946837482895,2.329510773545807,69.99875162806286,1.0876776246115984e-07,120.00000079954532,19.742017654108928,1.274,1.0267115958081523,0.0,0.0,0.0,0.0166867950518804,9.204756288136623e-10,-0.000865746478554,4.08948221429571e-08,1.526771148078443e-05,4.219639484480408,57.84996018384879,5.678239395958187,41.02196629910223
0.16,31.222215247130432,131.01039354534575,3.3775922280208457,4.253495568077899,0.0003118339050386,32.26872905470846,0.0005078415214353,3.32090791922544,391.1218908297597,6.081244877834229,2.4981889727471702,69.99825581174558,1.7187028096464329e-07,120.0000009800088,22.644030778355887,1.274,1.026675762255412,0.0,0.0,0.0,0.0178712695992133,1.2856146928958252e-09,-0.0010961187242953,5.6923362293832417e-08,2.0702404729358337e-05,4.253495579487569,56.06022383757386,6.081293860589489,32.43916312841722
0.17,31.22221513260033,131.01039378041813,3.4348437275053194,4.364838523348639,0.0003448792023946,40.840448242802736,0.0005326487904353,3.3162727284953744,471.78125980632416,6.362544479165355,2.6250789114832647,69.99762801982864,2.5997588617291615e-07,120.00000119506798,24.78723182122683,1.274,1.0266409836796937,0.0,0.0,0.0,0.0186979513961862,1.747791994374917e-09,-0.0013624931601664,7.706724512977917e-08,2.6923621797558364e-05,4.364838536947241,54.85936171416122,6.362598652663785,40.97486885600156
0.18,31.222215014088988,131.01039402363364,3.4935801365785646,4.353948305387995,0.0003681615230806,33.992183768165326,0.0005718025428208,3.310131992647221,407.1015672119096,6.81502088160835,2.810667639293692,69.99684761766231,3.794979223522764e-07,120.00000144728236,28.437950785509614,1.274,1.0266048342046536,0.0,0.0,0.0,0.020027681385988,2.3221419748804155e-09,-0.0016616990447559,1.0147209890543081e-07,3.517105786247627e-05,4.353948320923495,52.99157233768714,6.815078712285162,34.152972512863755
0.19,31.22221488419521,131.01039429023237,3.558399965607869,4.432620772533925,0.0003996774584738,38.45149959021069,0.0005986099513107,3.304145139297767,448.95313283182486,7.1223367465208405,2.946425726785696,69.99589577323147,5.440084577183829e-07,120.00000176148238,31.060341085698347,1.274,1.026566130444714,0.0,0.0,0.0,0.0209308229359413,3.022391489754689e-09,-0.0020041563310821,1.3135864879722746e-07,4.433199397898183e-05,4.432620790516937,51.77883352025967,7.122399527709208,38.59320142454953
0.2,31.222214751373183,131.01039456280608,3.624052454705669,4.443889400961181,0.0004246617145652,35.23432408779927,0.0006337972852267,3.2968110145188256,418.5156301991588,7.530482904611057,3.1167566004785483,69.99474776398331,7.478025600151903e-07,120.00000211715036,34.72195181863731,1.274,1.026529240027363,0.0,0.0,0.0,0.0221302820454282,3.866698391504749e-09,-0.0023849544920781,1.668144671071589e-07,5.57780533277244e-05,4.443889421210987,50.22448880200342,7.530549610317194,35.38822625098952
0.21,31.222214608673173,131.01039485566503,3.6948551453492566,4.493351735844891,0.0004538195602194,33.79371564104691,0.0006629296043866,3.2891790438445727,404.8187610144608,7.868284042829251,3.2629204975089228,69.99338155599101,1.0150082652278477e-06,120.00000255293388,37.906665490338085,1.274,1.0264923657015164,0.0,0.0,0.0,0.0231230169900677,4.871073773182836e-09,-0.0028117605859743,2.089322918608601e-07,6.870935089180403e-05,4.493351758715364,48.992529909481824,7.868355328639073,33.95340801819282
0.22,31.22221446109996,131.01039515850383,3.767700382407304,4.5412639153933885,0.000482649303782,41.008966751568416,0.0006914639179131,3.2808061382386606,472.5421858721387,8.20057841132235,3.4071691679735228,69.9917708347139,1.3454961520984431e-06,120.00000305929996,41.175744234065135,1.274,1.0264494137127138,0.0,0.0,0.0,0.0240995709751246,6.054779813287368e-09,-0.0032829112061357,2.580881224843564e-07,8.3609968899004e-05,4.54126394098788,47.82515604752711,8.2006542256977,41.13999323561041
0.23,31.22221430675399,131.0103954752338,3.843768625625224,4.52371495179584,0.0005047555656171,33.98493478127787,0.0007294889663961,3.2705214710765107,406.340642146096,8.647938096586296,3.5908865300848416,69.98989017772566,1.7539876018835507e-06,120.00000365514876,45.79040229326471,1.274,1.0264133390858623,0.0,0.0,0.0,0.0254142776666487,7.436335125872812e-09,-0.0038001790077148,3.1489825108822685e-07,0.0001020628978177,4.523714979897577,46.31461705147579,8.648017383405135,34.14194053232237
0.24,31.222214142622448,131.0103958120587,3.92493179063287,4.57837522350066,0.0005351929930195,35.051650311058864,0.0007555049947555,3.26053011385611,416.2328240017099,8.954297884844461,3.72617527247482,69.98771316795013,2.25257161141768e-06,120.0000043564586,49.09180568115741,1.274,1.0263750048312463,0.0,0.0,0.0,0.0263146218848643,9.034877387788232e-09,-0.0043732521010013,3.809642748985157e-07,0.00012161410144,4.578375254714954,45.32798984252032,8.954381952763216,35.20297212911011
0.25,31.22221397517227,131.0103961556623,4.0071748888306855,4.6034117733065,0.0005618935542827,36.03738579534623,0.000785606492708,3.249069743648399,425.3640807915084,9.311611941121669,3.8789349536029696,69.98520781816889,2.8559738498748624e-06,120.00000517181904,53.08749562138344,1.274,1.0263373768840591,0.0,0.0,0.0,0.0273647110956883,1.0873791100894836e-08,-0.0049950711786164,4.5609738277273444e-07,0.0001444478241125,4.603411807525074,44.2165428352526,9.311700203154778,36.183554686886296
0.26,31.22221379934012,131.01039651647062,4.09364247475714,4.621386912291471,0.0005881033207375,39.29107511182762,0.0008162761165496,3.236407051295005,455.80158342417656,9.67833954512075,4.034902068846398,69.98234620927953,3.5784678110229355e-06,120.00000612171208,57.350948423913096,1.274,1.0263006300381676,0.0,0.0,0.0,0.0284424679130479,1.2973286442992724e-08,-0.0056712051373577,5.414206381221602e-07,0.0001704578711045,4.621386949630312,43.12063533194282,9.678431924174348,39.42414126789902
0.27,31.222213616776543,131.01039689108487,4.183310605341074,4.617158109135719,0.0006115457810536,35.90419462403674,0.0008503454714941,3.221982799915672,423.8421996598744,10.088790784535757,4.205862468567124,69.97909721779352,4.436165972465058e-06,120.000007221354,62.31798301949865,1.274,1.026260090595354,0.0,0.0,0.0,0.0296487219805601,1.5355910600537293e-08,-0.0064045199323113,6.379142666348734e-07,0.0002006609239367,4.617158149547818,41.94410287616451,10.08888684592241,36.048472443180565
0.28,31.22221342607797,131.0103972823952,4.277051150896916,4.642105655370123,0.0006389739579882,41.51133203546672,0.0008785747638736,3.2071101123224945,476.3468732012228,10.432377224420517,4.35383399240675,69.97542808435722,5.446665372087172e-06,120.00000849080963,66.63429581008447,1.274,1.0262212716723291,0.0,0.0,0.0,0.0306584788590473,1.8045308789081613e-08,-0.0072006835403936,7.469524967369969e-07,0.0002332868227611,4.642105699250441,41.0023231023774,10.432477594215127,41.63503624837164
0.29,31.22221323001776,131.01039768469093,4.373143569786686,4.62134615173668,0.0006600657405645,33.17552944492765,0.0009148746278066,3.1894209319791806,397.9703104221098,10.876662296046485,4.536381530986506,69.9713027936179,6.629751536885327e-06,120.00000994797426,72.43000748232016,1.274,1.026183007522519,0.0,0.0,0.0,0.0319641703260467,2.1067646517035105e-08,-0.0080566154554079,8.688043379161898e-07,0.000272130659453,4.621346198772975,39.83162628795024,10.876765978930557,33.32848872465723
0.3,31.22221302403368,131.01039810736614,4.4744193758467325,4.664362353358112,0.0006905183788532,31.08096762732793,0.0009381960428197,3.172549142946348,378.1859457108735,11.168362145070317,4.66647911311536,69.96668711012893,8.005507138509574e-06,120.00001161892672,76.36634300732833,1.274,1.0261430389738484,0.0,0.0,0.0,0.0328214509167604,2.4447409007156216e-08,-0.0089829108229115,1.0056222251461646e-06,0.0003115527202986,4.664362404357781,39.09908960432563,11.168470611443622,31.242464973103964
0.31,31.22221281503337,131.01039853619727,4.576593712520673,4.700143580504286,0.0007196683316923,32.79732593144512,0.0009620705970519,3.154230688182399,394.1656220930229,11.470279728974068,4.800072153432283,69.96154070456518,9.597499105113692e-06,120.00001352112182,80.55022837857167,1.274,1.0261054058068628,0.0,0.0,0.0,0.0337087616009043,2.8214060606649844e-08,-0.0099686353219717,1.1565909895184251e-06,0.0003550834484269,4.700143635477137,38.36463422765983,11.47039277421126,32.94865339301887
0.32,31.222212598991007,131.01039897947376,4.68216432480395,4.718667719113184,0.0007464384342556,35.7316568886908,0.0009885845337584,3.133859770838664,421.5593934624264,11.808280530415894,4.946054328851105,69.95582953472353,1.14278227255889e-05,120.00001568218067,85.36654007972253,1.274,1.026068246703101,0.0,0.0,0.0,0.0347021168382987,3.2392058795580455e-08,-0.0110163301561155,1.3226102501723267e-06,0.0004039614423012,4.718667778018562,37.5686120062341,11.808397780690962,35.8688218659563
0.33,31.222212376029034,131.0103994369436,4.791055524254013,4.72141404831576,0.0007708346814671,35.42013590291081,0.0010176135371143,3.1111955852784385,418.5156301991632,12.181577273013426,5.104163223586657,69.94951809396906,1.351997394754887e-05,120.00001812674968,90.84831229869296,1.274,1.0260310883392356,0.0,0.0,0.0,0.0357992034445943,3.700677535501642e-08,-0.0121310534481307,1.5051409581878843e-06,0.0004588955105349,4.721414111097893,36.7208578211118,12.181698355442045,35.55651229220977
0.34,31.222212145785647,131.0103999093516,4.903491659547144,4.73024573449122,0.0007962944975467,27.63851074646407,0.0010446307681611,3.0871492806781062,345.4656368807584,12.53557620048282,5.2556261014174765,69.94256797855994,1.5899658158227497e-05,120.000020882338,96.20413272674828,1.274,1.0259901535019136,0.0,0.0,0.0,0.0368395817555172,4.208561016221623e-08,-0.0133180771902383,1.7057647550599631e-06,0.0005184333231541,4.730245801363397,35.94841996438923,12.535701282129995,27.810389570354005
0.35,31.222211909310875,131.01040039453565,5.018822212845608,4.780248518778662,0.0008286678570753,30.332092807652543,0.0010618579815451,3.063967690608957,370.5765700527057,12.774786382148209,5.367579971644358,69.93493776125636,1.8594985713558667e-05,120.00002397748868,99.9096898192772,1.274,1.025950003202184,0.0,0.0,0.0,0.0375426220587071,4.7658312175989686e-08,-0.0145774693288123,1.9252724355785177e-06,0.0005782798420984,4.780248590437683,35.44790728185619,12.774916548990808,30.486451961956565
0.36,31.22221166933814,131.0104008868675,5.135354490370708,4.798132156899578,0.0008554457330409,34.32674769697476,0.0010851169437774,3.0374319611165923,407.8625232777224,13.09301701329486,5.506730645516068,69.92658597246795,2.163521613217148e-05,120.0000274401514,104.94818266210537,1.274,1.0259105142325406,0.0,0.0,0.0,0.0384778908056978,5.3755109608570216e-08,-0.0158991451700967,2.162609490834569e-06,0.0006464142451675,4.798132232978766,34.796094028187134,13.09315138639638,34.46087058603792
0.37,31.222211421355144,131.01040139563804,5.255882891363927,4.797392186816851,0.0008791822061288,32.551601855236584,0.00111162791192,3.0078619428913056,391.1218908297639,13.457513730739372,5.661815946371007,69.91747693543164,2.5047738471809164e-05,120.0000313040604,110.87154396328836,1.274,1.025872170958032,0.0,0.0,0.0,0.0395491312153729,6.040098808671168e-08,-0.0172926678053148,2.420031948898497e-06,0.0007226353721561,4.797392267189059,34.07332166419882,13.457651832357364,32.69027405888565
0.38,31.22221116634284,131.01040191882743,5.379799334000849,4.811698494594017,0.0009057112478668,34.02947987649063,0.0011338447913587,2.9774881690446744,404.81876101445977,13.77554886562956,5.800899861213392,69.90756948297444,2.886339581486796e-05,120.00003560072224,116.17243393848278,1.274,1.02583050512925,0.0,0.0,0.0,0.0404838339452728,6.762496638941508e-08,-0.0187646375218858,2.69955777313946e-06,0.0008026686661094,4.8116985796350695,33.46655348088405,13.775691134419684,34.15949264475229
0.39,31.222210906095896,131.01040245274032,5.505993307722699,4.813508003664984,0.000929862892873,29.00025983045028,0.0011579891265804,2.9442136901860865,357.6406249338268,14.124492165837273,5.950648592462506,69.8968186645841,3.311602501056718e-05,120.00004036395212,122.13093644173792,1.274,1.02579027384009,0.0,0.0,0.0,0.0415093739609825,7.545934774906889e-08,-0.020311592409804,3.0013532510753577e-06,0.0008908380763632,4.813508093268025,32.821616487639595,14.124638228358922,29.149330452482886
0.4,31.222210638473225,131.0104030017851,5.635788650457906,4.841647069358873,0.0009592124397379,27.71178845184976,0.0011749448424961,2.91135549588368,345.4656368807565,14.390874239274588,6.07193451174791,69.8851815212744,3.783947407715338e-05,120.00004563180136,126.77947425345651,1.274,1.0257493418632293,0.0,0.0,0.0,0.0422922854866381,8.39343718693383e-08,-0.021938519432511,3.3271332720311508e-06,0.0009803271643914,4.841647164150728,32.348088166612904,14.391024912012275,27.864299944624147
0.41,31.22221036681104,131.01040355909262,5.767123077463226,4.86553909860892,0.0009876699832274,31.306062598221665,0.0011918093836199,2.876450850006428,378.9468707766882,14.663028799871563,6.195223154320929,69.87261222561014,4.307011032901644e-05,120.0000514391194,131.6183642808765,1.274,1.025708445186429,0.0,0.0,0.0,0.0430921644173401,9.308325447883581e-08,-0.0236371933433427,3.6760977501392174e-06,0.0010761942383903,4.865539198612839,31.87689439156756,14.663183942709727,31.437931330109585
0.42,31.22221008906472,131.01040412887247,5.901259531771367,4.867510642114694,0.0010118258958528,35.308283402190774,0.0012128114559048,2.8374461227958245,416.23282400171047,14.9952917972178,6.33928625560071,69.85906967380902,4.884273094936628e-05,120.00005782486392,137.64909586091787,1.274,1.0256701057426505,0.0,0.0,0.0,0.0440686959134695,1.0293499639582845e-07,-0.0254093547296826,4.049238334851429e-06,0.0011830797791891,4.867510747027452,31.315270489291198,14.995450734457847,35.422111438762386
0.43,31.222209804115888,131.01040471342728,6.038886819939341,4.854590670645608,0.0010330089741511,31.00586934514032,0.0012363751872706,2.794478603999558,375.90313951343126,15.369430568701889,6.497852263156962,69.8445117629242,5.519340856908871e-05,120.00006482835984,144.60167924299955,1.274,1.0256308158337524,0.0,0.0,0.0,0.0451682983415116,1.135186446762958e-07,-0.0272634397889413,4.449073329427772e-06,0.0013010625065656,4.854590780289497,30.70250814963406,15.369592833372094,31.13154422839874
0.44,31.22220951192321,131.01040531284193,6.180028459770617,4.866912332640401,0.0010595850174406,28.57707721036899,0.0012525768202179,2.752165534925872,353.07501253892326,15.659290812546615,6.627318538707029,69.82889155423543,6.216182865383864e-05,120.00007249162944,150.1053167542629,1.274,1.025586171750536,0.0,0.0,0.0,0.0460202245100907,1.2486676023179565e-07,-0.0292060158163984,4.8779154055816594e-06,0.001420032405556,4.866912447705031,30.24619499837236,15.659457251771938,28.709297424144207
0.45,31.222209215425703,131.01040592106523,6.322872201489905,4.881836476567178,0.0010866574689855,33.31904824532484,0.0012669045761511,2.7082028218433374,397.2093853562887,15.934249290371609,6.751662050993672,69.81215834018458,6.97909417564726e-05,120.00008085697964,155.42080512416243,1.274,1.0255397023523487,0.0,0.0,0.0,0.0468283602442113,1.3701614206272197e-07,-0.0312276295846745,5.334643585560923e-06,0.0015449645531859,4.8818365972149325,29.82567893138932,15.934419982127675,33.428929688274074
0.46,31.22220891307435,131.0104065412864,6.468371919199588,4.869610441729251,0.0011078049156487,38.95909776354321,0.0012868374716666,2.6582856015412624,449.7140588976424,16.292139278621757,6.904766425053949,69.79426683863348,7.812149592850748e-05,120.00008996920153,162.4785746623087,1.274,1.02549635315424,0.0,0.0,0.0,0.0478802236363867,1.499987870203256e-07,-0.0333272350234362,5.819761874615242e-06,0.0016858511402973,4.869610567434908,29.29014635640275,16.292313292210977,39.04968351401366
0.47,31.22220860266524,131.01040717804253,6.6178810515614845,4.838450928223533,0.0011247917292402,26.253747818137555,0.0013104398935566,2.6026193242279367,331.0078106302504,16.710658191447514,7.078951441335346,69.77517236812905,8.719457259907165e-05,120.0000998741591,170.9309671061642,1.274,1.025453319323251,0.0,0.0,0.0,0.0491102725711187,1.6384464803343264e-07,-0.0355167087264168,6.3368207228363735e-06,0.0018427306558807,4.838451058652396,28.68386015667837,16.710834873319172,26.382435512333956
0.48,31.222208284201663,131.0104078313267,6.771393590864176,4.869339340099417,0.0011561785713505,25.860860976019296,0.0013165328518772,2.5543454292827983,327.20312230115803,16.911139899671,7.177575416403102,69.75482343794755,9.70562828082882e-05,120.00011062072316,175.0543877818846,1.274,1.0254092882449153,0.0,0.0,0.0,0.0496995461609974,1.7858865391586845e-07,-0.0378054080201581,6.88909442277235e-06,0.0019849793891693,4.869339477030596,28.40887970825325,16.911321511776286,25.986704537635287
0.49,31.22220796480208,131.01040848648364,6.924537656029012,4.881367714530694,0.0011829003785372,32.565703383222065,0.0013261973190012,2.5011623511055703,389.6000096981238,17.169005224738054,7.296160258358563,69.73316318155707,0.0001077573203115,120.000122255028,180.4309832312717,1.274,1.025367445590036,0.0,0.0,0.0,0.05045746454003,1.942747077649401e-07,-0.0401641298712614,7.47069711110948e-06,0.002140948887153,4.881367857509675,28.058569663954906,17.169191034294997,32.66161128464712
0.5,31.222207637929923,131.01040915697027,7.081324512896956,4.862566137860805,0.001202418260511,33.47759680712428,0.0013425340759632,2.4399894027711366,397.970310422106,17.52898693231981,7.450304424940405,69.71015149227495,0.0001193385310595,120.0001348274002,188.0736471953394,1.274,1.0253278572281015,0.0,0.0,0.0,0.0515154948878309,2.109295159784217e-07,-0.0426011733481599,8.084173008518589e-06,0.0023184335011768,4.862566286171007,27.57768313050809,17.529175807738486,33.56639745442473
0.51,31.22220730314019,131.01040984370235,7.24202048914867,4.8479762258125,0.001223054804074,25.49162310288008,0.0013562860883156,2.3767006597692686,323.39843497208153,17.86914397471067,7.597652147346554,69.68574349602717,0.0001318441288964,120.00014838524436,195.4407439266201,1.274,1.025286455263166,0.0,0.0,0.0,0.0525152689856776,2.2858192086249162e-07,-0.0451315948093539,8.734206149830708e-06,0.002503767471626,4.847976379721193,27.13799345359824,17.86933609171003,25.602178740977283
0.52,31.222206962738102,131.01041054193402,7.405210501673173,4.865306299521403,0.0012516517170965,30.733671928447727,0.0013599291289974,2.317711624364424,372.098451184342,18.08534843773428,7.701914987606457,69.65988568649581,0.0001453248538387,120.00016298000436,200.19561780583155,1.274,1.0252426840672306,0.0,0.0,0.0,0.0531507657929359,2.4726951523704535e-07,-0.0477531686556663,9.421346966092632e-06,0.0026812161964639,4.865306460134566,26.8699055233151,18.085545046726228,30.820940596104087
0.53,31.222206619320115,131.01041124632013,7.569307468221277,4.848802699234936,0.0012715119568563,32.301199055744725,0.0013711327835325,2.2490252325653923,386.55624643486095,18.41963113311156,7.8474319110539055,69.6325258319474,0.0001598315062727,120.0001786629144,207.6614205945027,1.274,1.0251993415311351,0.0,0.0,0.0,0.0541332845214831,2.67031759303889e-07,-0.0504479325599339,1.0141887756417996e-05,0.0028848299490111,4.848802865552398,26.45837260670532,18.419830861742675,32.37940050117613
0.54,31.22220626697288,131.01041196903336,7.737918664599091,4.831496690588052,0.0012913635058467,28.31291960103712,0.0013809098107221,2.177242866245296,349.2703242098436,18.75116898748492,7.992112829440902,69.60362200959217,0.0001754082864028,120.00019548734956,215.20067397992847,1.274,1.0251561018460285,0.0,0.0,0.0,0.0551077428911958,2.878941684235108e-07,-0.0532336286085667,1.090122304443916e-05,0.003098869611663,4.831496862756785,26.061835558272342,18.751371834390056,28.396510432451375
0.55,31.222205908994248,131.01041270328463,7.909026079894722,16.926145910542473,21.867809829269504,30.9209585032238,-1.5629167197966192,1.284649892361431,365.2500005919912,23.311818853880887,8.113323699629928,69.57312211246325,0.0001921068626005,120.00021350480982,332.60755958266367,1.274,1.025112921033824,0.0,10.025614263783408,0.0,0.068511152573491,3.0989272306468813e-07,-0.0561100530405476,1.1700476995263424e-05,0.0040606783378885,27.39650053572576,44.75010101150643,26.664016837543148,30.987073252842908
0.56,31.222205546564343,131.01041344664463,8.081909946161325,20.825849274437623,-17.048000629772876,28.92815468132808,1.006430170355098,0.6007943135977057,346.22656194657776,24.347584126740948,8.24370876953435,69.54097415464405,0.0002099796112633,120.00023276987916,362.81425068442434,1.274,1.0250709539098009,0.0,10.062191141780394,255.00010927308023,0.0715553048262006,3.3292051977349045e-07,-0.0690085882480278,0.0189385669121715,0.0052159516648283,26.671383415259573,19.91193701243137,21.70902924590154,28.951890935859375
0.57,31.22220518105916,131.01041420589075,8.258547605517315,20.633258199430607,-16.858925280970944,28.642477627150026,1.3437859773677112,0.2111876400026942,343.1828296833045,24.617595867274733,8.357099338309654,69.50143310747288,0.0292380856677736,120.03121933929825,370.89971232133183,1.274,1.0250279191823897,0.0,10.098482259245095,255.00010927308023,0.0723489886011122,3.715390578966753e-07,-0.087007611138099,0.0023581767520894,0.0066492101168956,26.410054516458658,19.75259481784184,22.00745015960928,28.67476042784054
0.58,31.22220480470469,131.01041496920027,8.437117281515967,20.433171404482128,-16.693118210806514,37.60363037876275,1.6954154707706464,-0.1933673446357704,426.12500585731766,24.89768028926993,8.474290486807073,69.45158145327494,0.0327755094818013,120.03499666554043,379.38097286761,1.274,1.024981594484354,0.0,10.134876624800247,255.00010927308023,0.0731722799342247,4.087622981526206e-07,-0.1052951285818354,-0.0144150054411312,0.0081381725304208,26.15710368945424,19.58111000014564,22.31247102477811,37.64232780011232
0.59,31.22220442429332,131.01041574521935,8.618479968592451,20.114195770531257,-16.43924096752,30.60667750078564,2.0703967561075336,-0.6378020006475204,360.68438819710633,25.299896090061168,8.639177896804444,69.39125569796019,0.0107165955309096,120.01143440511213,391.73076976025885,1.274,1.0249386802161349,0.0,10.171028083681904,255.00010927308023,0.0743545119500835,4.446211652403224e-07,-0.12387349639212,-0.0314124517583212,0.009728576490416,25.75995507377961,19.307263284258987,22.752910405041103,30.683253441524556
0.6,31.222204033118896,131.01041653901015,8.804844459587112,19.911836959242684,-16.27127712918478,27.29183411210793,2.4483051669972253,-1.0721920365983368,329.4859594986072,25.567552394390543,8.75149471505827,69.32027807086601,-0.0370108212999251,119.96043214581805,400.05596328715785,1.274,1.024891335813742,0.0,10.207106589962356,255.00010927308023,0.0751412918876454,4.791299639924794e-07,-0.1428441829126979,-0.0487129727938081,0.0113369467424085,25.50360661514935,19.1338048365382,23.045882759725007,27.42239966080482
0.61,31.222203638844675,131.0104173360599,8.991843116365635,19.71335724281364,-16.106116927577176,31.916775968093724,2.835602802714272,-1.5165669273711686,372.0984511843332,25.82222435305164,8.858778998562961,69.23839930182353,-0.110514396595578,119.88184543417104,408.05804190326177,1.274,1.0248423929069768,0.0,10.243530112765992,255.00010927308023,0.0758899154905517,5.123207816435486e-07,-0.1620777920447173,-0.0662100285074449,0.0129913342369849,25.251783231684172,18.96385866667536,23.325469327961866,32.07836041161459
0.62,31.222203237930024,131.01041814368847,9.18160712443992,19.43994714899917,-15.884858280702671,39.56908200418663,3.2448645139135817,-1.9946097217854264,442.86563930529206,26.15453816109548,8.996734871842174,69.14543071973279,-0.2096545800413792,119.7757878329422,418.6208340749301,1.274,1.0247996097896497,0.0,10.279440405631604,255.00010927308023,0.0768667297104889,5.44228187713652e-07,-0.1815541428682631,-0.0838850209116804,0.0147394711021526,24.90850726453179,18.729154270274364,23.69119273804182,39.75197937600017
0.63,31.22220282845592,131.01041896587017,9.375273009759724,19.09274885687085,-15.608090130028463,22.721801645364987,3.682707713292008,-2.5143794242704325,286.11251274707456,26.57055086744177,9.167700139003616,69.0411817099747,-0.3341798544441516,119.64248651426452,432.0358322546622,1.274,1.024756158874558,0.0,10.31523694783721,255.00010927308023,0.0780895384734351,5.748884256230826e-07,-0.2013313185864209,-0.1017816338151136,0.016604756099608,24.47482318353616,18.43012569023629,24.149048524195276,23.15523072659925
0.64,31.22220240955125,131.01041980446774,9.573348940389444,18.952510479453647,-15.485578949358194,22.34162370447954,4.08877619818786,-2.9725797466580475,282.3078244179702,26.72233828558912,9.235206076679464,68.92541478359912,-0.4838200616108931,119.48218238741012,436.9777316158511,1.274,1.024708534665538,0.0,10.35114124639412,255.00010927308023,0.0785358097008035,6.043433593198715e-07,-0.2214719937412419,-0.119947746385547,0.0183698502961237,24.292964567694987,18.31211966351307,24.319375844145487,22.90638493742894
0.65,31.22220199129377,131.01042063852267,9.7698147200348,18.745063495473893,-15.31259590274968,39.00716573944212,4.513987719949247,-3.4605760377008505,436.7781447787504,26.945895457578807,9.33120705330589,68.7978427499166,-0.6582903890133031,119.29512561377412,444.3113818524943,1.274,1.0246641738210605,0.0,10.38723316323226,255.00010927308023,0.0791930101938161,6.326638981643015e-07,-0.2417294690577503,-0.1381818965552993,0.0202174496269818,24.02889261177897,18.136059206336054,24.56912963078285,39.41967339632419
0.66,31.22220156467087,131.01042148690155,9.9700534129621,18.352252219451845,-14.999818548444338,33.283665480077104,4.999750516441261,-4.041126182771094,383.5125151715984,27.39958625000463,9.518733719018554,68.65830791821764,-0.856929552425378,119.08196377223724,459.39033780466406,1.274,1.0246195561629028,0.0,10.422422078394485,255.00010927308023,0.0805265728971442,6.599092883067437e-07,-0.2621555233397694,-0.1565232110035809,0.0222945554772504,23.5375727678468,17.797987260602266,25.070242375243527,33.89882879748811
0.67,31.222201125653186,131.0104223582954,10.176452371234488,18.07102999411609,-14.770304977097105,23.12540234217845,5.467088694658235,-4.586882689072052,289.15624401033847,27.699270964193968,9.6458036980086,68.50661089820552,-1.0790608987928407,118.84335538632716,469.4852117302797,1.274,1.024572383541697,0.0,10.45768756220952,255.00010927308023,0.0814075269559535,6.86133441816343e-07,-0.2829374603344275,-0.1751195587181314,0.024324615421527,23.182104879766143,17.558595354915663,25.40476918287918,24.201503777373038
0.68,31.22220068406533,131.01042323199323,10.383158498920189,17.863496354934004,-14.59610533613656,28.7120655141914,5.915286646513575,-5.101101462464198,340.89999248584934,27.88600776825505,9.728363497082356,68.34243183044495,-1.3241452570705097,118.57980547178678,475.82724711343184,1.274,1.0245245285832842,0.0,10.493409653563592,255.00010927308023,0.0819565332915495,7.114239800269263e-07,-0.3039239461894627,-0.1938462430318797,0.0263044869852897,22.916656090670845,17.385345944774038,25.617975567039537,29.755580288947403
0.69,31.222200238454903,131.01042411105618,10.591042825590293,17.55809852048399,-14.347349151551622,35.19392387122274,6.403841345263187,-5.674393411945186,401.0140726853658,28.19684828846361,9.861132864090903,68.16552759149016,-1.5913934238104848,118.29208196569856,486.484586592222,1.274,1.024479631064582,0.0,10.52858534703344,255.00010927308023,0.082870282987994,7.358752226043506e-07,-0.3250018077986578,-0.2126094845623497,0.028441745598542,22.530474968566583,17.126951288458386,25.966650794728235,36.219058546879026
0.7,31.222199783317947,131.01042500754718,10.803380111688853,17.20198595489379,-14.059393376225636,29.60076455890652,6.923279452464305,-6.290356031143273,349.270324209851,28.5724448082874,10.02072518841242,67.9757116470137,-1.879824663607368,117.98115400915532,499.5211709298262,1.274,1.0244351749185203,0.0,10.56340840753102,255.00010927308023,0.0839743589350209,7.595711383983558e-07,-0.3462608955112567,-0.2314789238365771,0.0307051977177481,22.081126964824204,16.82493721638757,26.38609655532518,31.04360867952164
0.71,31.22219932020312,131.01042591839143,11.019250116098211,16.910566598685165,-13.819994746566804,24.409440565518903,7.421956518865225,-6.874013562335714,301.3312640634036,28.841483561511765,10.138168634465671,67.7727364863421,-2.1885005016752026,117.64794073128618,508.9619127778338,1.274,1.0243880468141104,0.0,10.598396701175176,255.00010927308023,0.0847652697344128,7.826069611866031e-07,-0.367736740670834,-0.2504805779054115,0.0329159704535815,21.71082598416908,16.582273986898635,26.691632467156087,26.422685135025567
0.72,31.222198853161668,131.0104268347497,11.236245676767982,16.63944400285297,-13.595516905356272,29.72256556521318,7.912580137937231,-7.445630856680576,350.7922053414578,29.064983512671343,10.237886143546904,67.55632583738921,-2.516465218675119,117.29337536472478,516.8698552068739,1.274,1.024337302174265,0.0,10.633340676349492,255.00010927308023,0.0854223463699991,8.050998455444943e-07,-0.3893188556309625,-0.2695226982820411,0.0351170895197904,21.36501901003693,16.36010017687262,26.94938895894185,31.64612530897944
0.73,31.2221983808232,131.01042775973937,11.455186854106683,16.297466159754553,-13.316238475997602,37.40776072913216,8.443968195624006,-8.07441240885725,422.3203185282354,29.387593922482687,10.37891888684347,67.32626220518688,-2.862596842573497,116.91856688055076,528.3965479273925,1.274,1.024292465384646,0.0,10.667923897345192,255.00010927308023,0.0863707156971523,8.27170029788071e-07,-0.4109494785300745,-0.288556095589974,0.03747885622312,20.930940730630827,16.077113609781073,27.314664050688275,39.1897601090517
0.74,31.222197899781538,131.01042870138843,11.678111040380443,15.899255919939703,-12.99305228795426,23.549206344108768,9.017037091404552,-8.76009652812948,294.4828134710563,29.79437446995832,10.555675575577087,67.08235789673401,-3.2256783925809462,116.5247242237822,543.1142005068538,1.274,1.0242470321640116,0.0,10.70228114080628,255.00010927308023,0.0875664719434092,8.489322876733705e-07,-0.4326884968904725,-0.3076267054850075,0.0400068344696177,20.426341494615205,15.746334267980927,27.77087836872424,26.69478167221684
0.75,31.222197409938108,131.01042966036334,11.905088398075131,15.627662873688438,-12.76638214335521,27.35417375026425,9.511038847144862,-9.336110862405087,330.24688556441737,29.97199938035596,10.638932848554974,66.8243863127626,-3.604528327863615,116.1130156204537,549.5972845342103,1.274,1.0241984712898409,0.0,10.736683120165107,255.00010927308023,0.0880887419273753,8.70509280189096e-07,-0.4545796503096847,-0.3267677105086987,0.0422805674136657,20.07807985936401,15.533582453222914,27.98321269695934,30.428171938955888
0.76,31.2221969197284,131.01043061696703,12.13108225736981,15.27911554221074,-12.479916247832977,29.33628337555816,10.055608845735312,-9.982309604576333,349.2703242098581,30.26945488061177,10.772851340423172,66.55209202454145,-3.9979858488886193,115.68458459127136,560.5481492978989,1.274,1.0241522053390697,0.0,10.77113217272352,255.00010927308023,0.0889632007460461,8.920603848641258e-07,-0.4764124223672352,-0.3458062703549033,0.0447500323625819,19.633608013448622,15.255233594787414,28.324578443057387,32.578816684942645
0.77,31.22219641980969,131.01043159356504,12.361692308256083,14.91652510656494,-12.181678831754592,27.357224470085164,10.61092621089346,-10.643510947301245,331.76876669606884,30.578222554083137,10.912922140260488,66.26534563077152,-4.4046705333203,115.24081265088246,572.029702617087,1.274,1.0241065975906936,0.0,10.804913142895188,255.00010927308023,0.0898709157424154,9.137184987048884e-07,-0.4982585843633294,-0.3647986911656088,0.0472784343375277,19.170762896483254,14.968983017200909,28.679112371150403,31.213679870290427
0.78,31.222195914064063,131.01043258130866,12.594607708303988,14.565728214371214,-11.891867504510047,22.402455495796616,11.155428316059284,-11.290773229108716,286.8734378128874,30.851467035592133,11.039241452086983,65.96397576704231,-4.823276454112444,114.78300038174568,582.2855762010673,1.274,1.0240588105546735,0.0,10.83886569450974,255.00010927308023,0.0906742331228072,9.356329840652724e-07,-0.5200986151535185,-0.383726832782597,0.0497906576865099,18.721874693164636,14.698886539278217,28.99687938143285,27.455330143107794
0.79,31.222195403074195,131.01043357896344,12.829487939242508,14.236524859965389,-11.618033641881627,31.67215847613351,11.674405890877644,-11.905122534094485,373.6203323159581,31.06535250018216,11.14150988471932,65.64782515393749,-5.252487630633639,114.31246005548088,590.3739251447291,1.274,1.0240083170932772,0.0,10.872631736265092,255.00010927308023,0.0913030967320478,9.579640853267265e-07,-0.5418772677952018,-0.4025442606809139,0.0522340580983486,18.299192758184983,14.455103526085338,29.252876439265854,35.79314624329746
0.8,31.222194887851035,131.01043458415913,13.06573229928979,13.822458946542694,-11.277474970076854,31.952811920111845,12.26959750324904,-12.622449819904618,377.42502064505805,31.436441412487543,11.312680005063257,65.31677388855599,-5.690956295043581,113.83054044977789,604.5489897433706,1.274,1.0239625010683884,0.0,10.906112297630589,255.00010927308023,0.0923939975050536,9.80879864771476e-07,-0.5635215842037251,-0.4211900460236476,0.05496808791583,17.769595640800134,14.139768724790288,29.676395884253484,36.48083677699549
0.81,31.222194362641726,131.01043561222647,13.306839876290308,13.420957167202348,-10.945763481243748,20.607311323443536,12.851152698631529,-13.322581670639089,273.9374926939922,31.769697223706704,11.46936157376298,64.97075223138596,-6.137300366255177,113.33863100865784,617.4202074434619,1.274,1.0239149950770308,0.0,10.93929056625036,255.00010927308023,0.0933737146733207,1.004529849192122e-06,-0.5851178242958885,-0.4397326571016185,0.0576783788136624,17.254773997869567,13.843955348169189,30.06077995957157,27.70026332069277
0.82,31.22219383238905,131.0104366507831,13.54983680364674,13.08514997233626,-10.664606356101736,26.378806119865,13.350185215353523,-13.91541231758302,328.725004432774,31.941606058772376,11.556925505404,64.60964342041024,-6.5902511608906496,112.83799994724916,624.1055596760643,1.274,1.0238644186635044,0.0,10.97265296585786,255.00010927308023,0.0938792260455189,1.029089622762326e-06,-0.606603475469441,-0.4581198675253206,0.0601185019127888,16.821599111872217,13.61903087987158,30.2760697931077,32.675794673764436
0.83,31.222193300121297,131.01043769162968,13.792881210078315,12.680082599712744,-10.328550530417573,33.4508853429248,13.918403500779345,-14.60147583400729,395.6875032246518,32.252654336376466,11.707195304388549,64.233376147324,-7.048527543443105,112.32993331932484,636.3050071707821,1.274,1.0238188483711983,0.0,11.005782687272395,255.00010927308023,0.0947936845803787,1.0547526166293714e-06,-0.6278315626999972,-0.4762313155924079,0.0628268053593282,16.300685768215484,13.338838611293935,30.639022164349168,39.06260081928886
0.84,31.22219275865657,131.01043875495253,14.040380418194976,12.237605590983891,-9.962256545779274,20.2320906130758,14.528687106241511,-15.344343364489411,275.45937482564227,32.64032289872179,11.893755266306298,63.84197925107463,-7.510782012971745,111.81579650452512,651.677890624022,1.274,1.0237739661568126,0.0,11.03843564147784,255.00010927308023,0.0959333480311053,1.0816796405534905e-06,-0.6488668911664445,-0.4941185818980846,0.0657107022629449,15.73177453204848,13.033980690014513,31.08332829561773,29.25524077655367
0.85,31.222192209762376,131.01043983675177,14.291290060139186,11.877639630481996,-9.659932320776942,21.91840802803144,15.012689989108097,-15.924246617109976,292.9609323393965,32.80626082638368,11.982390326568204,63.4354506071077,-7.975783604819258,111.29683237822378,658.3049130886293,1.274,1.0237227741398531,0.0,11.07117806410526,255.00010927308023,0.0964213300404918,1.110041520014614e-06,-0.6697231292905038,-0.5117916828415582,0.0681659692278703,15.265959738680198,12.821729341791494,31.29606061717801,30.973845442806713
0.86,31.22219166059405,131.01044091638155,14.54120459299584,11.474510615208809,-9.322991187435118,27.46165774478913,15.540110759584037,-16.563418192799666,346.2265619465616,33.06288891951897,12.113539127046431,63.013788941911486,-8.442375091294025,110.77420866047764,668.6283737978594,1.274,1.023674789281455,0.0,11.103866597266771,255.00010927308023,0.0971758631831612,1.1400475156630953e-06,-0.6902171975970997,-0.5291014478373529,0.0707997515665132,14.745012124857984,12.581691307269844,31.60489066939028,35.63684204221305
0.87,31.22219110362065,131.0104420163308,14.7947976777126,11.037447383931354,-8.958450752541529,25.234308648149348,16.105771698137556,-17.254715148072965,327.9640783669946,33.394498408123674,12.281279711291596,62.57711939915625,-8.909333421184472,110.2491751948671,682.0912507754839,1.274,1.0236288969245204,0.0,11.135962700281842,255.00010927308023,0.0981507847433782,1.1718667841953795e-06,-0.7103740243990619,-0.546067696517769,0.0735964015387496,14.180347926568905,12.323661927690232,31.99303478037254,34.55273375268203
0.88,31.222190540019703,131.0104431340784,15.05138177332508,10.61485312615356,-8.604576629796037,21.340361194398447,16.63139585845886,-17.896533250706632,294.4828134710421,33.67029943530692,12.42529350201666,62.12556297630428,-9.375536399525943,109.72287855692753,693.387303826308,1.274,1.0235805388426191,0.0,11.16807074435801,255.00010927308023,0.0989616864092375,1.2056702966080265e-06,-0.7302013207162681,-0.5626960092449612,0.0762734646427448,13.633178684678498,12.097161567115796,32.32377053626556,32.439177648359056
0.89,31.22218997235525,131.0104442620647,15.309374101998628,10.200135970364457,-8.25619767602929,23.28873074578374,17.120777695018596,-18.49421300748405,315.02813424808807,33.903516037069245,12.551200065566317,61.65924721037904,-9.839948088503297,109.19637824098714,703.008615860104,1.274,1.0235293752791452,0.0,11.200099588785209,255.00010927308023,0.0996474324511583,1.2416455734062532e-06,-0.7496255200249197,-0.5789266398012387,0.078842833571718,13.09522561344034,11.897894398220451,32.61111899270338,34.31503931803155
0.9,31.22218940031009,131.01044540155564,15.568987626164228,9.7630952387345,-7.889467479148615,25.631734903037003,17.630615563710005,-19.121188966023624,339.3781423542166,34.18745368533581,12.703190189154844,61.178358425290064,-10.301565549039443,108.67070723863684,714.8153175978799,1.274,1.0234837388140003,0.0,11.231853017810026,255.00010927308023,0.1004822613921775,1.2799753367821832e-06,-0.7685835938529894,-0.594708560265728,0.0815117389258257,12.528262908662407,11.696027153630808,32.95209153483301,36.51635670174781
0.91,31.222188822094186,131.01044655914015,15.831386848468044,9.312658249363086,-7.511460008180304,18.628212461079336,18.14744178011702,-19.760007159710696,277.7421810230785,34.4998253007682,12.871242756840768,60.68313563891872,-10.759432457243276,108.14685752549276,727.9192209700968,1.274,1.023436404813438,0.0,11.263362018624564,255.00010927308023,0.1014006705233154,1.3208252433883723e-06,-0.787064314953661,-0.6100326744125627,0.0842322626616496,11.943589731257932,11.501875331223982,33.32330486081723,32.6618711284223
0.92,31.22218823825979,131.01044773378774,16.09625845854896,8.88845301796012,-7.153509038750098,22.34628940054729,18.57778984919345,-20.290463160061893,315.0281342480675,34.70189322681111,12.987891312992629,60.173837244611455,-11.212674786911792,107.62573972601096,736.4524076846513,1.274,1.0233859136578225,0.0,11.294769822550847,255.00010927308023,0.1019948862628161,1.3643597040755117e-06,-0.8050411720926355,-0.6248776574642356,0.0866585788518673,11.391474569770612,11.36121506462826,33.58113969376624,35.442824674447664
0.93,31.22218765204402,131.0104489144515,16.361541093283627,8.433809843486092,-6.770931544385531,26.790948666577474,19.05380070256945,-20.88278403403028,359.16250706547066,34.99670191786274,13.152185984997704,59.65075065574123,-11.660490272236409,107.1081950608358,748.9994869862567,1.274,1.0233407575091376,0.0,11.3260383616351,255.00010927308023,0.102861688048862,1.41075837647294e-06,-0.8224168999331459,-0.6391654250777578,0.0892788076199001,10.800127845448053,11.21181795039636,33.93560028245595,38.94730954354069
0.94,31.22218705887888,131.01045011824712,16.630215846961175,7.962661423903368,-6.3747300012861405,18.165693037495323,19.549494910122867,-21.50345422678642,283.06875048378083,35.34275683002005,13.344854061532772,59.114238577949166,-12.102108630164864,106.59504163110786,763.8655472089519,1.274,1.0232914783978162,0.0,11.356925653838765,255.00010927308023,0.1038791214392685,1.4601614055819808e-06,-0.8391974155027233,-0.6529011403068106,0.0919988907259142,10.187197117732886,11.069699829086227,34.34348120208957,34.27205419079698
0.95,31.22218645989201,131.01045134221488,16.901604606024485,7.522195827687651,-6.0022101444284575,24.239842095354888,19.927006302183862,-21.975566949241497,342.421873617488,35.544055726961254,13.467124034779882,58.56467149420833,-12.53685239291698,106.08700423445548,772.5715655819849,1.274,1.0232418269359267,0.0,11.387767455019398,255.00010927308023,0.1044710972961022,1.5127079060606904e-06,-0.8553623732422455,-0.6660686474388015,0.0943026363789015,9.612626039070136,10.994606841900696,34.602954291403705,38.30902070943095
0.96,31.22218585923656,131.01045257062543,17.172995374467504,7.047268878281474,-5.6021370322568895,23.271889989619705,20.38006654982964,-22.547894152369004,337.09533515678265,35.88185099573819,13.66134547592284,58.00244427388285,-12.964117763463303,105.58473598082684,787.3051908926643,1.274,1.0231951201821403,0.0,11.418504409000084,255.00010927308023,0.1054642681797118,1.5685609078934955e-06,-0.870804846437798,-0.6785828622008166,0.0969150150032615,8.993854194819452,10.905037759720296,35.00327081636149,38.27970097807562
0.97,31.22218525072577,131.01045382880497,17.44851726036189,6.578152003642855,-5.2061838525512645,12.865361685921227,20.784660904169048,-23.061360394459555,245.0218871929888,36.179750055808896,13.838106773286656,57.42803311944624,-13.383329290186056,105.08887157946852,800.4110407130406,1.274,1.0231476260761452,0.0,11.448836228584156,255.00010927308023,0.1063401864390249,1.627822964251416e-06,-0.8855406391663966,-0.6904568993004274,0.0993706105844145,8.381955171524883,10.85416584344132,35.363089479213684,33.605743608109776
0.98,31.22218463864932,131.01045510040603,17.72536461631983,6.133393554003267,-4.828965833270775,20.565376703515287,21.06065231339859,-23.413351720496,319.593746642963,36.33269794480942,13.941277141807884,56.84191421655519,-13.79400221882307,104.5999538758833,807.1712697934295,1.274,1.0230935628253934,0.0,11.479224595842036,255.00010927308023,0.1067900672715127,1.6906173525140353e-06,-0.8995084592677585,-0.7016421828346735,0.1013620189726393,7.800528495972432,10.87187202437275,35.575063466088565,37.61211019885754
0.99,31.22218402514544,131.01045637625728,18.002096018373287,5.65472856440868,-4.424953639748721,22.544735810973663,21.435312065277223,-23.89525546211532,341.66094855170127,36.655889907060136,14.136922453557755,56.24461425413138,-14.195700042859428,104.1184834619312,821.5734404714461,1.274,1.0230490803133316,0.0,11.509360853425184,255.00010927308023,0.1077403384104896,1.757073380629105e-06,-0.9126169771941492,-0.7120671229558942,0.1037511981196312,7.175829570751438,10.869989688401706,35.961510563313354,39.2265337459502
1.0,31.222183404025216,131.0104576845856,18.28296783597489,5.175703658476798,-4.020449027861536,19.13936464322005,21.78218060596328,-24.34502938342728,314.2672081822764,36.9749687482854,14.333824693294684,55.636730244078834,-14.58802151822273,103.64493443874024,835.9162578870386,1.274,1.022999484445133,0.0,11.539097111561649,255.00010927308023,0.1086785310879951,1.827244758445856e-06,-0.924885318641787,-0.7217471054026333,0.1060583326990212,6.550413265010577,10.89842699899078,36.343956223433125,37.86105025718228
1.01,31.222182779114178,131.0104590096178,18.56542658807476,4.703967189019116,-3.621541447127421,19.86769219291413,22.060525437719367,-24.710501226149866,324.92031610370094,37.238357097654365,14.503444729366858,55.01885548675602,-14.970647356739924,103.179697874564,847.8448446107577,1.274,1.0229507481225095,0.0,11.5688915666674,255.00010927308023,0.1094530430957964,1.901205370508486e-06,-0.9362683150243988,-0.7306466254677653,0.1081255055952517,5.934086348528571,10.971169091085777,36.66986541631184,38.62642678928764
1.02,31.22218215082852,131.01046034976537,18.849202492435268,4.2265818881582335,-3.218258961088668,15.043658577943631,22.334430486540544,-25.073866964753154,284.59063161543185,37.534183423415726,14.693843053094083,54.391621804917776,-15.343306616862945,102.72312139174974,861.3456534809411,1.274,1.0229039803623294,0.0,11.598473425023624,255.00010927308023,0.110322905483242,1.97902377348474e-06,-0.9467087363580304,-0.7387213624113534,0.1101967618366264,5.310592017625779,11.063508282315004,37.02892626519667,36.79452748893493
1.03,31.222181517670126,131.0104617132507,19.13538865056231,3.7569518669649575,-2.820879680495664,10.550478342654957,22.524338454552552,-25.33315251432859,247.3046933904342,37.759032038534535,14.847561878202749,53.755707141642354,-15.705769896330745,102.27551711281136,871.6723906394893,1.274,1.022853416101322,0.0,11.62781936097336,255.00010927308023,0.1109841535037879,2.0607317748473767e-06,-0.9561747620958576,-0.7459465441525869,0.1119622629503013,4.696875552210185,11.20341312572888,37.31610828269468,35.502493326360884
1.04,31.22218088209135,131.01046308852816,19.422286417865287,3.290238171211489,-2.4257327531699007,20.804093013965968,22.652667245758543,-25.51703711426772,345.4656368807608,37.945385871432336,14.981866597170514,53.11181811095449,-16.057856267807363,101.8371526475716,880.2733733689257,1.274,1.0228049544826707,0.0,11.657045134309632,255.00010927308023,0.1115322596011875,2.146366060581186e-06,-0.9646129196321854,-0.7522811097722674,0.1135046410764316,4.086976432261611,11.380856657108191,37.56446648020078,39.96339328149858
1.05,31.222180243746948,131.0104644778104,19.71016357256283,2.806601544840279,-2.0183141838588257,8.935070835919747,22.886194560882814,-25.83965141347821,240.4562587980608,38.312001933772,15.222469346690083,52.460704012288026,-16.399422268471962,101.4082641323394,897.3405679947031,1.274,1.022755494436122,0.0,11.685982321080372,255.00010927308023,0.1126102140667064,2.235936953537148e-06,-0.97198402279375,-0.7576954073040688,0.1154738207825557,3.456493226448175,11.532986322044652,37.99503144673075,35.655307844576974
1.06,31.222179598722928,131.010465904181,20.00194176821445,2.34247523937299,-1.62539320938387,15.88996874288162,22.913898861269217,-25.90170572873648,308.1796836557233,38.45437248188436,15.336275123103178,51.8031467388593,-16.730364397414014,100.98905258346,903.9968081319312,1.274,1.0227013895379469,0.0,11.714664847311084,255.00010927308023,0.1130290550130706,2.3293813673350853e-06,-0.97828315321077,-0.762184160134098,0.1166507932647131,2.850898299547244,11.772730030700222,38.19909055733607,38.0583266491354
1.07,31.222178954591847,131.01046732553883,20.292087977700696,1.867218014705628,-1.2251273114499472,19.86504251668608,23.035715456813968,-26.088401253909467,348.5093681440431,38.76463584523805,15.551143307718048,51.139937349768566,-17.050625094828185,100.57967536770008,918.617583342196,1.274,1.0226540159946436,0.0,11.743383200952834,255.00010927308023,0.1139413861120477,2.42671816669043e-06,-0.9834470756327048,-0.7657009881180685,0.1182093943351065,2.2331387402941525,11.986311713603222,38.57220796132677,40.07329261218784
1.08,31.222178303976964,131.01046878573595,20.586121207926503,1.3931458860065404,-0.8264928440227262,9.919671903076098,23.144394783825447,-26.26222208508044,261.0015785751465,39.103903286510494,15.787320499791724,50.47191444427392,-17.36017238417778,100.18027129389216,934.740999700408,1.274,1.0226061614050743,0.0,11.771593075734565,255.00010927308023,0.1149389805610201,2.527843389365766e-06,-0.9874656517376406,-0.7682364849504254,0.1197278361259324,1.6198182784518962,12.21172746252193,38.97408259647687,36.38361182483579
1.09,31.22217764985048,131.01047026909967,20.881908529432145,0.9290220230758552,-0.4352047842007772,7.95268258399757,23.089383525599057,-26.22921002730396,246.54375332456465,39.27852725549872,15.9273302884105,49.79992832035161,-17.659010987803143,99.79094561712624,943.081281444726,1.274,1.0225512795791307,0.0,11.799824968364124,255.00010927308023,0.1154526420573249,2.632668133042684e-06,-0.9903062276433972,-0.7697646942302363,0.120605022199729,1.0258988861210177,12.50395470316161,39.21016610521583,35.83763734581907
1.1,31.22217699512254,131.01047175718622,21.177226164431847,0.4657963605937411,-0.0454252538028161,25.747020418448816,23.01586582413453,-26.17608587104188,413.1890617384087,39.47732213365719,16.084338609072688,49.12485564334248,-17.947172037066043,99.41178241079432,952.6245863080036,1.274,1.0224981043155532,0.0,11.827888976250955,255.00010927308023,0.1160373529388578,2.7411369717122923e-06,-0.9919343189077932,-0.770262237438258,0.12141126111663,0.4680060445825932,12.805640717899475,39.47018675222298,43.33389679674264
1.11,31.222176337067207,131.0104732684239,21.474211918165786,0.0013333166848299,0.3421920859823597,15.671014438739896,23.119580554023376,-26.35593488441629,324.1593910379213,39.956517200091305,16.418891166236143,48.44759960546904,-18.224712020361768,99.04284520079403,975.8639590360364,1.274,1.0224548851875197,0.0,11.855580539605157,255.00010927308023,0.1174462647400145,2.853119579764762e-06,-0.9923308139890532,-0.7697145353492526,0.1229306232631159,0.3421946835088525,13.035709151780942,40.01026828771791,38.40222652613728
1.12,31.22217567174324,131.01047483313312,21.776115561499257,-0.4549903480771553,0.724451925523884,-1.18505845854273,23.0022929499098,-26.254769717788253,172.7328179403806,40.1992413484366,16.6098800710076,47.769079526787614,-18.491711930479173,98.68417719882488,987.7275040170044,1.274,1.0223979224661404,0.0,11.88310853160666,255.00010927308023,0.1181601189713966,2.9683839888678727e-06,-0.9914611628492594,-0.768088694407285,0.1235654202194266,0.8554740072061972,13.350664462664136,40.31303495865635,34.9259613674087
1.13,31.22217500700244,131.0104763964256,22.07671041482862,-0.9087541981653564,1.105611948088676,19.76104914757763,22.695140840405177,-25.91165945514096,367.5328077894322,40.243028769029216,16.67627025325429,47.0902420787089,-18.74826625733193,98.33581520270492,989.8518801297676,1.274,1.0223460397860296,0.0,11.910772921882849,255.00010927308023,0.118289227288154,3.086836036324869e-06,-0.9893076674397752,-0.7653766042168956,0.1234277697382818,1.431121751042008,13.739238698922836,40.41668711008666,39.71123993151059
1.14,31.222174342228573,131.01047796113923,22.376423889258973,-1.3523639334798605,1.4739046344861435,5.5133304395296685,22.65335598024044,-25.916600535508486,239.6953177322812,40.68809073081224,17.003349863949328,46.41204740363252,-18.994491863312465,97.99777699626088,1011.8380669238936,1.274,1.0223022138470996,0.0,11.938005468655549,255.00010927308023,0.1195978343976407,3.2083553838817127e-06,-0.9858775197128408,-0.7615902258041332,0.1243565371726659,2.000219894289782,14.007118886301678,40.91958559550238,34.86031458578736
1.15,31.2221736692986,131.01047959360676,22.682115605645745,-1.7965860431181937,1.8448026704914344,5.009233109791074,22.333646243255497,-25.56529687144644,237.4125115347709,40.81747394964369,17.12924144189758,45.735451414618986,-19.230530974334847,97.6700559668208,1018.2534455493784,1.274,1.0222426194541194,0.0,11.9648581478365,255.00010927308023,0.1199785549562887,3.332597207197548e-06,-0.9811108168490386,-0.7566723329171003,0.1241451568110186,2.5748597547175747,14.384042224255476,41.10720480860169,34.31426197650616
1.16,31.22217299904567,131.01048120800408,22.984757735859898,-2.233030967808725,2.2076682103362697,32.36801746064783,22.02559864811865,-25.23304216086685,490.043774385954,41.01317704144223,17.30058687395061,45.06145452659417,-19.45652238957276,97.35265993391724,1028.0111865950828,1.274,1.02219674531104,0.0,11.991945061146426,255.00010927308023,0.1205542147684886,3.4594423656170967e-06,-0.9750386435640578,-0.7506567075517508,0.1239647502146296,3.139706681540737,14.74347397262331,41.35987095196337,46.57812755825306
