Time,Latitude,Longitude,Altitude,Angle of Attack,Angle of Sideslip,X-Acceleration,Y-Acceleration,Z-Acceleration,Thrust,True Velocity,Ground Velocity,Pitch,Roll,Yaw,Dynamic Pressure,cp,parachute_deploy_gain,Wind Speed,Mach,omega_x,omega_y,omega_z,Cmq,Angle of Attack(total),Angle of Attack(gust),True Velocity(gust),Acceleration
0.0,31.222186000000004,131.010384,3.000000003643237,0.0,0.0,0.0,0.0,0.0,2.2828121974499247,0.0,0.0,69.99999999623421,0.0,113.69999999388332,0.0,15.288,0.0,0.0,0.0,0.0,0.0,0.0,-0.0,0.0,90.0,0.0,0.0
0.01,31.22218600000153,131.01038399999584,2.99999882256592,0.0,0.0,0.0,0.0,0.0,34.24218696174923,7.502283530665459e-11,7.190531319924593e-11,69.99999999623329,-4.83564628150269e-13,113.69999999388072,3.446445726795683e-21,15.288,0.0,0.0,2.204725565824978e-13,-3.659182332138578e-19,7.589415207398531e-19,4.811147140404426e-19,-1.5108918610345807e-31,0.0,89.9999999995224,7.502283530665459e-11,0.0
0.02,31.22218600000288,131.01038399999217,2.999997775701936,0.0,0.0,0.0,0.0,0.0,25.871876237766408,1.5320717031631675e-10,1.4674636035870463e-10,69.99999999623222,-9.67129256300373e-13,113.69999999387804,1.4372842949972735e-20,15.288,0.0,0.0,4.5023593667086093e-13,-7.284483346386986e-19,1.5178830414797062e-18,9.757819552369542e-19,-6.170906918166791e-31,0.0,89.99999999902465,1.5320717031631675e-10,0.0
0.03,31.22218599928065,131.01038400193067,3.000201659671132,18.81500467334555,-0.00012974450181,11.96616230539064,-1.8916256735984712e-05,3.349833086198469,180.34219359854663,0.0882870268161719,0.0553390044312322,69.99999999799445,-4.212591857125379e-12,113.69999999488518,0.0047728553458352,15.288,0.0,0.0,0.0002594525584132,3.2187251995663407e-17,-7.20264389268894e-10,1.2365134327422308e-11,1.6874092354518158e-13,18.815004673776716,89.46786891739345,0.0882666465974854,12.426199017587786
0.04,31.22218599548236,131.0103840121632,3.001799604587872,9.46752327608497,-4.6177622759613696e-05,55.21900012092241,3.931876292165237e-06,3.349616504302861,548.6359724538078,0.3767519978512604,0.1853356633749705,70.00000000507204,-2.4624598767003407e-11,113.70000000019972,0.086915163246288,15.288,0.0,0.0,0.0011071759353184,1.6174128009138757e-15,-1.3693172015529268e-08,2.7753303060112748e-11,1.3689612277852356e-11,9.467523276196548,87.63554493451223,0.3767447442872393,55.32050167054111
0.05,31.222185984749512,131.01038404118162,3.00777936418888,5.376730308971262,-2.257790939128127e-06,80.28807156553681,5.266841443842784e-05,3.348887800834877,761.6984298824644,1.018787885905993,0.4366201147110198,70.00000000894464,-1.1355399380652658e-10,113.70000001523856,0.635552918586145,15.288,0.0,0.0,0.0029939522895272,1.6418815498809788e-14,-9.32122351075408e-08,4.303264669380585e-11,2.5199270302492604e-10,5.3767303089717045,83.57022052969386,1.0187875312530217,80.35788377762394
0.06,31.22218596447235,131.01038409608267,3.0201664202003013,4.296730121134882,2.4863835723705905e-05,60.21296515808257,0.0001057204249726,3.347700952379021,590.4875390737208,1.721098934225416,0.7081674028809783,69.99999995523842,-3.0560354507026086e-10,113.70000004366592,1.8138247671743823,15.288,0.0,0.0,0.0050578622752421,8.328976953118383e-14,-3.2824985336199985e-07,5.923438275930214e-11,1.4991363363716091e-09,4.296730121206683,79.20467073327266,1.7211028398275985,60.305955550063224
0.07,31.22218593493329,131.01038417609837,3.038741944736831,3.8204913578752526,4.8016684030909405e-05,91.4060317508128,0.0001597686613101,3.346072557365335,855.2937749779139,2.4375792548422868,0.9844712334613328,69.99999973536046,-5.939103491363046e-10,113.7000000850886,3.6383156301599167,15.288,0.0,0.0,0.007163413150771,2.709313825263564e-13,-7.906546256197275e-07,7.920022733617308e-11,5.114174483651565e-09,3.820491358176508,74.87999294483174,2.437586797285377,91.46725557277466
0.08,31.222185894468456,131.01038428575305,3.0647976109320942,3.588632851766762,7.220043782492885e-05,19.18449428359557,0.0002119618497595,3.3440615022685813,241.2171988638848,3.1292508166901074,1.2522236515868983,69.99999919480445,-9.914748373602156e-10,113.7000001418522,5.996012698481753,15.288,0.0,0.0,0.0091960591623389,6.80386533246681e-13,-1.5973238302190878e-06,1.0839624626357699e-10,1.3263625118823921e-08,3.58863285249208,70.86684630658345,3.1292621579083604,19.473766155861934
0.09,31.22218584634549,131.01038441616095,3.0957981580345013,3.551302481506045,9.685468678862004e-05,57.102946699906326,0.0002554087225869,3.341892818148368,563.0937377043176,3.701810007254615,1.479132491047967,69.99999812344194,-1.4359264356978275e-09,113.7000002093888,8.390904013834115,15.288,0.0,0.0,0.010878666406854,1.440096519545733e-12,-2.748643691533636e-06,1.5214952332699618e-10,2.6999776649034504e-08,3.5513024828250237,67.68737872952666,3.701825221153239,57.20065357568538
0.1,31.222185790329306,131.01038456796124,3.1319266121977414,3.608446747536112,0.0001234669721807,54.26147302645416,0.0002914860332524,3.3396271157106168,538.7437595981919,4.174070299823608,1.6716491241860567,69.9999963052332,-1.902380107712657e-09,113.70000028805804,10.668380938744466,15.288,0.0,0.0,0.0122665227999911,2.687800116751415e-12,-4.315796035622946e-06,2.1749089204950437e-10,4.7802076800548326e-08,3.608446749645647,65.17160335282355,4.174089693970246,54.36414778470795
0.11,31.222185727066616,131.0103847393952,3.172681775073216,3.633547373470009,0.0001485939126744,42.987553988990406,0.0003293995000288,3.337005588796181,442.8656393052949,4.672024955140527,1.8729475711242067,69.99999349387662,-2.3433348587116544e-09,113.70000037699285,13.365573690709628,15.288,0.0,0.0,0.0137298902182575,4.5789425819531184e-12,-6.340230783164189e-06,3.1157625832417107e-10,7.860218435507205e-08,3.6335473765043056,62.62546922225161,4.672048296217748,43.116880735560244
0.12,31.22218565692512,131.0103849294629,3.2177790417108385,3.650108937861461,0.0001727442530266,46.86777100765684,0.000367618259785,3.334068179146888,475.58594813540446,5.17479364099247,2.0758708919414386,69.99998941286465,-2.702771525550512e-09,113.70000047573096,16.396890189902592,15.288,0.0,0.0,0.0152074069417046,7.288473386564583e-12,-8.86736416607888e-06,4.42271554299792e-10,1.217615295152289e-07,3.6501089419435786,60.16906436414164,5.174820775596283,46.986210423745625
0.13,31.222185580265183,131.0103851371844,3.2669395832841857,3.7280113734654137,0.0001995014041665,51.64515456841877,0.0003986198234033,3.3311573548369657,515.9156326236895,5.579364582999854,2.2451120211463422,69.99998375846928,-2.9114380666036422e-09,113.70000058383452,19.060875702782603,15.288,0.0,0.0,0.0163963474924215,1.100846422415094e-11,-1.1941028436408576e-05,6.179653149059831e-10,1.7678562106638216e-07,3.728011378795934,58.279338776943774,5.579395920607139,51.75247433579817
0.14,31.22218549718016,131.01038536230575,3.320091807147376,3.768719651034081,0.0002242721760019,48.1660778383537,0.0004326225136175,3.32784677779744,486.2390860568404,6.025734265159953,2.428648685938864,69.99997621008868,-2.890941335368725e-09,113.70000070125378,22.232643351545065,15.288,0.0,0.0,0.0177081261985351,1.5941871344608664e-11,-1.560901486259027e-05,8.477542742712431e-10,2.495765160917323e-07,3.7687196576976176,56.27980129251342,6.025769493750979,48.280903250602165
0.15,31.22218540777004,131.01038560455507,3.377159065217065,3.821894709649632,0.000249725644238,46.56959330999435,0.0004643042952466,3.324387732286376,472.54218587214,6.441023336496372,2.6014999612196745,69.99996641132823,-2.546763407193136e-09,113.70000082794672,25.402620271850456,15.288,0.0,0.0,0.0189285691155931,2.2314099732464315e-11,-1.992367942778425e-05,1.1417519574710292e-09,3.4051816697623295e-07,3.821894717796148,54.501255563441134,6.441062563308839,46.68809885900716
0.16,31.22218531193176,131.01038586421257,3.4382223512025254,3.8463320955387794,0.0002733212404609,36.974247749122085,0.0004987816203583,3.3205066466509234,391.1218908297564,6.895451966878468,2.7877331692857847,69.99995397923414,-1.77088415515292e-09,113.70000096417354,29.113317717489338,15.288,0.0,0.0,0.0202640360420561,3.0367358387834494e-11,-2.4945905791363795e-05,1.5114297685186711e-09,4.5643121540033697e-07,3.846332105235269,52.641145594326446,6.895494900078523,37.12304892183151
0.17,31.222185210004127,131.010386140357,3.503019838429153,3.8860314262554336,0.000297865039677,46.520531453299206,0.0005306403365217,3.31650761597812,471.78125980632376,7.314788342774694,2.9619016331667103,69.99993849340957,-4.3039914767238207e-10,113.70000110959404,32.761746921137856,15.288,0.0,0.0,0.0214963781445172,4.0366633128431416e-11,-3.0713078585132897e-05,1.96747427715988e-09,5.961228045584824e-07,3.886031437653654,51.00464968745696,7.314835131305714,46.63860064094784
0.18,31.22218510147516,131.01038643438045,3.571950002194137,3.9107265153396016,0.0003214293682635,38.895647526122765,0.0005639254295027,3.312149448254175,407.10156721191447,7.754626295791602,3.1430587898572058,69.9999195084231,1.6149322372810674e-09,113.70000126508234,36.81988229018681,15.288,0.0,0.0,0.0227889722876034,5.2593391349219385e-11,-3.731786027786564e-05,2.525509173087448e-09,7.6786585232224e-07,3.9107265285284982,49.36615848311875,7.754676785798701,39.036415444581515
0.19,31.222184986476247,131.0103867459258,3.644912152926752,3.920599115663931,0.0003437679584038,43.86258669386953,0.0005989384366483,3.307389681300437,448.9531328318269,8.219206165926856,3.332657190859447,69.99989653019398,4.538529095696477e-09,113.70000143063515,41.36350714675367,15.288,0.0,0.0,0.02415428010977,6.735860419174937e-11,-4.481243905342629e-05,3.199401151670645e-09,9.773118416308382e-07,3.92059913071168,47.71893898797248,8.21926016487149,43.987104227715655
0.2,31.222184864792144,131.01038707557822,3.722074668489528,3.943376465171875,0.000367328732016,40.28070981710589,0.0006315894240138,3.30251450988504,418.51563019916136,8.65238089736321,3.511445117640573,69.99986902534273,8.534090245934178e-09,113.7000016067622,45.83799876721736,15.288,0.0,0.0,0.025427299120469,8.499785987217288e-11,-5.328041996372527e-05,4.006766070954748e-09,1.2232205148646746e-06,3.9433764822533854,46.2587826635041,8.652438597225508,40.41586552155969
0.21,31.22218473678744,131.01038742234647,3.803156063113743,3.9664546506877016,0.000390962054969,38.67679184347145,0.0006636984664108,3.297405915846789,404.8187610144644,9.079179692250786,3.688002035198235,69.99983642883521,1.3827831253856693e-08,113.70000179318536,50.47126980736161,15.288,0.0,0.0,0.0266815841422463,1.0586558589671407e-10,-6.275155280099118e-05,4.961340042512481e-09,1.5117124669161171e-06,3.9664546699249135,44.88773728276958,9.079241104426773,38.817098210937615
0.22,31.2221846022986,131.01038778667507,3.8882846911135607,3.956175711337521,0.0004112685792646,46.713636108302936,0.0007011135033803,3.291572407481395,472.5421858721365,9.580256326712124,3.889976788904857,69.99979815126248,2.0662823443484168e-08,113.70000199039316,56.195522894218605,15.288,0.0,0.0,0.0281541581291438,1.3033127211465288e-10,-7.330053770532661e-05,6.0817207473359025e-09,1.8632831045819008e-06,3.956175732680424,43.35679625546934,9.580320928629488,46.8294591882524
0.23,31.222184460898035,131.01038816972698,3.977794004014759,3.9879066397329104,0.0004360962274406,38.89105719050748,0.0007308686121188,3.286096544282012,406.3406421461021,9.977039034039262,4.056142701351626,69.99975353557706,2.9316661139418326e-08,113.70000219928508,60.9462612310605,15.288,0.0,0.0,0.0293202403623685,1.5880617816859538e-10,-8.505067486192354e-05,7.393319440773217e-09,2.2514912291167663e-06,3.987906663538912,42.20670487756048,9.97710753587448,39.0296395118868
0.24,31.222184313516166,131.01038856897196,4.070963590490852,4.003523997322975,0.000459165577055,40.0792299321398,0.0007630441688766,3.280134925833028,416.2328240017114,10.408422364424831,4.234121060914368,69.99970190737699,4.010976417051318e-08,113.70000241888,66.32994780718496,15.288,0.0,0.0,0.030588009649109,1.91711512587616e-10,-9.795845222523724e-05,8.904557280909524e-09,2.7052895870113487e-06,4.003524023611085,41.011349410369874,10.408494489985014,40.21323112692186
0.25,31.22218416001652,131.01038898478134,4.167901030441617,4.0261356185860135,0.0004830526730531,41.17760020658354,0.0007934613160587,3.2740610008587527,425.36408079150686,10.816813039390448,4.4041629376391525,69.99964258149416,5.3372865854010094e-08,113.70000264972064,71.63651430352668,15.288,0.0,0.0,0.0317882126436337,2.2947426169209347e-10,-0.0001121037688082,1.0637152702866709e-08,3.217380562698304e-06,4.026135647516394,39.93186687113378,10.816888917126896,41.30755663120434
0.26,31.222184000702686,131.0103894163294,4.26837241014618,4.053359329950934,0.000507503069958,44.80261175215926,0.0008224724146494,3.2678597736729302,455.8015834241788,11.207047269494833,4.567925492611352,69.99957484039399,6.947299261165984e-08,113.70000289176392,76.89781807056055,15.288,0.0,0.0,0.0329350617559806,2.7254099134167665e-10,-0.0001275114371842,1.260720913253598e-08,3.7915697709142366e-06,4.053359361668992,38.945390435244384,11.207126987890645,44.921630958721536
0.27,31.22218383516388,131.01038986473338,4.372698316214008,4.0614460923241,0.0005296455772492,41.029837477288126,0.0008548809954683,3.2610328932384265,423.84219965987256,11.645685385842508,4.748226940060522,69.99949794024376,8.879821051920497e-08,113.70000314600205,83.0342688744587,15.288,0.0,0.0,0.0342241635563461,3.2137296827284217e-10,-0.0001442952656441,1.4842505534226832e-08,4.458527942364847e-06,4.061446126801262,37.8838346421185,11.645768582375233,41.15922617924542
0.28,31.222183663504484,131.01039032970942,4.48079961904222,4.081133040992532,0.0005533279247169,47.27661484082626,0.0008845140695959,3.254218495915602,476.3468732012221,12.047344998676092,4.915789434712848,69.99941106884992,1.1178948978424788e-07,113.70000341275257,88.85982357848233,15.288,0.0,0.0,0.0354045979054623,3.764736350660473e-10,-0.0001625146963723,1.7365685655384934e-08,5.194620655212288e-06,4.081133078439725,36.956255322213885,12.047431915223257,47.38848224631549
0.29,31.22218348566054,131.0103908114315,4.592727908358551,4.1001100265020245,0.0005770279952742,37.989969791857405,0.0009138463939581,3.247164755122801,397.97031042211177,12.446314684600782,5.082367374004485,69.99931338876085,1.3891902435864665e-07,113.70000369260468,94.8417675268915,15.288,0.0,0.0,0.0365771315767517,4.3836067907166327e-10,-0.0001822432988888,2.0202163500922312e-08,6.018074062137429e-06,4.100110067036654,36.07377590258778,12.446405323946324,38.12849176886316
0.3,31.222183301933686,131.01039130907952,4.708251093558373,4.112858061667493,0.0005998635114143,35.655053282557844,0.000944131403186,3.2397207148238625,378.1859457108711,12.860033399289696,5.253940723820665,69.99920403105713,1.707002607527005e-07,113.7000039856728,101.2505662360602,15.288,0.0,0.0,0.03779301412572,5.075709863465428e-10,-0.0002035013069687,2.3370674033523645e-08,6.94335970778e-06,4.112858105337573,35.19685285507256,12.860127625629724,35.80193592228613
0.31,31.222183112488807,131.0103918222051,4.827243246502713,4.136140889545823,0.0006242383343011,37.56633644061071,0.0009716215464757,3.232339252743767,394.1656220930212,13.2364445751808,5.4126574282679245,69.99908210036875,2.0768081583188525e-07,113.7000042923011,107.26326115439352,15.288,0.0,0.0,0.0388992619788015,5.846561731689753e-10,-0.0002263323252403,2.6893437641668458e-08,7.948283231812338e-06,4.1361409365698805,34.43286455705216,13.236542630309057,37.70514091683033
0.32,31.22218291741533,131.01039235056504,4.949637017503345,4.1622282001352975,0.0006491019906456,40.83513712643371,0.0009979686925508,3.224840963348891,421.55939346242695,13.59846554462374,5.566374262777002,69.99894668612772,2.504388718903276e-07,113.70000461297312,113.2095365840355,15.288,0.0,0.0,0.0399632243410653,6.701756367872645e-10,-0.00025078340164,3.0793566854276295e-08,9.047716714467492e-06,4.16222825066026,33.72644865222576,13.598567505326,40.96227562489027
0.33,31.222182716732533,131.01039289410716,5.075419569102976,4.187801887681037,0.0006739743721461,40.48743503284469,0.0010239291638211,3.217136801802925,418.5156301991682,13.956637761217308,5.718704299733134,69.99879684673242,2.995902922462564e-07,113.70000494831164,119.25032483364384,15.288,0.0,0.0,0.0410158804634189,7.647061680070125e-10,-0.0002769136723495,3.509664608790402e-08,1.0253455741189656e-05,4.187801941818244,33.053267359159875,13.956743628864118,40.61505097607
0.34,31.222182510255863,131.01039345333336,5.204736257784645,4.19642921746386,0.0006961879027693,31.814592723444047,0.0010535137542081,3.208669900766693,345.46563688075645,14.367047160772364,5.88887983533068,69.99863160305904,3.557915789971256e-07,113.70000529927128,126.36523219087664,15.288,0.0,0.0,0.042222056531773,8.688448410811866e-10,-0.0003048202762282,3.9835373705550826e-08,1.1618525957862828e-05,4.196429275109305,32.30947868183619,14.367156517712404,31.97598901989736
0.35,31.222182298183583,131.0103940277045,5.337435501771672,4.210915783240843,0.0007193441544952,34.813487415034444,0.0010813034848195,3.200164272309822,370.5765700527033,14.754132934586384,6.050986755458457,69.99844991734221,4.1975736284587617e-07,113.70000566632532,133.26448209504355,15.288,0.0,0.0,0.0433596939127697,9.832256819293898e-10,-0.0003345386312107,4.503361101379695e-08,1.309465610343774e-05,4.210915844572415,31.63649055965014,14.75424592890194,34.96026256388454
0.36,31.222182080444604,131.0103946174141,5.4735747500461605,4.22903876037745,0.0007431682866607,39.2632255716727,0.0011077666085529,3.1915717453569297,407.8625232777193,15.124417129017054,6.2072589919251575,69.99825073022951,4.922382611919288e-07,113.70000605036684,140.03566173682628,15.288,0.0,0.0,0.0444479595865755,1.1084921261805627e-09,-0.0003661511460057,5.0723697896912267e-08,1.4691545926915382e-05,4.229038825557203,31.017264542603208,15.124533865618538,39.39272792946638
0.37,31.22218185710795,131.01039522227452,5.613102797925907,4.249164960780052,0.0007674149135003,37.28328237034959,0.001133274451316,3.1828514669894137,391.1218908297666,15.483077353331511,6.359470679857624,69.99803294268581,5.740349991123437e-07,113.70000645214331,146.75405277514704,15.288,0.0,0.0,0.0455020695186381,1.245311285088233e-09,-0.0003997125883071,5.6934243389647934e-08,1.641828325195534e-05,4.2491650299519,30.439178816713017,15.483197898584232,37.418894813348615
0.38,31.2221816281124,131.0103958424523,5.756069531572451,4.260095806433531,0.0007900626414612,38.9278000801764,0.0011607546399008,3.1735466295306622,404.8187610144602,15.87126705947922,6.521735074464384,69.99779542676283,6.659911329739736e-07,113.70000687263192,154.20298254405043,15.288,0.0,0.0,0.0466429667223463,1.3943646956867835e-09,-0.0004353006984059,6.369875435270817e-08,1.8328108041903096e-05,4.260095879559656,29.83470194713067,15.87139116222873,39.05694584372078
0.39,31.22218139339905,131.0103964781077,5.9025231349944285,4.274091258047817,0.0008133283308351,33.320076729592266,0.0011870382950339,3.164143363712209,357.64062493382744,16.24457853509073,6.678818328235205,69.9975369905506,7.690136753559805e-07,113.70000731287368,161.54010621938565,15.288,0.0,0.0,0.0477401448128051,1.5563705124515804e-09,-0.0004730068442167,7.105463478762673e-08,2.0383860516746246e-05,4.274091335289374,29.274934656826048,16.244706292406182,33.46997636540994
0.4,31.22218115316572,131.01039712870306,6.0523126585892895,4.286421841403391,0.0008363022448449,31.88018820767003,0.0012133780841982,3.1544430614236454,345.465636880754,16.62063299903514,6.836764518435374,69.99725641601981,8.840594270905819e-07,113.70000777359816,169.10340080049767,15.288,0.0,0.0,0.0488453895716005,1.7320643186450851e-09,-0.0005128553637434,7.9027539265021e-08,2.2612406375611563e-05,4.286421922834417,28.730746964325096,16.620764365084565,32.03586915718869
0.41,31.22218090752676,131.01039779392735,6.205351877049411,4.30025870409831,0.0008595777771371,35.882550741685804,0.0012389121673015,3.1445895889870297,378.94687077668647,16.987310563534386,6.99141560549392,69.9969524610574,1.0121301778427253e-06,113.70000825570062,176.64448930727934,15.288,0.0,0.0,0.0499230826371405,1.922193031274436e-09,-0.0005548883906878,8.764667734700782e-08,2.5005077415911235e-05,4.300258789847355,28.21875643368965,16.987445585695873,36.020076248499606
0.42,31.222180656535848,131.0103984736348,6.36160173428776,4.322008670726048,0.0008844838439129,40.34064925656127,0.001261804338223,3.134918999355981,416.2328240017114,17.318628721060172,7.133856886815013,69.99662385300175,1.154276942054023e-06,113.70000876021427,183.59942989625057,15.288,0.0,0.0,0.0508968652507098,2.1275184665783874e-09,-0.0005991661829955,9.694534598491077e-08,2.752657757470936e-05,4.322008761057615,27.772396468009568,17.318767655457478,40.462275036947325
0.43,31.222180400205527,131.0103991677914,6.521055075967404,4.339436441324956,0.0009085827200945,35.541853595187746,0.0012854696362701,3.124839917627212,375.9031395134336,17.662848429084132,7.280642039343927,69.99626930133451,1.3115939750280808e-06,113.70000928827632,190.96736675963504,15.288,0.0,0.0,0.0519085689713619,2.3488101247838237e-09,-0.0006457514522491,1.0695800287133593e-07,3.0255957891170616e-05,4.339436536261635,27.322335771349252,17.662991148924057,35.67895714766603
0.44,31.22218013836212,131.0103998768696,6.683849332059896,4.342209064313268,0.0009296474314902,32.82948243168077,0.0013129688908547,3.113754688841357,353.0750125389216,18.063580761318697,7.446730341918701,69.99588746395321,1.4852372182848018e-06,113.7000098413532,199.7278270846888,15.288,0.0,0.0,0.0530863610987301,2.586862292117705e-09,-0.0006947575786514,1.1773083546077225e-07,3.329010177793299e-05,4.342209163639375,26.81344244367223,18.06372678999575,32.9768158972058
0.45,31.22217987077456,131.0104006014978,6.850166573233225,4.3420317510315165,0.0009500780330031,38.11022602597878,0.001341042003417,3.1022288449712887,397.2093853562869,18.47486275310604,7.616350301328129,69.99547690348253,1.6764536248320808e-06,113.70001042108892,208.92306716049887,15.288,0.0,0.0,0.0542951637545535,2.842521175226318e-09,-0.0007463379956615,1.2932090054593452e-07,3.657529369088674e-05,4.342031854775571,26.30944884471334,18.47501199101448,38.23628058998621
0.46,31.22217959739673,131.01040134180155,7.020045503401754,4.351169003849846,0.0009725797783515,44.3937050866137,0.0013660055515545,3.09098240974522,449.7140588976434,18.844323061800488,7.771531995684422,69.99503610583268,1.8865779683531e-06,113.70001102895836,217.3591612614144,15.288,0.0,0.0,0.0553810645782081,3.1166808800591503e-09,-0.000800596194505,1.417768495237597e-07,4.001824400409673e-05,4.351169112337076,25.873596578896564,18.844475834274814,44.50118229261506
0.47,31.22217931813738,131.01040209802923,7.193559875579052,4.358630093683735,0.0009947969928181,30.22514089990685,0.0013910994973101,3.079396422776949,331.0078106302534,19.2180591098146,7.9280875671397615,69.99456352718363,2.1170044481277104e-06,113.70001166656292,226.0625808853568,15.288,0.0,0.0,0.0564795377574197,3.4102493884459798e-09,-0.0008576351980594,1.551487523304888e-07,4.3718862242359527e-05,4.35863020698899,25.44665981168229,19.218215372160817,30.381603425148434
0.48,31.22217903348153,131.01040286886197,7.370336324605091,4.365514409145237,0.001016880998596,29.779838936311712,0.001416009414045,3.067527859335786,327.2031223011574,19.5915905767454,8.084483592791102,69.99405758812365,2.369198154608765e-06,113.70001233476164,234.93171707892955,15.288,0.0,0.0,0.057577416115756,3.7241711041759195e-09,-0.0009173883913609,1.6944871263079066e-07,4.767297940601472e-05,4.365514527349481,25.03354780044292,19.59175030803913,29.937410312943754
0.49,31.22217874361868,131.01040365378466,7.5502307795521535,4.3786401372577615,0.0010404145545081,37.2489281064929,0.0014385799934191,3.0558405437943126,389.60000969812296,19.93403005898306,8.23012235628909,69.99351671352461,2.644660619562788e-06,113.700013034871,243.21198709852868,15.288,0.0,0.0,0.0585839249886784,4.059374595909599e-09,-0.0009798792959512,1.8470833984680338e-07,5.180951737438081e-05,4.378640260624215,24.667474291142685,19.934193486919103,37.37406598941686
0.5,31.22217844858332,131.0104044527036,7.733219389747018,4.39465278337791,17.181958541634245,38.59872001773494,-1.1627052743927595,3.044079960570308,397.97031042210494,21.19646303435825,8.366120773869401,69.99293932307316,2.9449363413826395e-06,113.70001376847225,274.9881148359633,15.288,0.0,6.262892444746544,0.0622942054416603,4.416673716856832e-09,-0.0010561207172611,2.6601108099191817e-05,5.937603399503324e-05,17.718634705788393,39.496946883433736,23.855128145898423,38.736023200232346
0.51,31.2221781490768,131.01040526574383,7.919263637617331,4.4061762997871785,16.943507389504273,29.6896401877192,-1.1905327895637807,3.0317646213940965,323.3984349720841,21.5306772719215,8.512877508691725,69.99231753959111,0.0002405087016457,113.7002670114422,283.72313628398007,15.288,0.0,6.287748017450546,0.0632765592075679,4.886512133943793e-09,-0.0011242575576947,0.0003042612858985,6.420220948874267e-05,17.49077911945822,38.97791455640783,24.15353524278933,29.86777024685295
0.52,31.22217784539813,131.0104060931967,8.10838321176933,4.414485383127588,16.70486916878721,35.5279178146244,-1.2192193850113566,3.019072502138559,372.0984511843415,21.87358238372116,8.662358831708431,69.99165597808299,0.0009197895456174,113.70099035165192,292.8271328602545,15.288,0.0,6.312519538189704,0.0642844610121599,5.539949870162197e-09,-0.0011953299403513,0.0005888336958972,6.934677914073176e-05,17.262235848866165,38.45801906877076,24.46055964092456,35.67680253224303
0.53,31.22217753743284,131.0104069354525,8.300690236833178,4.422940712793467,16.475391395332164,37.27040389375379,-1.2480439056053108,3.0061582901551014,386.5562464348624,22.213213438187555,8.81048872268903,69.99095290855173,0.0020519277515382,113.7021956492122,301.98560568408413,15.288,0.0,6.337210723440921,0.0652827472890374,6.3815494541675675e-09,-0.0012694714087325,0.0008806333727609,7.479023106823275e-05,17.042844474686905,37.956637596399176,24.765644977038463,37.41226547082286
0.54,31.222177225103746,131.01040779278063,8.496261986876643,4.431184768504041,16.253387974337777,32.81709261012624,-1.2771108883508744,2.992993691494485,349.2703242098436,22.551156593177343,8.957839406880636,69.99020653756612,0.0036483510250733,113.7038950706034,311.2382387636807,15.288,0.0,6.361839394002862,0.0662760797345866,7.415980227858716e-09,-0.0013468005377479,0.001179899816656,8.055166236328253e-05,16.830872455573733,37.47044494516558,25.07012863607858,32.97803194309922
0.55,31.22217690870686,131.01040866443495,8.694886057312635,4.440454763036862,16.04260973429452,34.74181034214995,-1.306061406051612,2.9796819437614155,365.2500005919907,22.8815811696482,9.102338932970394,69.9894150279507,0.0057205484911822,113.70610084773102,320.41961077040446,15.288,0.0,6.386376636954479,0.0672473223180342,8.647949272761958e-09,-0.0014272923580714,0.0014863299280143,8.66149970892485e-05,16.630236760433576,37.00742155107236,25.36875052664917,34.893805850498346
0.56,31.22217658826351,131.01040955041427,8.896562651923778,4.451634501312005,15.845490127441646,32.472759605268706,-1.334606964239503,2.966312222385508,346.2265619465787,23.19998339182732,9.24239136561216,69.98857652474706,0.0082798131998493,113.70882500485148,329.3926941479574,15.288,0.0,6.410821935948305,0.068183238688027,1.0082048535715527e-08,-0.0015110299189145,0.0018000296118543,9.29707747323052e-05,16.443496826309367,36.57285222972108,25.657380440556185,32.63526160966449
0.57,31.22217626386528,131.01041045052517,9.10123720519,4.460545227965905,15.647460300185896,32.11779168305063,-1.3639753526301743,2.952520975913032,343.1828296833023,23.526358896544235,9.385140257891589,69.98768913683256,0.0113374244385944,113.71207955215203,338.7189659833848,15.288,0.0,6.435164507501124,0.0691425946663769,1.172285839689925e-08,-0.0015980604217709,0.0021209708298216,9.970687173819e-05,16.255526888950815,36.13661167438207,25.953816872671837,32.28204379328585
0.58,31.22217593551056,131.01041136482723,9.308927350441689,4.464463180432234,15.439521704907593,42.07400882305842,-1.3950585503597404,2.938029129712294,426.1250058573153,23.874626193268863,9.53553626452659,69.98675092602163,0.0149047544388363,113.71587659959432,348.814539299339,15.288,0.0,6.459404248553156,0.0701662963089849,1.3574975555419544e-08,-0.0016884708678836,0.0024492690587899,0.0001069051601074,16.056938739218307,35.67982922913535,26.270615838779637,42.19953106337519
0.59,31.222175602823647,131.0104122943993,9.519941449670698,4.473581753384609,15.255115098754308,34.23678846361263,-1.424729612259738,2.9237863463162475,360.68438819711065,24.194503329834056,9.675663985926484,69.98575984195854,0.0189938946119296,113.72022902385248,358.2168746911363,15.288,0.0,6.483569510563701,0.0711065680019553,1.5643227107671132e-08,-0.0017825298673572,0.0027856723397693,0.0001143702953664,15.882572969707631,35.27248602855152,26.562559435749776,34.390929986976424
0.6,31.222175266033627,131.01041323867582,9.734118924816864,4.474301271557873,15.04966110754739,30.5036887097028,-1.4572754879250795,2.9084704339072944,329.4859594986058,24.554220860182383,9.829811089411388,69.98471377671542,0.0236170849833248,113.72514985975693,368.9402197115515,15.288,0.0,6.507641767187129,0.0721639361694338,1.7932570937024753e-08,-0.0018802282428141,0.0031299376092132,0.0001224299054326,15.685947619015078,34.821151799222854,26.891126334656843,30.676666654170074
0.61,31.22217492511337,131.01041419778784,9.951497905312284,4.473443701868641,14.84546660382536,35.628159204421,-1.4906312799512549,2.8927049284430035,372.0984511843297,24.92034137866338,9.986065063115957,69.9836105512623,0.0287868441579619,113.7306524398992,380.0166241039324,15.288,0.0,6.531627123806367,0.0732401302801884,2.0448028767084043e-08,-0.0019816792934526,0.0034822519658268,0.0001309571085804,15.490305311369177,34.37251264210677,27.226257409642862,35.77646505331929
0.62,31.222174580195883,131.01041517143187,10.171992642502408,4.484610295205349,14.684963582849296,44.13573921545786,-1.5202315036321647,2.8779430355831166,442.86563930529206,25.221587802581485,10.119128694527214,69.98244787699495,0.0345159679122465,113.73675039542869,389.25148043647147,15.288,0.0,6.55553301530412,0.0741256688041492,2.3194748076961472e-08,-0.0020869415168817,0.003842612195117,0.0001395774391829,15.340058195922197,34.01645079772048,27.503124621124165,44.25558875481832
0.63,31.222174231120405,131.01041616009806,10.395743818944943,4.491575936267015,14.516308436077264,25.320271157387776,-1.551390491942969,2.862506484104513,286.11251274707894,25.54179008331176,10.25878622661926,69.98122358396505,0.0408167523265604,113.74345681868763,399.18917607128685,15.288,0.0,6.579320879401571,0.0750669254594318,2.6177589846842976e-08,-0.0021961746583312,0.0042113455646606,0.0001487446655649,15.181033236651004,33.643710176064815,27.797690154706515,25.528746293417438
0.64,31.222173878478056,131.0104171622348,10.622309887301768,4.492029372841924,14.332717085862928,24.86995829283111,-1.5850211462515027,2.8460835462202057,282.30782441796754,25.894358598380368,10.40978043739402,69.97993533497662,0.0477016225279691,113.75078494784644,410.2768021778328,15.288,0.0,6.603011081608356,0.0761033133854353,2.9401653688616666e-08,-0.0023091765151248,0.0045875876196514,0.0001585535731664,15.006074542226646,33.23955127689713,28.12232930404845,25.08241035214297
0.65,31.222173522268463,131.01041817789448,10.851706843309785,4.501354713426926,14.18098264838418,43.44256301984732,-1.6157513910035226,2.83042165301208,436.7781447787475,26.19654615624327,10.542787818736697,69.97858078287669,0.055182695539372,113.75874769522648,419.8993007598192,15.288,0.0,6.626561085141359,0.0769916394590198,3.2871739448458435e-08,-0.0024260593385939,0.004971523431276,0.0001685192944628,14.864281023099943,32.90372416370199,28.40141654301729,43.56464416272415
0.66,31.222173162014577,131.01041920842135,11.084319095647864,4.5080703132421664,14.025807528440083,37.050700186840416,-1.6475760704597022,2.814222456432992,383.51251517160017,26.50991025444437,10.67962198351176,69.97715763692725,0.0632721761463821,113.76735805985322,429.99548270897446,15.288,0.0,6.6500167564464645,0.0779128208901765,3.6592509160354806e-08,-0.002547164355426,0.0053640545304052,0.0001790439713398,14.71863546069032,32.56112178682014,28.691140514640377,37.19393417316027
0.67,31.222172797916112,131.01042025332623,11.32000823715165,4.509010140794773,13.857960636960469,25.712840926720272,-1.6817317218058772,2.797060441185375,289.1562440103425,26.85269027934208,10.826727774466152,69.97566335128691,0.0719831216845663,113.77662995713268,441.17729576957805,15.288,0.0,6.673396137658224,0.0789204637476693,4.0569193564297204e-08,-0.0026724883289816,0.005764969790811,0.00019027786372,14.559398102498154,32.19180016929876,29.008331927059988,25.919142679081677
0.68,31.222172430155982,131.0104213121647,11.558648724239386,4.511124657833772,13.697913721718942,31.944597727579104,-1.7157060074395287,2.7797630971513927,340.8999924858462,27.18669478560825,10.970595280524655,69.97409533806615,0.0813285378125431,113.78657724887418,452.21026839996085,15.288,0.0,6.696616550525159,0.0799023231739448,4.4806984256536535e-08,-0.0028020458281149,0.0061741225618621,0.0002019790569399,14.408113254748129,31.83975653413516,29.3179197106496,32.111182693216094
0.69,31.222172058829333,131.01042238472857,11.800182372410784,4.51807736575405,13.55605051508382,39.18725932889568,-1.748049348379994,2.762837663466068,401.0140726853634,27.49060792284629,11.103697126690587,69.97245105741546,0.0913212102412564,113.7972135588352,462.3663410994429,15.288,0.0,6.719738498544324,0.0807957510590145,4.931094311887101e-08,-0.0029358833744886,0.0065914684705354,0.0002139871846482,14.27575029978531,31.5272951403294,29.60017631905182,39.32340578064367
0.7,31.22217168381888,131.01042347138247,12.04471447874594,4.524306091194211,13.41589224126472,32.9683611108406,-1.7808471296936312,2.745578333074252,349.27032420985284,27.79569720206461,11.237089090466077,69.9707279425278,0.1019737631349159,113.80855234050073,472.6748218718376,15.288,0.0,6.742773688164607,0.0816926433045504,5.408594584071851e-08,-0.0030741697545267,0.0070173333907044,0.0002265477955775,14.144959927952216,31.219060215907916,29.88385663980194,33.13038561829867
0.71,31.222171305193324,131.01042457198773,12.292206820205456,4.526671207550428,13.268330495021734,27.203871514368405,-1.815365704151922,2.727530687826416,301.33126406340574,28.120482064945264,11.377313317352652,69.9689232246558,0.1132991450406522,113.82060740286028,483.7740029062696,15.288,0.0,6.765644085821973,0.0826474295114777,5.913709197208633e-08,-0.0032169653244179,0.0074517075019662,0.0002398353761456,14.006126876909962,30.895541798359805,30.186088174692745,27.400467179650615
0.72,31.22217092297073,131.0104256865428,12.542660330438816,4.524497120472044,13.111818533096812,33.16863257085955,-1.851994947091588,2.7085471461020703,350.79220534145287,28.469790622712164,11.526055694438528,69.9670341662712,0.1253105366765634,113.83339279512472,495.8554657083751,15.288,0.0,6.788422645034912,0.0836743003491395,6.446952577009553e-08,-0.0033643747770077,0.0078947137350957,0.0002539348443744,13.857564840491714,30.553065763659298,30.51146048473506,33.330531042085056
0.73,31.2221705371645,131.01042681506,12.796079918647145,4.531618234727127,12.984827782820233,41.79564475158183,-1.8850496082541512,2.69064247707673,422.320318528234,28.761247854988422,11.654265165730772,69.96505788277064,0.1380215894568969,113.84692307216172,506.04768069306687,15.288,0.0,6.811113731665271,0.0845311510710418,7.008855845299467e-08,-0.0035165177993879,0.0083465172877715,0.0002681289034091,13.740028779673542,30.27511262255029,30.78348510927428,41.92456188400135
0.74,31.22217014772717,131.01042795771147,13.052516205019538,4.535148852378961,12.85107431851118,26.397111291868697,-1.9197666344200168,2.671957519872308,294.48281347105944,29.07130790567009,11.788913946062916,69.96299149375574,0.1514454518692751,113.86121225592476,517.0046346323052,15.288,0.0,6.833664489453293,0.0854426846333984,7.599927221596003e-08,-0.0036735129563404,0.0088072690629791,0.0002831121704576,13.615119515001291,29.983174339397053,31.073066956038964,26.601359842570762
0.75,31.22216975502912,131.01042911354102,13.311698013061564,4.536234430010414,12.71385376417715,30.71510603796605,-1.9557611359958773,2.652618815407437,330.24688556441487,29.393692727535868,11.927785525761411,69.96083205394599,0.1655953641786948,113.87627446735496,528.5216531618717,15.288,0.0,6.856086674155345,0.086390449649025,8.220707427956818e-08,-0.0038352249120057,0.0092763906772525,0.0002988453967128,13.486308219643083,29.68425519501506,31.374431412679755,30.891408629656627
0.76,31.222169358975066,131.01043028284835,13.573712417644789,4.540338407314078,12.587921686757516,33.01640088859492,-1.990666812069056,2.633487085513781,349.27032420986166,29.6948578574528,12.059062273406706,69.95857657814891,0.1804844434813725,113.89212369916213,539.3939349112752,15.288,0.0,6.878405556434507,0.0872758564173749,8.871693960926597e-08,-0.0040018375711922,0.0097542266392262,0.0003150150938137,13.369276582998298,29.41051777752964,31.656295421496445,33.18102976434958
0.77,31.222168959521824,131.01043146579136,13.838606062336655,4.544876550105399,12.466053735940536,30.912264244487275,-2.0255720706381584,2.614170497076099,331.7687666960708,29.990384961061714,12.18823647124163,69.95622200154071,0.1961259384492848,113.90877408677169,550.169601234855,15.288,0.0,6.900619914254,0.0881447005694924,9.553393435143549e-08,-0.0041734922139591,0.0102409892541303,0.0003317884438929,13.256367951716443,29.14627323978597,31.933135274240318,31.08866208639637
0.78,31.22216855674676,131.0104326622016,14.106332611803616,4.546021194387791,12.337949023872,25.50082651006783,-2.062198691089933,2.594020502168339,286.8734378128899,30.30443851892472,12.323815689012996,69.95376516517634,0.2125331385438443,113.92623981367022,561.7380303224512,15.288,0.0,6.9226743472781616,0.0890680040022968,1.02663259465518e-07,-0.0043502347765512,0.010736619170335,0.0003494518783348,13.1366181007185,28.869065354752152,32.22753576140069,25.715243699093755
0.79,31.22216815075064,131.01043387184782,14.376827853004569,4.545085267244794,12.207266772027152,35.978211197878565,-2.100044570994472,2.573216244636133,373.6203323159534,30.62928651733697,12.463070927867244,69.95120290560901,0.2297194648471475,113.94453520022957,573.8307573935303,15.288,0.0,6.944618524618789,0.0900230419434395,1.1011017508258253e-07,-0.0045321078971814,0.0112410511396555,0.0003679546375955,13.013896684356617,28.58671022935357,32.53232535312068,36.13119580142591
0.8,31.22216774132693,131.01043509532565,14.65026340463995,4.549589691000295,12.093448943776794,36.44551790092642,-2.1355792872150565,2.5530916413207327,377.42502064505743,30.91644457184145,12.588953124945256,69.94853193901348,0.2476987112473236,113.96367496750456,584.6254876198057,15.288,0.0,6.96646903064838,0.0908673132543842,1.1787971489504538e-07,-0.0047194023074239,0.011754894404585,0.0003867428558839,12.90898318250544,28.34201725175813,32.80200545002385,36.597195942964156
0.81,31.22216732859009,131.010436332365,14.926564057188674,4.550016085596449,11.971694054494696,23.95256105280852,-2.1732475892838594,2.531963771006032,273.9374926939919,31.22718148480411,12.723005986429603,69.94574882630715,0.2664845784315521,113.98367374793727,596.420700402775,15.288,0.0,6.9882146922466335,0.091780894182309,1.2597730378216852e-07,-0.0049121267536548,0.0122779803647352,0.0004065711742091,12.795382702585458,28.08041232194806,33.09403734851819,24.183858803146673
0.82,31.222166912740207,131.01043758246547,15.205589009481669,4.548562755539473,11.847683572328403,30.57683553285251,-2.21208829013735,2.5101810701121887,328.72500443277005,31.547775904500483,12.86040710908491,69.94285017965987,0.2860907295852165,114.0045461281582,608.7135801030271,15.288,0.0,7.009815085160861,0.0927234562880943,1.3440841939621925e-07,-0.0051102441708605,0.0128100255450495,0.0004273000986041,12.679163216480756,27.814422563563262,33.39557156513684,30.759343536740573
0.83,31.2221664937728,131.0104388456759,15.48735408429876,4.553799809439303,11.742939092371236,38.67638907765743,-2.2478472528963165,2.489393524717924,395.68750322465047,31.82120280945526,12.981129806004704,69.93983248543447,0.3065309201244838,114.02630680011546,619.29407857072,15.288,0.0,7.031292410219385,0.0935273946665529,1.4317828111698634e-07,-0.0053138944651796,0.0133512200224476,0.0004481674995592,12.583418244165852,27.591690129412196,33.652892672211244,38.821552898867914
0.84,31.222166071592653,131.01044012228425,15.771943328520772,4.557294540701949,11.63602901337931,24.148311099405944,-2.2846258868104434,2.4680212301038686,275.4593748256452,32.103055344651885,13.104700168886032,69.93669219831088,0.3278185606739064,114.04897009314706,630.2960851702325,15.288,0.0,7.052664185590504,0.0943561054622052,1.5229190125613806e-07,-0.0055232517350259,0.0139018328372563,0.0004699375818732,12.485177746001346,27.364792776163235,33.918300108664475,24.38137759005057
0.85,31.22216564650612,131.01044141150203,16.059133965018567,4.554715780787845,11.51632701170585,26.26871810443159,-2.324731080756044,2.4451406633257338,292.96093233939376,32.42319741933449,13.24160038659228,69.9334257938324,0.3499669716970377,114.07255023741052,642.912067679701,15.288,0.0,7.073913316426792,0.0952973639286367,1.6175484159857686e-07,-0.0057381651836958,0.0144612892037264,0.0004930782898926,12.372993928042195,27.110030190006334,34.22002191128004,26.48449807550398
0.86,31.222165218349584,131.01044271380033,16.34906232871113,4.556102688566262,11.40861570003948,32.71686409937893,-2.3630288729076168,2.4227715299996806,346.2265619465587,32.71365534996069,13.367970367812749,69.93002946683622,0.3729899744312545,114.09706201144672,654.4642852271619,15.288,0.0,7.095054291643136,0.0961513843693215,1.7157206661132853e-07,-0.0059589199585229,0.0150301452641005,0.0005166203718004,12.2735244702195,26.882499510863987,34.493898044227514,32.891441498329044
0.87,31.222164787157567,131.0104440291173,16.64171289579293,4.559201012307746,11.30711239627365,30.5127589286597,-2.4006084334687245,2.400493032371181,327.964078366998,32.98926388121884,13.489022069290389,69.92649950829616,0.3969012091681514,114.12251999339628,665.5195954740598,15.288,0.0,7.116086023847726,0.0969617681477097,1.817488257472498e-07,-0.0061856036263137,0.0156084381920528,0.0005407759978899,12.180576474919135,26.669418769808907,34.75387472085782,30.701038176058574
0.88,31.22216435297563,131.01044535736003,16.93706128662899,4.559118964886555,11.19987975625,26.465121017634484,-2.440075390868751,2.377252619864307,294.4828134710418,33.283942358670345,13.616655432856472,69.92283207794138,0.4217142253930092,114.14893867428084,677.4430649862348,15.288,0.0,7.136971443000018,0.0978282106680381,1.9229041700264882e-07,-0.0064182704039361,0.0161961197407885,0.0005661130262605,12.081280682346502,26.44419809973335,35.032032991518214,26.683476692699053
0.89,31.222163915895543,131.01044669831217,17.235047988630757,4.555925010126605,11.087266416744212,28.956678156120567,-2.4814868759160684,2.353014183272806,315.028134248087,33.597825841479974,13.75091165049444,69.91902320071456,0.4474426585055634,114.17633264435926,690.2607817204263,15.288,0.0,7.157741474574969,0.098751109471045,2.032021925689872e-07,-0.0066569703171848,0.0167931327932197,0.0005926874658204,11.975979739305185,26.20744882532078,35.32856072902058,29.1579090934034
0.9,31.22216347585115,131.01044805217853,17.53573362629668,4.559576381802708,10.992785679319516,31.91037481422921,-2.519323695568888,2.330029798332516,339.37814235421445,33.86028593494704,13.867034012498696,69.91506890651864,0.4741004923750463,114.20471685877013,701.0670416808889,15.288,0.0,7.1784054010515135,0.0995228727965683,2.144892926900083e-07,-0.0069019037353659,0.0173997914687348,0.0006192769636919,11.89013229063014,26.0119521736184,35.57645447737866,32.094361678163445
0.91,31.22216303292191,131.01044941877183,17.83906703680523,4.5600924702257215,10.892712143071977,24.44815144081108,-2.5590772026781416,2.306058225271357,277.7421810230789,34.14193127702001,13.98977460477446,69.91096511396911,0.5017011149189949,114.23410565215404,712.7575458680997,15.288,0.0,7.19895711020952,0.1003510342402411,2.2615703320198765e-07,-0.0071530991862597,0.0180159786104712,0.0006471352920416,11.79806697262578,25.804484464572827,35.842666129470146,24.689651466564726
0.92,31.22216258731996,131.01045079755352,18.144896898839896,4.557564752113048,10.787370897282624,28.96974841465449,-2.600778224577513,2.2810687865684933,315.02813424806214,34.44271198784054,14.119115953673196,69.90670763992684,0.5302579664266169,114.26451342049664,725.3499408877144,15.288,0.0,7.21938693296288,0.1012354476736385,2.3821106256739042e-07,-0.007410455462845,0.0186412700699778,0.0006763044411878,11.700113287726582,25.5856859537746,36.12719514145044,29.17556589666891
0.93,31.222162138961902,131.01045218876808,18.45329530034398,4.561294518061875,10.698167593185277,34.32397657648306,-2.639030070650304,2.257311028703619,359.1625070654728,34.694894247592714,14.23133059951294,69.9022923545441,0.559784477753593,114.29595454443132,735.9887440094958,15.288,0.0,7.239705286227933,0.1019770270915927,2.506561918159477e-07,-0.0076742074326223,0.0192760540298455,0.0007054824854174,11.61954162749527,25.40389023735696,36.36561095604368,34.49920724911025
0.94,31.222161687743263,131.01045359271134,18.76434895379258,4.558876430829625,10.596550425602222,25.102530073289,-2.681078302327458,2.231752991784034,283.0687504837787,34.98897476423023,14.358114276624857,69.8977149765247,0.5902937734266088,114.3284430927587,748.496021228823,15.288,0.0,7.25991191145964,0.102841764704671,2.6349730335036264e-07,-0.0079445372998404,0.0199205788923572,0.0007365020930349,11.525303988075065,25.19459736504477,36.6440043054807,25.343755016964767
0.95,31.222161233964734,131.0104550086103,19.07783980156529,4.55705339294996,10.497964232338653,32.30439161574486,-2.722998245388629,2.2060308104476967,342.4218736174873,35.27586951457709,14.482280794633375,69.8929710967663,0.621799437171668,114.36199362551469,760.7981374408822,15.288,0.0,7.279998733737936,0.1036853903164503,2.7674030626645933e-07,-0.0082212857503387,0.0205742899785865,0.0007683844274671,11.43420230797078,24.99268818129594,36.91567482004082,32.49392264784972
0.96,31.22216077733541,131.0104564372514,19.393994564494285,4.5582553667453904,10.407758995497185,31.662836311102872,-2.763263573773283,2.1808015601751274,337.09533515678345,35.53700071123482,14.597322983153436,69.88805624742739,0.6543148646946143,114.39662050898856,772.0800670985388,15.288,0.0,7.299981375655194,0.1044532986669987,2.903894985986461e-07,-0.0085048863108858,0.021238019845188,0.0008007504288181,11.352092673095964,24.810378750993888,37.162871760986285,31.857914625516514
0.97,31.22216031788144,131.01045787858277,19.71280093558432,4.557634244372379,10.314993084000935,20.493127493447865,-2.8048229724077847,2.154807540808452,245.02188719299323,35.80855016604493,14.715908553635508,69.88296583091889,0.6878536828191489,114.4323383610538,783.9005609773694,15.288,0.0,7.319857883621584,0.1052518379642543,3.044502161525084e-07,-0.0087954313908106,0.0219117920594647,0.0008344080416904,11.267036767118464,24.622821001089385,37.42008720261884,20.79611747195087
0.98,31.222159855901428,131.0104593318358,20.034042197639977,4.551176470444896,10.210884339688112,29.54687833917449,-2.8502988726399736,2.126895773563279,319.5937466429581,36.12166977188833,14.848943725335022,69.8776951848732,0.7224293348343434,114.46916160991404,797.6451640984917,15.288,0.0,7.339604621371782,0.1061725732386029,3.189286387327101e-07,-0.00909269752618,0.0225949108395223,0.0008701252285447,11.169401260630474,24.409903361718072,37.71711509318028,29.76013959787408
0.99,31.222159391250788,131.0104607974078,20.357834220875,4.554054794394804,10.128719287045351,32.229954980405,-2.889985762431765,2.1012774482581382,341.6609485517054,36.36013766465096,14.955755260733568,69.87223950692054,0.7580555254142926,114.50710496916952,808.186575314942,15.288,0.0,7.359246962207727,0.1068738933813866,3.338293798382637e-07,-0.0093970252935668,0.0232879731040718,0.0009051563596151,11.095665148630376,24.24767633102147,37.94287930659273,32.42741714445586
1.0,31.22215892393184,131.01046227530324,20.684180824278545,4.551253083709785,10.03556927948742,28.90672583575296,-2.933517511042983,2.0737638040377058,314.2672081822764,36.63909340297583,15.076633530535,69.86659404163947,0.7947450896227845,114.54618223271848,820.60927158899,15.288,0.0,7.378780832388268,0.1076942287161729,3.491576310406188e-07,-0.0097084781288706,0.0239909323128522,0.0009423016576367,11.009732337771217,24.060859237918685,38.207429027563535,29.129106059848805
1.01,31.222158454132988,131.01046376504272,21.01294786889531,4.549200612813957,9.945433637436302,30.20405934502301,-2.9767415923220417,2.046159790869387,324.9203161036979,36.90913638087096,15.194297237771243,69.86075384347659,0.8325113920560305,114.58640776507444,832.7239097525194,15.288,0.0,7.398203525110502,0.1084883754550981,3.6491913314764244e-07,-0.0100269901585505,0.0247034594844573,0.0009803583174849,10.926962996599975,23.881474624325893,38.46352822498288,30.41928600928862
1.02,31.222157981780096,131.01046526683027,21.34419621326847,4.548409213674937,9.859320228602297,25.305936963734087,-3.019276046064807,2.018638483473804,284.59063161540416,37.165980220350136,15.307246919500365,69.85471393869743,0.8713673591231635,114.6277954715816,844.3269136457144,15.288,0.0,7.417519708707504,0.1092437342920627,3.811186592194288e-07,-0.0103527679013221,0.0254258303307896,0.0010192215959851,10.848480838871982,23.711884327166167,38.70704692070003,25.56523762419949
1.03,31.222157506945585,131.01046678048516,21.67787691980705,4.5436895784351,9.76619982154632,20.77487964553586,-3.064669574518767,1.9896139372393773,247.30469339049705,37.45077057444992,15.429875807258716,69.84846929244132,0.911325664843442,114.670358995971,857.2885969893628,15.288,0.0,7.43672595704335,0.1100812466262665,3.9776151990523993e-07,-0.0106858304383853,0.0261579019099475,0.0010600385652682,10.76212623601029,23.52664800375159,38.97742395520614,21.09375233349293
1.04,31.222157029695623,131.01046830584497,22.01394635869085,4.542395234510432,9.681578920775603,32.711592031999785,-3.1078854580706827,1.961333905878936,345.46563688072297,37.70504434789784,15.541738143895964,69.84201469057098,0.9523993924877832,114.71411242562786,868.9412694752427,15.288,0.0,7.455824963105677,0.1108290687433358,4.148529961933694e-07,-0.0110262509033806,0.0268996537056741,0.0011011993257204,10.68501234698413,23.361558186057984,39.2185964774041,32.917381973340916
1.05,31.22215654974212,131.01046984366212,22.352621847530013,4.537899948979843,9.591542183979625,19.942442772591207,-3.15351149869269,1.9317354177458057,240.45625879819983,37.98173533946496,15.661340406639097,69.83534487566715,0.9946012458672832,114.75906945224574,881.7124862791494,15.288,0.0,7.474827040875643,0.1116427925610474,4.3239701321175014e-07,-0.0113744992418563,0.0276519106609138,0.0011442780623122,10.601764692920746,23.18444668370689,39.48134409790168,20.282437236058094
1.06,31.222156067328747,131.01047139331135,22.693727788352827,4.530668039405465,9.497150477861831,28.181925026620057,-3.201348591944712,1.900887288304952,308.17968365593924,38.277746576652085,15.787603917848136,69.82845437291152,1.03794450457406,114.8052443885263,895.4799802686349,15.288,0.0,7.4937242879871215,0.1125133154666116,4.50399911413525e-07,-0.0117303940880495,0.0284140934378259,0.0011892392076468,10.51353425670179,22.997670340983955,39.762733564261225,28.426799037106157
1.07,31.222155582339884,131.0104729550983,23.037354123495984,4.529229430757363,9.415892020249697,33.092122595323495,-3.2451631497154048,1.871636031691988,348.5093681440308,38.52302256365335,15.896031172848588,69.82133755183807,1.0824426525639284,114.852651774145,906.9629185506902,15.288,0.0,7.512527354225814,0.1132347169158183,4.688663528828826e-07,-0.012094265512526,0.0291867157470746,0.0012339449154103,10.439725002669608,22.84195214530607,39.99541895987293,33.303493557993555
1.08,31.22215509467296,131.01047452928776,23.383579214383413,4.526369749919233,9.33286618074866,22.44265723929359,-3.290159589199404,1.84160903708326,261.00157857466235,38.776390206701485,16.007190328431747,69.81398876535948,1.1281085970870843,114.90130554346077,918.9018633708282,15.288,0.0,7.531237411370472,0.113979912040436,4.878012243941439e-07,-0.0124663435575268,0.0299700621923466,0.001280229836593,10.36382244217642,22.682662602240462,40.23591910588752,22.75718651169965
1.09,31.222154604609727,131.01047611515543,23.73219924203852,4.516964552019761,9.237812340354065,20.68188244256081,-3.340276489853055,1.8089631898403755,246.54375332474407,39.08122067857288,16.13625141661272,69.80640224675801,1.1749552211176952,114.95121961384496,933.3748092130786,15.288,0.0,7.549843648008085,0.1148763873085226,5.072112556606806e-07,-0.0128463558639297,0.0307633692275432,0.0013295816169059,10.274384288318013,22.495689754981345,40.52601419777799,21.02784002742002
1.1,31.22215411222917,131.01047771250103,24.08315995245324,4.510702716409189,9.150288204597173,40.97962118748057,-3.3882588839558614,1.7770485541301195,413.1890617385841,39.35677795504725,16.254989207694695,69.79857210903343,1.2229953702996117,115.0024078729184,946.5515426985642,15.288,0.0,7.568349229755032,0.1156868259343765,5.271018413339874e-07,-0.0132343703202262,0.0315665931045955,0.0013793520092183,10.193177571107585,22.32677782783269,40.78799984225593,41.1578370726384
1.11,31.22215361711884,131.01047932237967,24.436765131198094,4.5108979784372165,9.07665988584488,30.137155939433,-3.4313405113821607,1.7471836979768596,324.1593910376397,39.57379482138055,16.35316424552364,69.79049231465342,1.2722419973443155,115.05488433317204,956.9865607406094,15.288,0.0,7.586758955371296,0.1163251978398107,5.474760655040315e-07,-0.0136311158455316,0.0323810342671485,0.0014284881689984,10.127357964235756,22.19110599070769,40.993597196322405,30.38214799347193
1.12,31.22215311933999,131.01048094462584,24.79297045897668,4.498586235292277,8.979443477125132,11.684028488441342,-3.484465300659569,1.712337356729433,172.73281794065943,39.89431181799625,16.48742874184149,69.78215680159663,1.322707479081586,115.10866240330968,972.517756094048,15.288,0.0,7.605076036649715,0.1172678129722243,5.683398241346781e-07,-0.0140365791606812,0.0332064520298755,0.0014828422057886,10.035021577459297,22.00032417055559,41.29903265623404,12.312193930143424
1.13,31.22215261950207,131.01048257768892,25.15133661615448,4.4928378851579565,8.896238801794409,35.4278362665066,-3.532596051510027,1.6795807163246104,367.5328077900705,40.15542628068054,16.600845695068404,69.7735591305051,1.374405429910254,115.16375682103036,985.2560605330992,15.288,0.0,7.623288427023283,0.1180358263709897,5.897017878662541e-07,-0.0144500753605769,0.0340412755554515,0.0015364629222675,9.958218501522824,21.84302678978011,41.54723606014667,35.64311727069048
1.14,31.222152116919343,131.010484223304,25.51236138018886,4.4916566862129805,8.822896459914617,19.84264250275519,-3.5771018839213737,1.648301568532497,239.69531773195544,40.3728396829188,16.698888255502958,69.76469307208697,1.4273476533170537,115.22018040723256,995.9193424008045,15.288,0.0,7.641420077533477,0.1186753908994751,6.115630146497312e-07,-0.0148727418637447,0.0348875857547523,0.0015899117105602,9.89235551726149,21.70965614748653,41.75326632953288,20.22975574348161
1.15,31.22215161208991,131.01048588019535,25.875683824474137,4.4777997044506845,8.726138566147073,19.562007091024544,-3.632269973541269,1.6116484061154437,237.41251153546767,40.69817858802324,16.83458186176909,69.75555229558309,1.4815457465193635,115.27794577291186,1011.9996495714169,15.288,0.0,7.659449180323125,0.1196322105244017,6.339319859439778e-07,-0.0153038825560676,0.0357437898898668,0.0016491270340668,9.80004359418981,21.52108867559168,42.06358442259532,19.961535942279554
1.16,31.222151105156296,131.01048754800172,26.24120389307513,4.477455561250582,8.656266066964594,50.38289805288776,-3.6762730514142015,1.5800990145126377,490.0437743845894,40.900614032751626,16.927225508491325,69.74613009312017,1.5370124650238304,115.33706677605744,1022.056308144467,15.288,0.0,7.677383351043233,0.1202277650343969,6.568142920689257e-07,-0.0157435261620933,0.0366097630623501,0.0017048811270495,9.737850140569025,21.39700851313941,42.25517035258165,50.54154838003976
1.17,31.22215059520848,131.01048922899994,26.60957387832408,4.470355530307093,8.574466486663724,9.34411175308056,-3.726068665333632,1.5454927440093555,153.70937929486794,41.15900147731488,17.03933227074312,69.73641994691211,1.5937588665396851,115.39755547886172,1034.9740469419232,15.288,0.0,7.695246053571346,0.1209878004941109,6.802095316194351e-07,-0.0161931635380694,0.0374882047565733,0.0017645884378751,9.66209517997106,21.24502505515764,42.50085373575446,10.177650022211658
1.18,31.222150083436983,131.0104909201824,26.979939025564693,4.454303966516206,8.476846510223991,24.75779490343508,-3.7839068002381193,1.506673760493405,280.02501822196746,41.49525976361608,17.17860132665528,69.72641502980848,1.651796775109616,115.45942477036472,1051.916635572679,15.288,0.0,7.712999116080224,0.1219767490450195,7.041310621968979e-07,-0.0166509782444323,0.0383753822270816,0.0018292357775127,9.568318366420067,21.05544962778389,42.82194736225734,25.090564461047975
1.19,31.22214956930108,131.0104926229006,27.35268779708048,4.4573999897986365,8.415988425219117,42.87538286703708,-3.82500587666932,1.4757757024511655,428.4078130529292,41.653952176259885,17.25569252891569,69.7161082965533,1.7111383000973828,115.52268785938152,1059.9398623185912,15.288,0.0,7.7306733849550655,0.1224437459598768,7.285794925100695e-07,-0.0171181453897284,0.0392733760202042,0.0018876819364765,9.515992893722112,20.954694002296637,42.97118389599736,43.07095355196489
1.2,31.22214905232609,131.01049433831395,27.72815376059664,4.44474224246802,8.326719491509845,4.867612161045473,-3.8802083665810674,1.4376710049810548,117.1843741360236,41.952345819685775,17.381548169364777,69.70549297907193,1.7717934351421238,115.58735571277208,1075.1415180504853,15.288,0.0,7.748270974955923,0.1233214106350112,7.535573915368241e-07,-0.0175954156667528,0.0401833889636041,0.0019541415180601,9.431365548605504,20.78604537342415,43.2557046139987,6.388784159525717
1.21,31.2221485337148,131.01049606341175,28.1054814360716,4.432713712524901,8.239612385234537,34.51621034024262,-3.9351115411505866,1.3994054358658494,359.92343213200894,42.24227109337623,17.50438358885157,69.69456174638225,1.8337740756824987,115.65344133682508,1090.0135828344592,15.288,0.0,7.765763025874005,0.1241741919785414,7.790785531260981e-07,-0.018080935863745,0.0411017119898184,0.0020218673264419,9.349035769662256,20.62290884513958,43.53208987302308,34.76797685611142
1.22,31.222148012541243,131.01049780048075,28.485325936112098,4.433862210315742,8.177406351091369,25.12599643413,-3.977864596505497,1.3669081499490918,283.0687504825761,42.40534325997052,17.582760061625233,69.6833074120763,1.8970906245444588,115.72095616379949,1098.4055282848478,15.288,0.0,7.783159365363279,0.1246540887145761,8.051402690554142e-07,-0.0185765199762589,0.0420315618599273,0.0020852281727364,9.2949120519683,20.520746603299404,43.68549084571347,25.475626419117596
1.23,31.22214748916364,131.01049954860244,28.867428282144672,4.420223998531781,8.089136207923845,10.05630714640512,-4.034485854074808,1.3271899944458527,159.79687382222795,42.702829755208185,17.708087875991176,69.67172293575744,1.9617520108566715,115.78991006762604,1113.8300037748547,15.288,0.0,7.800455778108973,0.1255291167338225,8.317509533168265e-07,-0.0190815115365504,0.0429714890393237,0.0021568608610635,9.210996970012978,20.355722188988583,43.9692513638257,10.916401550461837
