Time,Latitude,Longitude,Altitude,Angle of Attack,Angle of Sideslip,X-Acceleration,Y-Acceleration,Z-Acceleration,Thrust,True Velocity,Ground Velocity,Pitch,Roll,Yaw,Dynamic Pressure,cp,cg,parachute_deploy_gain,Wind Speed,Wind Direction,Mach,omega_x,omega_y,omega_z,Cmq,Angle of Attack(total),Angle of Attack(gust),True Velocity(gust),Acceleration
0.0,31.222216000000007,131.010392,3.000000004412624,0.0,0.0,0.0,0.0,0.0,2.2828121974499247,0.0,0.0,69.99999999623412,0.0,119.9999999935444,0.0,1.274,1.0271675151847728,0.0,0.0,0.0,0.0,0.0,0.0,0.0,-0.0,0.0,90.0,0.0,0.0
0.01,31.22221599999084,131.01039200000497,3.000002745347096,0.0,0.0,0.0,0.0,0.0,34.242186961749226,3.465174813755316e-14,2.8705476994166025e-14,69.9999999962611,-2.1713911667908447e-11,119.99999999352175,7.352495975525499e-28,1.274,1.0271659134330349,0.0,0.0,0.0,1.0183245502395064e-16,-3.3305335486039093e-18,7.169286865560398e-18,5.624298769768554e-18,-7.715917190115602e-34,0.0,89.99999999999979,3.465174813755316e-14,0.0
0.02,31.222215999994315,131.0103920000094,3.0000030495639742,0.0,0.0,0.0,0.0,0.0,25.871876237766216,3.8197434737535036e-11,2.4171837235633357e-11,69.99999999628672,-1.1921727947863515e-11,119.99999999353136,8.93414285188691e-22,1.274,1.027164492361118,0.0,0.0,0.0,1.1225230367947217e-13,-6.657678965418802e-18,1.4338573731120796e-17,1.1241821275959074e-17,-1.7010872994127372e-30,0.0,89.99999999975682,3.8197434737535036e-11,0.0
0.03,31.222215999994315,131.0103920000094,3.0000030495639742,0.0,0.0,9.81877837424427,-2.5122800045972096e-05,3.3498614629347925,180.34219359854663,1.2659015405517447e-10,1.1364406173918436e-10,69.99999999631459,-1.6431898037347223e-11,119.99999999352724,9.812605835254651e-21,1.274,1.0271551940870716,0.0,0.0,0.0,3.720154642239108e-13,-9.991600645811728e-18,2.150108433310316e-17,1.6859343782149594e-17,-8.453698244545225e-30,0.0,89.99999999919412,1.2659015405517447e-10,10.374487003414373
0.04,31.222215999994315,131.0103920000094,3.0000030495639742,18.83801224594347,-0.0001111777826462,48.68248476615645,-1.016330065874988e-05,3.3497854396877287,548.635972453808,0.1556173050466994,0.0975908358443652,69.99999999633813,-2.0932768807056278e-11,119.99999999352085,0.0148286043323172,1.274,1.027133720825283,0.0,0.0,0.0,0.0004573186944143,-1.3322134194415637e-17,-1.04744143520903e-11,1.336824254131964e-11,5.0626055458604615e-15,18.83801224625964,89.06236267790787,0.1555998412814392,48.79759610369246
0.05,31.22221599164764,131.01039201704114,3.002326315126219,5.772385609593056,-4.395076213712875e-06,71.20344550265034,4.905512691849684e-05,3.349217396035405,761.6984298824663,0.8326471944351852,0.3620326097059287,70.00000001316391,-1.0866255162484559e-10,120.00000000231074,0.4245281043148827,1.274,1.027093426565204,0.0,0.0,0.0,0.0024469331205246,-5.0245994431125096e-18,-7.32924164976824e-07,2.217344936947165e-11,1.895424184525467e-09,5.772385609594774,84.74112356985832,0.8326465040582279,71.28217104309611
0.06,31.22221596664444,131.01039206837547,3.015081730143309,4.056581213689704,3.169093567502233e-05,53.16249142470188,0.0001203825427859,3.3481235983850643,590.4875390737236,1.657216205300742,0.6755452977614796,69.99999964391398,-3.9285905645317736e-10,120.0000000287861,1.6816755551786196,1.274,1.027050317124926,0.0,0.0,0.0,0.0048701272653724,3.095757869075056e-13,-7.483541766772344e-06,3.074135420506017e-11,3.8518749565858254e-08,4.056581213813337,79.59316473687034,1.657221183301277,53.26781792157489
0.07,31.22221592883117,131.0103921460222,3.034593611434361,4.115662018628709,6.450869598349036e-05,81.18203554989698,0.0001593212642178,3.347059402768047,855.2937749779172,2.099899704220947,0.8579771146174259,69.99999543281565,-8.233801910783518e-10,120.00000006883089,2.700101932075157,1.274,1.027003201295312,0.0,0.0,0.0,0.006171060252819,3.4704292086287e-12,-2.6327204536316785e-05,1.9541142932033486e-10,1.7170712165327165e-07,4.115662019133419,76.90111966094352,2.099909837223217,81.2510043180746
0.08,31.22221588914193,131.01039222747755,3.0542761843835606,3.459696193892355,8.037433511260004e-05,16.298214211652088,0.0002413456836072,3.344878926597744,241.2171988638792,3.051964775152957,1.2149999716613011,69.99998042886442,-1.0128995578004475e-09,120.00000011111383,5.703497661025892,1.274,1.0269597189470347,0.0,0.0,0.0,0.0089689344021769,1.458982438104473e-11,-5.702803872814215e-05,7.043261397829576e-10,5.405702492731987e-07,3.459696194824858,71.30331929508368,3.051977400323993,16.63790856991177
0.09,31.2222158241468,131.01039236098703,3.0886872184095737,4.313676956300389,0.0001337561018991,50.35975918308536,0.0002293282821279,3.344215841840564,563.0937377043203,2.893161298572128,1.191209213966114,69.99994788602814,-7.098432023887522e-10,120.00000018106356,5.125380275808925,1.274,1.026918932011013,0.0,0.0,0.0,0.0085022553945842,3.8672912027154325e-11,-0.0001115933708951,2.016054215232918e-09,1.0027525988343615e-06,4.313676958370176,72.2316578138625,2.893182308931483,50.47067588835877
0.1,31.2222157788302,131.01039245392113,3.109877853389092,4.035124630954496,0.0001457499816535,47.804664812504015,0.0002878217657545,3.341734392237128,538.7437595981891,3.5677148583138303,1.4531247507621967,69.99988403958329,1.9248461973355822e-09,120.0000002323013,7.7939962029572305,1.274,1.0268846934974103,0.0,0.0,0.0,0.0104845969583028,8.579678749070606e-11,-0.0001726817043215,3.984565639703107e-09,1.913455350430327e-06,4.0351246335824245,68.43243098813296,3.567737752667411,47.92132267234452
0.11,31.222215703308,131.01039260899836,3.148841432727305,4.043401107254707,0.0001752764476999,37.67622367577205,0.0003286462930162,3.3392563999062723,442.86563930529127,4.034183355956686,1.6436552022667772,69.99978525353545,7.302513231814865e-09,120.00000031883242,9.96528118825134,1.274,1.026848594915519,0.0,0.0,0.0,0.0118554331868328,1.5870341853361987e-10,-0.0002596204409236,7.232030302688121e-09,3.252930323390323e-06,4.04340111104746,65.92012987243639,4.034210888316708,37.82391391539392
0.12,31.222215627491828,131.01039276462643,3.186995101203875,4.17874459224363,0.0002066711490009,41.15991989399172,0.0003576945202315,3.336766085769504,475.58594813540793,4.361857560629481,1.7865750500940407,69.99963665601238,1.781774420198147e-08,120.00000041104812,11.649831899889556,1.274,1.0268114448194128,0.0,0.0,0.0,0.0128183893919737,2.682972478760441e-10,-0.0003710216542429,1.2215991071490164e-08,5.026311388647148e-06,4.178744597345269,64.21681651392016,4.361890024457652,41.29495143136631
0.13,31.22221554594398,131.01039293200228,3.2277173449026786,4.202734874672792,0.0002327160860324,45.44886120763352,0.0003953741266062,3.333578629398489,515.9156326236897,4.792165672014363,1.9646716520715424,69.99942424225341,3.613383418913551e-08,120.00000051758742,14.061726603124043,1.274,1.026779572895131,0.0,0.0,0.0,0.0140829618979635,4.248908088871395e-10,-0.0005056103199642,1.908859219307828e-08,7.5253154423526356e-06,4.202734881104192,62.048594618540655,4.792202226971676,45.570952718869485
0.14,31.222215454191247,131.01039312033683,3.2737880595608355,4.184830647080848,0.000257138757548,42.32232525579263,0.0004369426767266,3.329727443445437,486.2390860568421,5.269261304374574,2.158791628597544,69.99913473613935,6.515851355725497e-08,120.00000064630268,17.000925061330125,1.274,1.0267449573927567,0.0,0.0,0.0,0.0154850332441425,6.382432869666793e-10,-0.0006690086306358,2.8426433029675884e-08,1.0948547100483978e-05,4.184830654966803,59.74181173116622,5.269301695636157,42.45310707234106
0.15,31.222215353826755,131.0103933263496,3.3242182719560263,4.21963947489699,0.0002846467688673,40.886944113003565,0.0004726792395108,3.325585650885676,472.5421858721398,5.6781946837482895,2.329510773545807,69.99875162806286,1.0876776246115984e-07,120.00000079954532,19.742017654108928,1.274,1.0267115958081523,0.0,0.0,0.0,0.0166867950518804,9.204756288136623e-10,-0.000865746478554,4.08948221429571e-08,1.526771148078443e-05,4.219639484480408,57.84996018384879,5.678239395958187,41.02196629910223
0.16,31.222215247130432,131.01039354534575,3.3775922280208457,4.253495568077899,0.0003118339050386,32.26872905470846,0.0005078415214353,3.32090791922544,391.1218908297597,6.081244877834229,2.4981889727471702,69.99825581174558,1.7187028096464329e-07,120.0000009800088,22.644030778355887,1.274,1.026675762255412,0.0,0.0,0.0,0.0178712695992133,1.2856146928958252e-09,-0.0010961187242953,5.6923362293832417e-08,2.0702404729358337e-05,4.253495579487569,56.06022383757386,6.081293860589489,32.43916312841722
0.17,31.22221513260033,131.01039378041813,3.4348437275053194,4.364838523348639,0.0003448792023946,40.840448242802736,0.0005326487904353,3.3162727284953744,471.78125980632416,6.362544479165355,2.6250789114832647,69.99762801982864,2.5997588617291615e-07,120.00000119506798,24.78723182122683,1.274,1.0266409836796937,0.0,0.0,0.0,0.0186979513961862,1.747791994374917e-09,-0.0013624931601664,7.706724512977917e-08,2.6923621797558364e-05,4.364838536947241,54.85936171416122,6.362598652663785,40.97486885600156
0.18,31.222215014088988,131.01039402363364,3.4935801365785646,4.353948305387995,0.0003681615230806,33.992183768165326,0.0005718025428208,3.310131992647221,407.1015672119096,6.81502088160835,2.810667639293692,69.99684761766231,3.794979223522764e-07,120.00000144728236,28.437950785509614,1.274,1.0266048342046536,0.0,0.0,0.0,0.020027681385988,2.3221419748804155e-09,-0.0016616990447559,1.0147209890543081e-07,3.517105786247627e-05,4.353948320923495,52.99157233768714,6.815078712285162,34.152972512863755
0.19,31.22221488419521,131.01039429023237,3.558399965607869,4.432620772533925,0.0003996774584738,38.45149959021069,0.0005986099513107,3.304145139297767,448.95313283182486,7.1223367465208405,2.946425726785696,69.99589577323147,5.440084577183829e-07,120.00000176148238,31.060341085698347,1.274,1.026566130444714,0.0,0.0,0.0,0.0209308229359413,3.022391489754689e-09,-0.0020041563310821,1.3135864879722746e-07,4.433199397898183e-05,4.432620790516937,51.77883352025967,7.122399527709208,38.59320142454953
0.2,31.222214751373183,131.01039456280608,3.624052454705669,4.443889400961181,0.0004246617145652,35.23432408779927,0.0006337972852267,3.2968110145188256,418.5156301991588,7.530482904611057,3.1167566004785483,69.99474776398331,7.478025600151903e-07,120.00000211715036,34.72195181863731,1.274,1.026529240027363,0.0,0.0,0.0,0.0221302820454282,3.866698391504749e-09,-0.0023849544920781,1.668144671071589e-07,5.57780533277244e-05,4.443889421210987,50.22448880200342,7.530549610317194,35.38822625098952
0.21,31.222214608673173,131.01039485566503,3.6948551453492566,4.493351735844891,0.0004538195602194,33.79371564104691,0.0006629296043866,3.2891790438445727,404.8187610144608,7.868284042829251,3.2629204975089228,69.99338155599101,1.0150082652278477e-06,120.00000255293388,37.906665490338085,1.274,1.0264923657015164,0.0,0.0,0.0,0.0231230169900677,4.871073773182836e-09,-0.0028117605859743,2.089322918608601e-07,6.870935089180403e-05,4.493351758715364,48.992529909481824,7.868355328639073,33.95340801819282
0.22,31.22221446109996,131.01039515850383,3.767700382407304,4.5412639153933885,0.000482649303782,41.008966751568416,0.0006914639179131,3.2808061382386606,472.5421858721387,8.20057841132235,3.4071691679735228,69.9917708347139,1.3454961520984431e-06,120.00000305929996,41.175744234065135,1.274,1.0264494137127138,0.0,0.0,0.0,0.0240995709751246,6.054779813287368e-09,-0.0032829112061357,2.580881224843564e-07,8.3609968899004e-05,4.54126394098788,47.82515604752711,8.2006542256977,41.13999323561041
0.23,31.22221430675399,131.0103954752338,3.843768625625224,4.52371495179584,0.0005047555656171,33.98493478127787,0.0007294889663961,3.2705214710765107,406.340642146096,8.647938096586296,3.5908865300848416,69.98989017772566,1.7539876018835507e-06,120.00000365514876,45.79040229326471,1.274,1.0264133390858623,0.0,0.0,0.0,0.0254142776666487,7.436335125872812e-09,-0.0038001790077148,3.1489825108822685e-07,0.0001020628978177,4.523714979897577,46.31461705147579,8.648017383405135,34.14194053232237
0.24,31.222214142622448,131.0103958120587,3.92493179063287,4.57837522350066,0.0005351929930195,35.051650311058864,0.0007555049947555,3.26053011385611,416.2328240017099,8.954297884844461,3.72617527247482,69.98771316795013,2.25257161141768e-06,120.0000043564586,49.09180568115741,1.274,1.0263750048312463,0.0,0.0,0.0,0.0263146218848643,9.034877387788232e-09,-0.0043732521010013,3.809642748985157e-07,0.00012161410144,4.578375254714954,45.32798984252032,8.954381952763216,35.20297212911011
0.25,31.22221397517227,131.0103961556623,4.0071748888306855,4.6034117733065,0.0005618935542827,36.03738579534623,0.000785606492708,3.249069743648399,425.3640807915084,9.311611941121669,3.8789349536029696,69.98520781816889,2.8559738498748624e-06,120.00000517181904,53.08749562138344,1.274,1.0263373768840591,0.0,0.0,0.0,0.0273647110956883,1.0873791100894836e-08,-0.0049950711786164,4.5609738277273444e-07,0.0001444478241125,4.603411807525074,44.2165428352526,9.311700203154778,36.183554686886296
0.26,31.22221379934012,131.01039651647062,4.09364247475714,4.621386912291471,0.0005881033207375,39.29107511182762,0.0008162761165496,3.236407051295005,455.80158342417656,9.67833954512075,4.034902068846398,69.98234620927953,3.5784678110229355e-06,120.00000612171208,57.350948423913096,1.274,1.0263006300381676,0.0,0.0,0.0,0.0284424679130479,1.2973286442992724e-08,-0.0056712051373577,5.414206381221602e-07,0.0001704578711045,4.621386949630312,43.12063533194282,9.678431924174348,39.42414126789902
0.27,31.222213616776543,131.01039689108487,4.183310605341074,4.617158109135719,0.0006115457810536,35.90419462403674,0.0008503454714941,3.221982799915672,423.8421996598744,10.088790784535757,4.205862468567124,69.97909721779352,4.436165972465058e-06,120.000007221354,62.31798301949865,1.274,1.026260090595354,0.0,0.0,0.0,0.0296487219805601,1.5355910600537293e-08,-0.0064045199323113,6.379142666348734e-07,0.0002006609239367,4.617158149547818,41.94410287616451,10.08888684592241,36.048472443180565
0.28,31.22221342607797,131.0103972823952,4.277051150896916,4.642105655370123,0.0006389739579882,41.51133203546672,0.0008785747638736,3.2071101123224945,476.3468732012228,10.432377224420517,4.35383399240675,69.97542808435722,5.446665372087172e-06,120.00000849080963,66.63429581008447,1.274,1.0262212716723291,0.0,0.0,0.0,0.0306584788590473,1.8045308789081613e-08,-0.0072006835403936,7.469524967369969e-07,0.0002332868227611,4.642105699250441,41.0023231023774,10.432477594215127,41.63503624837164
0.29,31.22221323001776,131.01039768469093,4.373143569786686,4.62134615173668,0.0006600657405645,33.17552944492765,0.0009148746278066,3.1894209319791806,397.9703104221098,10.876662296046485,4.536381530986506,69.9713027936179,6.629751536885327e-06,120.00000994797426,72.43000748232016,1.274,1.026183007522519,0.0,0.0,0.0,0.0319641703260467,2.1067646517035105e-08,-0.0080566154554079,8.688043379161898e-07,0.000272130659453,4.621346198772975,39.83162628795024,10.876765978930557,33.32848872465723
0.3,31.22221302403368,131.01039810736614,4.4744193758467325,4.664362353358112,0.0006905183788532,31.08096762732793,0.0009381960428197,3.172549142946348,378.1859457108735,11.168362145070317,4.66647911311536,69.96668711012893,8.005507138509574e-06,120.00001161892672,76.36634300732833,1.274,1.0261430389738484,0.0,0.0,0.0,0.0328214509167604,2.4447409007156216e-08,-0.0089829108229115,1.0056222251461646e-06,0.0003115527202986,4.664362404357781,39.09908960432563,11.168470611443622,31.242464973103964
0.31,31.22221281503337,131.01039853619727,4.576593712520673,4.700143580504286,0.0007196683316923,32.79732593144512,0.0009620705970519,3.154230688182399,394.1656220930229,11.470279728974068,4.800072153432283,69.96154070456518,9.597499105113692e-06,120.00001352112182,80.55022837857167,1.274,1.0261054058068628,0.0,0.0,0.0,0.0337087616009043,2.8214060606649844e-08,-0.0099686353219717,1.1565909895184251e-06,0.0003550834484269,4.700143635477137,38.36463422765983,11.47039277421126,32.94865339301887
0.32,31.222212598991007,131.01039897947376,4.68216432480395,4.718667719113184,0.0007464384342556,35.7316568886908,0.0009885845337584,3.133859770838664,421.5593934624264,11.808280530415894,4.946054328851105,69.95582953472353,1.14278227255889e-05,120.00001568218067,85.36654007972253,1.274,1.026068246703101,0.0,0.0,0.0,0.0347021168382987,3.2392058795580455e-08,-0.0110163301561155,1.3226102501723267e-06,0.0004039614423012,4.718667778018562,37.5686120062341,11.808397780690962,35.8688218659563
0.33,31.222212376029034,131.0103994369436,4.791055524254013,4.72141404831576,0.0007708346814671,35.42013590291081,0.0010176135371143,3.1111955852784385,418.5156301991632,12.181577273013426,5.104163223586657,69.94951809396906,1.351997394754887e-05,120.00001812674968,90.84831229869296,1.274,1.0260310883392356,0.0,0.0,0.0,0.0357992034445943,3.700677535501642e-08,-0.0121310534481307,1.5051409581878843e-06,0.0004588955105349,4.721414111097893,36.7208578211118,12.181698355442045,35.55651229220977
0.34,31.222212145785647,131.0103999093516,4.903491659547144,4.73024573449122,0.0007962944975467,27.63851074646407,0.0010446307681611,3.0871492806781062,345.4656368807584,12.53557620048282,5.2556261014174765,69.94256797855994,1.5899658158227497e-05,120.000020882338,96.20413272674828,1.274,1.0259901535019136,0.0,0.0,0.0,0.0368395817555172,4.208561016221623e-08,-0.0133180771902383,1.7057647550599631e-06,0.0005184333231541,4.730245801363397,35.94841996438923,12.535701282129995,27.810389570354005
0.35,31.222211909310875,131.01040039453565,5.018822212845608,4.780248518778662,0.0008286678570753,30.332092807652543,0.0010618579815451,3.063967690608957,370.5765700527057,12.774786382148209,5.367579971644358,69.93493776125636,1.8594985713558667e-05,120.00002397748868,99.9096898192772,1.274,1.025950003202184,0.0,0.0,0.0,0.0375426220587071,4.7658312175989686e-08,-0.0145774693288123,1.9252724355785177e-06,0.0005782798420984,4.780248590437683,35.44790728185619,12.774916548990808,30.486451961956565
0.36,31.22221166933814,131.0104008868675,5.135354490370708,4.798132156899578,0.0008554457330409,34.32674769697476,0.0010851169437774,3.0374319611165923,407.8625232777224,13.09301701329486,5.506730645516068,69.92658597246795,2.163521613217148e-05,120.0000274401514,104.94818266210537,1.274,1.0259105142325406,0.0,0.0,0.0,0.0384778908056978,5.3755109608570216e-08,-0.0158991451700967,2.162609490834569e-06,0.0006464142451675,4.798132232978766,34.796094028187134,13.09315138639638,34.46087058603792
0.37,31.222211421355144,131.01040139563804,5.255882891363927,4.797392186816851,0.0008791822061288,32.551601855236584,0.00111162791192,3.0078619428913056,391.1218908297639,13.457513730739372,5.661815946371007,69.91747693543164,2.5047738471809164e-05,120.0000313040604,110.87154396328836,1.274,1.025872170958032,0.0,0.0,0.0,0.0395491312153729,6.040098808671168e-08,-0.0172926678053148,2.420031948898497e-06,0.0007226353721561,4.797392267189059,34.07332166419882,13.457651832357364,32.69027405888565
0.38,31.22221116634284,131.01040191882743,5.379799334000849,4.811698494594017,0.0009057112478668,34.02947987649063,0.0011338447913587,2.9774881690446744,404.81876101445977,13.77554886562956,5.800899861213392,69.90756948297444,2.886339581486796e-05,120.00003560072224,116.17243393848278,1.274,1.02583050512925,0.0,0.0,0.0,0.0404838339452728,6.762496638941508e-08,-0.0187646375218858,2.69955777313946e-06,0.0008026686661094,4.8116985796350695,33.46655348088405,13.775691134419684,34.15949264475229
0.39,31.222210906095896,131.01040245274032,5.505993307722699,4.813508003664984,0.000929862892873,29.00025983045028,0.0011579891265804,2.9442136901860865,357.6406249338268,14.124492165837273,5.950648592462506,69.8968186645841,3.311602501056718e-05,120.00004036395212,122.13093644173792,1.274,1.02579027384009,0.0,0.0,0.0,0.0415093739609825,7.545934774906889e-08,-0.020311592409804,3.0013532510753577e-06,0.0008908380763632,4.813508093268025,32.821616487639595,14.124638228358922,29.149330452482886
0.4,31.222210638473225,131.0104030017851,5.635788650457906,4.841647069358873,0.0009592124397379,27.71178845184976,0.0011749448424961,2.91135549588368,345.4656368807565,14.390874239274588,6.07193451174791,69.8851815212744,3.783947407715338e-05,120.00004563180136,126.77947425345651,1.274,1.0257493418632293,0.0,0.0,0.0,0.0422922854866381,8.39343718693383e-08,-0.021938519432511,3.3271332720311508e-06,0.0009803271643914,4.841647164150728,32.348088166612904,14.391024912012275,27.864299944624147
0.41,31.22221036681104,131.01040355909262,5.767123077463226,4.86553909860892,0.0009876699832274,31.306062598221665,0.0011918093836199,2.876450850006428,378.9468707766882,14.663028799871563,6.195223154320929,69.87261222561014,4.307011032901644e-05,120.0000514391194,131.6183642808765,1.274,1.025708445186429,0.0,0.0,0.0,0.0430921644173401,9.308325447883581e-08,-0.0236371933433427,3.6760977501392174e-06,0.0010761942383903,4.865539198612839,31.87689439156756,14.663183942709727,31.437931330109585
0.42,31.22221008906472,131.01040412887247,5.901259531771367,4.867510642114694,0.0010118258958528,35.308283402190774,0.0012128114559048,2.8374461227958245,416.23282400171047,14.9952917972178,6.33928625560071,69.85906967380902,4.884273094936628e-05,120.00005782486392,137.64909586091787,1.274,1.0256701057426505,0.0,0.0,0.0,0.0440686959134695,1.0293499639582845e-07,-0.0254093547296826,4.049238334851429e-06,0.0011830797791891,4.867510747027452,31.315270489291198,14.995450734457847,35.422111438762386
0.43,31.222209804115888,131.01040471342728,6.038886819939341,4.854590670645608,0.0010330089741511,31.00586934514032,0.0012363751872706,2.794478603999558,375.90313951343126,15.369430568701889,6.497852263156962,69.8445117629242,5.519340856908871e-05,120.00006482835984,144.60167924299955,1.274,1.0256308158337524,0.0,0.0,0.0,0.0451682983415116,1.135186446762958e-07,-0.0272634397889413,4.449073329427772e-06,0.0013010625065656,4.854590780289497,30.70250814963406,15.369592833372094,31.13154422839874
0.44,31.22220951192321,131.01040531284193,6.180028459770617,4.866912332640401,0.0010595850174406,28.57707721036899,0.0012525768202179,2.752165534925872,353.07501253892326,15.659290812546615,6.627318538707029,69.82889155423543,6.216182865383864e-05,120.00007249162944,150.1053167542629,1.274,1.025586171750536,0.0,0.0,0.0,0.0460202245100907,1.2486676023179565e-07,-0.0292060158163984,4.8779154055816594e-06,0.001420032405556,4.866912447705031,30.24619499837236,15.659457251771938,28.709297424144207
0.45,31.222209215425703,131.01040592106523,6.322872201489905,4.881836476567178,0.0010866574689855,33.31904824532484,0.0012669045761511,2.7082028218433374,397.2093853562887,15.934249290371609,6.751662050993672,69.81215834018458,6.97909417564726e-05,120.00008085697964,155.42080512416243,1.274,1.0255397023523487,0.0,0.0,0.0,0.0468283602442113,1.3701614206272197e-07,-0.0312276295846745,5.334643585560923e-06,0.0015449645531859,4.8818365972149325,29.82567893138932,15.934419982127675,33.428929688274074
0.46,31.22220891307435,131.0104065412864,6.468371919199588,4.869610441729251,0.0011078049156487,38.95909776354321,0.0012868374716666,2.6582856015412624,449.7140588976424,16.292139278621757,6.904766425053949,69.79426683863348,7.812149592850748e-05,120.00008996920153,162.4785746623087,1.274,1.02549635315424,0.0,0.0,0.0,0.0478802236363867,1.499987870203256e-07,-0.0333272350234362,5.819761874615242e-06,0.0016858511402973,4.869610567434908,29.29014635640275,16.292313292210977,39.04968351401366
0.47,31.22220860266524,131.01040717804253,6.6178810515614845,4.838450928223533,0.0011247917292402,26.253747818137555,0.0013104398935566,2.6026193242279367,331.0078106302504,16.710658191447514,7.078951441335346,69.77517236812905,8.719457259907165e-05,120.0000998741591,170.9309671061642,1.274,1.025453319323251,0.0,0.0,0.0,0.0491102725711187,1.6384464803343264e-07,-0.0355167087264168,6.3368207228363735e-06,0.0018427306558807,4.838451058652396,28.68386015667837,16.710834873319172,26.382435512333956
0.48,31.222208284201663,131.0104078313267,6.771393590864176,4.869339340099417,0.0011561785713505,25.860860976019296,0.0013165328518772,2.5543454292827983,327.20312230115803,16.911139899671,7.177575416403102,69.75482343794755,9.70562828082882e-05,120.00011062072316,175.0543877818846,1.274,1.0254092882449153,0.0,0.0,0.0,0.0496995461609974,1.7858865391586845e-07,-0.0378054080201581,6.88909442277235e-06,0.0019849793891693,4.869339477030596,28.40887970825325,16.911321511776286,25.986704537635287
0.49,31.22220796480208,131.01040848648364,6.924537656029012,4.881367714530694,0.0011829003785372,32.565703383222065,0.0013261973190012,2.5011623511055703,389.6000096981238,17.169005224738054,7.296160258358563,69.73316318155707,0.0001077573203115,120.000122255028,180.4309832312717,1.274,1.025367445590036,0.0,0.0,0.0,0.05045746454003,1.942747077649401e-07,-0.0401641298712614,7.47069711110948e-06,0.002140948887153,4.881367857509675,28.058569663954906,17.169191034294997,32.66161128464712
0.5,31.222207637929923,131.01040915697027,7.081324512896956,4.862566137860805,0.001202418260511,33.47759680712428,0.0013425340759632,2.4399894027711366,397.970310422106,17.52898693231981,7.450304424940405,69.71015149227495,0.0001193385310595,120.0001348274002,188.0736471953394,1.274,1.0253278572281015,0.0,0.0,0.0,0.0515154948878309,2.109295159784217e-07,-0.0426011733481599,8.084173008518589e-06,0.0023184335011768,4.862566286171007,27.57768313050809,17.529175807738486,33.56639745442473
0.51,31.22220730314019,131.01040984370235,7.24202048914867,4.8479762258125,0.001223054804074,25.49162310288008,0.0013562860883156,2.3767006597692686,323.39843497208153,17.86914397471067,7.597652147346554,69.68574349602717,0.0001318441288964,120.00014838524436,195.4407439266201,1.274,1.025286455263166,0.0,0.0,0.0,0.0525152689856776,2.2858192086249162e-07,-0.0451315948093539,8.734206149830708e-06,0.002503767471626,4.847976379721193,27.13799345359824,17.86933609171003,25.602178740977283
0.52,31.222206962738102,131.01041054193402,7.405210501673173,4.865306299521403,0.0012516517170965,30.733671928447727,0.0013599291289974,2.317711624364424,372.098451184342,18.08534843773428,7.701914987606457,69.65988568649581,0.0001453248538387,120.00016298000436,200.19561780583155,1.274,1.0252426840672306,0.0,0.0,0.0,0.0531507657929359,2.4726951523704535e-07,-0.0477531686556663,9.421346966092632e-06,0.0026812161964639,4.865306460134566,26.8699055233151,18.085545046726228,30.820940596104087
0.53,31.222206619320115,131.01041124632013,7.569307468221277,4.848802699234936,0.0012715119568563,32.301199055744725,0.0013711327835325,2.2490252325653923,386.55624643486095,18.41963113311156,7.8474319110539055,69.6325258319474,0.0001598315062727,120.0001786629144,207.6614205945027,1.274,1.0251993415311351,0.0,0.0,0.0,0.0541332845214831,2.67031759303889e-07,-0.0504479325599339,1.0141887756417996e-05,0.0028848299490111,4.848802865552398,26.45837260670532,18.419830861742675,32.37940050117613
0.54,31.22220626697288,131.01041196903336,7.737918664599091,4.831496690588052,0.0012913635058467,28.31291960103712,0.0013809098107221,2.177242866245296,349.2703242098436,18.75116898748492,7.992112829440902,69.60362200959217,0.0001754082864028,120.00019548734956,215.20067397992847,1.274,1.0251561018460285,0.0,0.0,0.0,0.0551077428911958,2.878941684235108e-07,-0.0532336286085667,1.090122304443916e-05,0.003098869611663,4.831496862756785,26.061835558272342,18.751371834390056,28.396510432451375
0.55,31.222205908994248,131.01041270328463,7.909026079894722,11.26915367789886,12.12314324897902,30.280788740501023,-0.715987249178397,1.7136977663832424,365.2500005919912,20.6732111531256,8.113323699629928,69.57312211246325,0.0001921068626005,120.00021350480982,261.57466467513893,1.274,1.025112921033824,0.0,5.012807131891703,0.0,0.0607565429524601,3.0989272306468813e-07,-0.0561100530405476,1.1700476995263424e-05,0.003601060098754,16.494202625284505,36.86929337798087,22.56333263297584,30.33769214232267
0.56,31.222205546564343,131.01041344664463,8.081909946161325,16.75967050565527,-0.0268895214550472,28.28883630143041,-0.1638702071957125,1.096063666190194,346.22656194657776,21.9513198250756,8.246362755413777,69.54097415464405,0.0002099796112633,120.00023276987916,294.9129623233251,1.274,1.0250709539098009,0.0,5.031095570890197,300.0001285565649,0.0645129049865595,3.330095088065315e-07,-0.0638209163462282,0.0086918130477972,0.0043490881786003,16.759691457896995,27.609315771492327,21.947096029077564,28.31053634769705
0.57,31.222205178926508,131.01041420507835,8.258332077308209,16.61033971596908,-0.0219643223299858,27.994993582526,-0.1652028927891746,0.8070364641318603,343.1828296833045,22.228693248032247,8.361121423896215,69.5044076151286,0.0135342732551156,120.01445598648584,302.4078741202188,1.274,1.0250279191823897,0.0,5.049241129622549,300.0001285565649,0.065328209918631,3.63988245682136e-07,-0.0770511197454869,0.008665458329908,0.0053169193212455,16.610353828853363,27.330503408940995,22.225243100433104,28.00711098160423
0.58,31.2222048054978,131.0104149708688,8.436698173086457,16.457919624718645,-0.0263092045982869,36.94754547408464,-0.1659922589337427,0.5068106458015825,426.12500585731766,22.511862764872745,8.479827587789853,69.46025959064977,0.0267598900493751,120.02857757171068,310.1563354671685,1.274,1.024981594484354,0.0,5.067416257180974,300.00012855656485,0.0661605538004238,4.0049668261341306e-07,-0.0905036772852523,0.0086426697020343,0.0063246631955257,16.457940071752216,27.042402897331428,22.507730124823585,36.95139411470528
0.59,31.22220442701396,131.01041574897224,8.617766089736898,16.205162681730844,-0.030416420905765,29.943941765855044,-0.1678185753627231,0.1752060040642353,360.68438819710633,22.925131139580945,8.646184100776102,69.40840270367264,0.0398780567710778,120.0425888083818,321.64284737395224,1.274,1.0249386802161349,0.0,5.0854720013898,300.0001285565649,0.0673752539330496,4.4262300197796884e-07,-0.1041817323646229,0.0086155905836241,0.0074140514859193,16.20519046164439,26.61348102978998,22.920353339582054,29.94492458990363
0.6,31.222204039162907,131.01041654596244,8.803762764632998,16.05439876567283,-0.0345972230127996,26.62368549251343,-0.1682601421379873,-0.1468670770830026,329.4859594986072,23.19449924040469,8.759978004322853,69.34870778407604,0.0528680406466207,120.0564681946308,329.2399187108056,1.274,1.024891335813742,0.0,5.103483068879882,300.0001285565649,0.0681670497613097,4.904472162143719e-07,-0.1181625700867416,0.0085839018833292,0.0085076451426571,16.05443506336919,26.3452585045802,23.18906472165236,26.624622262447843
0.61,31.222203649258912,131.01041734711174,8.990319988086062,15.908688889904546,-0.0387232075371415,31.24524902623348,-0.1684610287164536,-0.4760727126854533,372.0984511843332,23.44962453194836,8.868680393002313,69.28100136382275,0.065708693441838,120.07019374794712,336.5165990689107,1.274,1.0248423929069768,0.0,5.121660654907507,300.0001285565649,0.0689169906165089,5.440954265637425e-07,-0.1323476384102209,0.0085476747850768,0.0096336030533211,15.908734800385131,26.092539704354408,23.443541905195318,31.249329769729528
0.62,31.222203253749928,131.01041815971757,9.179569154483268,15.700309335013172,-0.0426401265970568,38.897078904473936,-0.1692522255722082,-0.8313638051829682,442.86563930529206,23.787132585925047,9.007924891328797,69.20516646743137,0.0783793685562735,120.08374400082286,346.26691599225967,1.274,1.0247996097896497,0.0,5.139575908195918,300.0001285565649,0.0699090550852254,6.036472729110957e-07,-0.146721441903278,0.0085068206435076,0.0108333916847551,15.700365781030095,25.754929781640787,23.78043469112005,38.906330582481054
0.63,31.22220285070617,131.0104189877288,9.372647394330484,15.430123425814834,-0.0463121801248091,22.052578423799137,-0.1706557376671139,-1.218835697144499,286.11251274707456,24.212901924376567,9.179994893882018,69.12109499886874,0.0908597340397559,120.09709777839444,358.7669647324105,1.274,1.024756158874558,0.0,5.157427165435929,300.0001285565649,0.0711605224071131,6.691706679909464e-07,-0.1613285874304047,0.0084610634763434,0.0121249201757993,15.430191238276588,25.33291503045202,24.20562722492613,22.086894280890732
0.64,31.222202439231832,131.0104198329682,9.570063769551949,15.33957744693276,-0.0504004343500954,21.67754648970405,-0.1695260366473543,-1.556674224642027,282.3078244179702,24.35829309552684,9.248831619898414,69.02865330679727,0.103129440490336,120.1102338377236,363.0815924618065,1.274,1.024708534665538,0.0,5.175328552678836,300.0001285565649,0.0715879793094559,7.407511590881569e-07,-0.1762174377937371,0.0084100609802084,0.0133231898182713,15.33965825794646,25.189264776807487,24.35037621483324,21.734028515948133
0.65,31.22220202948177,131.0104206746102,9.765795714834155,15.192905599882089,-0.0542808987114034,38.35219527000246,-0.1689150311199281,-1.9176096989635616,436.7781447787504,24.57936232075912,9.345945269685943,68.92768001240324,0.1151680328246848,120.12313075720115,369.6950096070747,1.274,1.0246641738210605,0.0,5.193318998189404,300.0001285565649,0.0722378517958411,8.185233449504429e-07,-0.1911991967071006,0.0083543312506579,0.0145868324154306,15.193000283017115,24.96917086206741,24.570835898403477,38.4004770969541
0.66,31.222201612334857,131.0104215313505,9.965229302909597,14.888041596146696,-0.0575639305533156,32.64295733017848,-0.170184637791872,-2.350656591802492,383.5125151715984,25.04337252501229,9.533964237863431,68.81812195144683,0.1269570303338954,120.13576918700927,383.77764698420975,1.274,1.0246195561629028,0.0,5.210853216335716,300.0001285565649,0.073601726503204,9.025175728294696e-07,-0.2063137845371703,0.0082936270749614,0.0160367759277352,14.888150363931365,24.51930192630924,25.034330405466548,32.72792710336813
0.67,31.222201183628705,131.01042241168946,10.170755522611977,14.68084524742732,-0.0611002442811464,22.50313933866968,-0.1699199595345522,-2.755700186785781,289.15624401033847,25.34424983638557,9.661708215553857,68.69990308087658,0.1384783172631647,120.14813009096024,393.0468855247362,1.274,1.024572383541697,0.0,5.228421484374383,300.0001285565649,0.0744861686721288,9.927638060245623e-07,-0.2217060297196772,0.0082271854639925,0.0174399155021954,14.680969598736269,24.22540604535029,25.33465223427634,22.671877655096903
0.68,31.222200753353206,131.0104232951671,10.376517303412424,14.53881307504722,-0.0648342391195068,28.112913158398687,-0.1685217156498733,-3.135720059225437,340.89999248584934,25.525721341697952,9.745118811771553,68.57286435333053,0.1497130008560175,120.16019350826424,398.6877977679613,1.274,1.0245245285832842,0.0,5.24621768792003,300.0001285565649,0.0750196834046256,1.0893916291956453e-06,-0.2372603452355994,0.0081553197919458,0.0187967182401041,14.538954518829428,24.03858820100013,25.51553720540539,28.287753995503785
0.69,31.222200320031995,131.0104241848102,10.583386402718048,14.313704177575817,-0.0681738485659504,34.62395811990137,-0.1680266088737756,-3.561509239603496,401.0140726853658,25.83748958762653,9.87814262206827,68.43691297386475,0.1606439435918426,120.17194129157154,408.4782136732268,1.274,1.024479631064582,0.0,5.263732025340494,300.0001285565649,0.0759361424715108,1.1924819533533263e-06,-0.2528901511344772,0.008078305455146,0.0202792763292509,14.313863135573818,23.73401791805682,25.82678086706228,34.80705470007128
0.7,31.222199877920207,131.01042509235296,10.794643528180572,14.046012424386564,-0.0712465829375173,29.066410579572786,-0.1678831532341195,-4.020141251731969,349.270324209851,26.21671642420904,10.037487853419732,68.29200576496501,0.1712557829792996,120.18335711389877,420.54846466323374,1.274,1.0244351749185203,0.0,5.281066093529787,300.0001285565649,0.0770508702663277,1.3020512237279998e-06,-0.2686659449373604,0.0079956566048594,0.0218601093036936,14.04618948342612,23.372699923799097,26.20552504001568,29.34358438257531
0.71,31.222199428531383,131.010426014685,11.00936960989946,13.835752395727594,-0.0745179578357788,23.916960725430897,-0.1666587914377978,-4.453500406234636,301.3312640634036,26.48370510613245,10.15493115555056,68.13805914581776,0.1815332656809993,120.1944246611478,429.1488871506757,1.274,1.0243880468141104,0.0,5.2984886695650495,300.0001285565649,0.0778357379524037,1.4181513911222088e-06,-0.2846167369176325,0.0079070368421312,0.0233933078432474,13.835949151587318,23.107911005498856,26.471999855987523,24.32863439165667
0.72,31.22219897608045,131.01042694319412,11.225154149498495,13.6445529910496,-0.0778348310967378,29.27882501957861,-0.1648870643278697,-4.877545796051803,350.7922053414578,26.70270881559746,10.254684026090926,67.97497291153076,0.1914616371893367,120.20512805129644,436.266780206764,1.274,1.024337302174265,0.0,5.315877970931497,300.00012855656485,0.0784795819699274,1.5408729451815627e-06,-0.300658463499267,0.0078127429070665,0.0249156494426513,13.644770779540073,22.88132798431878,26.69048255267961,29.68277674449726
0.73,31.222198519100576,131.010427880873,11.442819827109892,13.39298889597668,-0.0807728652905543,37.0206870643769,-0.1637230749571296,-5.345899689768502,422.3203185282354,27.024852672383705,10.394920624020925,67.80269503461123,0.2010281160610332,120.21545342682371,446.84725793540815,1.274,1.024292465384646,0.0,5.33308380724004,300.0001285565649,0.0794265616781945,1.6702647453025505e-06,-0.3167478701539505,0.0077128927514348,0.0265650977904845,13.393228011207846,22.569810679442405,27.01216490457601,37.40503601731809
0.74,31.22219805385723,131.01042883532767,11.664411995360584,13.09344696220236,-0.0833612839671707,23.22731473861544,-0.162992416936804,-5.858337571419848,294.4828134710563,27.43406557658469,10.56998199801104,67.62119827606669,0.210221529536629,120.22538855606372,460.4723217381048,1.274,1.0242470321640116,0.0,5.350173931519386,300.0001285565649,0.0806294478426164,1.8063326546342897e-06,-0.332933633972282,0.0076070266741315,0.028344772963472,13.093707689744017,22.1916241202986,27.420971221339165,23.95526738726559
0.75,31.222197580103536,131.01042980704548,11.89000491078028,12.905903379968096,-0.0865561279927929,27.10523386762772,-0.1602791886003578,-6.286600971175539,330.24688556441737,27.60439919224952,10.652963550664568,67.4304275021176,0.2190310718016149,120.23492148409296,466.1979675484692,1.274,1.0241984712898409,0.0,5.367297943812388,300.0001285565649,0.0811302693509327,1.949102793219725e-06,-0.3492524488791187,0.0074946931239562,0.0299180642183203,12.906188704536856,21.99841847226913,27.59080299262976,27.825181836025376
0.76,31.222197107027,131.01043077730486,12.1145456590203,12.652128683026795,-0.0892884332392215,29.169588019090472,-0.1582830862798374,-6.7694846546089416,349.2703242098581,27.898767423151,10.785377936534031,67.23030653791056,0.2274463691672377,120.2440405925998,476.1836129520207,1.274,1.0241522053390697,0.0,5.38443165516048,300.0001285565649,0.0819956353219732,2.098683137292536e-06,-0.3655423948950295,0.0073768479681527,0.0316467514149678,12.652438604041109,21.709279091563275,27.88474203453212,29.945213995359172
0.77,31.22219662427596,131.01043176718494,12.343657417238909,12.387141518226148,-0.0918830673677039,27.28233354748389,-0.1561503566670096,-7.264632106107779,331.76876669606884,28.204523850822746,10.92350293358856,67.0208520184911,0.2354604932141948,120.25273789257751,486.6675647974093,1.274,1.0241065975906936,0.0,5.401228712518517,300.0001285565649,0.0828944804205375,2.255040861577553e-06,-0.3818623722256266,0.0072529150639466,0.0334212315876327,12.387476964349457,21.4115968806007,28.190090898537445,28.233401962341414
0.78,31.222196136009128,131.01043276820442,12.575024230096927,12.133615877928076,-0.0944950087388657,22.42905312470588,-0.1535351703331983,-7.749979427948352,286.8734378128874,28.472932454589508,11.047895511940428,66.80204680374483,0.2430666904706057,120.26100544610928,495.9633722670284,1.274,1.0240588105546735,0.0,5.418110816518803,300.0001285565649,0.0836835649234958,2.4181907371008026e-06,-0.3982004881287645,0.0071228011735628,0.0351820505234871,12.133978312745937,21.141072661606504,28.45808922005575,23.73074331438083
0.79,31.22219564282033,131.01043377915107,12.808306294202456,11.90039301950668,-0.0972059910683747,31.81010162662887,-0.1502940179700737,-8.211193600277245,373.6203323159581,28.67966929206672,11.148587604400683,66.57388057443868,0.2502594041339252,120.26883649301298,503.18044826020713,1.274,1.0240083170932772,0.0,5.434903897932862,300.0001285565649,0.0842913980724468,2.588155052244257e-06,-0.4145167401821444,0.0069866515601821,0.0368887251137345,11.900784291600097,20.91300639632064,28.664400218020365,32.853140704193386
0.8,31.22219514581299,131.0104347977775,13.042901778484916,11.592781077674866,-0.0992831498275402,32.21327319588966,-0.1479095168107675,-8.752785523369404,377.42502064505805,29.048097143219927,11.315952451325012,66.33636592848178,0.2570347339403883,120.27622594880872,516.1798795930163,1.274,1.0239625010683884,0.0,5.451562098738126,300.0001285565649,0.0853744572566487,2.7649480460193263e-06,-0.4307572869099112,0.0068447669651611,0.0388255815967626,11.5932003941331,20.57239615871583,29.032501790318346,33.381553313713425
0.81,31.22219463811619,131.01043583803735,13.282337414417542,11.297145350968332,-0.1013833580294349,21.001289693716167,-0.1450042199286877,-9.282788685657543,273.9374926939922,29.376971791151227,11.46884549426589,66.0895463261804,0.2633906885465497,120.28317069420528,527.9220015916176,1.274,1.0239149950770308,0.0,5.468055466072206,300.0001285565649,0.0863412768584442,2.948497111426499e-06,-0.4469948170942401,0.0066963127121811,0.040744329627378,11.297594350995402,20.260646033618105,29.361046538822578,22.961823986908307
0.82,31.222194125380025,131.01043688844024,13.523624320675616,11.061300039080267,-0.1039390650376756,26.916708720522127,-0.1408203066083605,-9.732386865269632,328.725004432774,29.539542848868155,11.554521518638406,65.83342355624505,0.2693249208618809,120.28966708379592,533.7688018210681,1.274,1.0238644186635044,0.0,5.4846419989640856,300.0001285565649,0.0868193225839907,3.13881650974902e-06,-0.4631846332363848,0.0065414688590713,0.0424527191277454,11.061782285570334,20.0585546560334,29.523216147665867,28.622515486928435
0.83,31.22219361126133,131.01043794156288,13.7649064603124,10.764202389239223,-0.1059022629291697,34.144475294413866,-0.1373066661777512,-10.255546428691684,395.6875032246518,29.84455640982372,11.700494325268252,65.56802501858128,0.2748367048966699,120.2957131219728,544.8360550271623,1.274,1.0238188483711983,0.0,5.501112281456264,300.0001285565649,0.0877160231320071,3.335946900744393e-06,-0.4792143722299535,0.006381154238979,0.0443744005782841,10.764717186473726,19.76301711130689,29.82792133073482,35.65165183834357
0.84,31.222193086848048,131.0104390154872,14.0106350251161,10.433980609262845,-0.107482904436272,21.09350498423004,-0.1339898206111021,-10.824680091707323,275.45937482564227,30.22753599474096,11.881001082941475,65.29344251188233,0.2799282143412694,120.30130988684,558.8957778132527,1.274,1.0237739661568126,0.0,5.517343365859229,300.0001285565649,0.0888418832902338,3.539777933616123e-06,-0.4951411161677398,0.006214613780442,0.0464364516442429,10.434528065018243,19.4201981180652,30.21065262949521,23.70923037299123
0.85,31.22219255402265,131.0104401063782,14.259765520965471,10.179399145849205,-0.1097419617158198,22.95831010123272,-0.1291081629375596,-11.27171225071962,292.9609323393965,30.38326375792277,11.966964142493408,65.00973510762245,0.2846013103736113,120.30645798848724,564.6557978647772,1.274,1.0237227741398531,0.0,5.533635886154928,300.0001285565649,0.0892998344441098,3.750239361237956e-06,-0.5109820941604495,0.0060414108255735,0.0481678213382673,10.179984444369468,19.218698602986265,30.366025541426943,25.576398665275846
0.86,31.22219202183379,131.01044119588576,14.507845918327378,9.886402148680736,-0.1115655264895054,28.69176275499265,-0.124545769394654,-11.767125056453404,346.2265619465616,30.631289762363075,12.093461827152629,64.71695199021052,0.288858150473052,120.3111582397471,573.8985992907309,1.274,1.023674789281455,0.0,5.549900777915122,300.0001285565649,0.0900290627961606,3.967387704984024e-06,-0.5265957716939664,0.0058629198559925,0.0500436758330756,9.887025363419124,18.960443346178245,30.613765101516638,31.011255919934474
0.87,31.222191480512564,131.01044230381203,14.759608754969674,9.562926092604403,-0.1129991179205428,26.666575834729656,-0.1201494597380467,-12.305850522224512,327.9640783669946,30.955419310307285,12.254589184244596,64.41522346681083,0.2927042970805546,120.3154151239434,586.0942754419782,1.274,1.0236288969245204,0.0,5.565858003770987,300.0001285565649,0.0909819771496892,4.191094214948392e-06,-0.5420084836156753,0.0056786652190548,0.0520521683852587,9.563587478822084,18.658217150293005,30.937669461877856,29.369280885261666
0.88,31.222190931265647,131.01044342769828,15.014369082644333,9.2533064440635,-0.1145185588271151,22.986078770438887,-0.1151949260889093,-12.81040749165688,294.4828134710421,31.222211691544448,12.392623783749114,64.10466473228963,0.2961453250583134,120.31923303129732,596.2258476437656,1.274,1.0235805388426191,0.0,5.5818240917087225,300.0001285565649,0.0917663782007719,4.421241678976857e-06,-0.5572336625953372,0.0054882473349606,0.0539742272807906,9.2540088842502,18.39126124392076,31.204223170365974,26.315007642296376
0.89,31.222190377386543,131.0104445608682,15.270527028070356,8.95163447733813,-0.1160754283060195,25.158824303321584,-0.1097923099686037,-13.28516859317192,315.02813424808807,31.44534840254068,12.513049458910745,63.785383279144895,0.2991869472471567,120.32261640793844,604.7635528076327,1.274,1.0235293752791452,0.0,5.597753569815761,300.00012855656485,0.0924224748260628,4.657776519139113e-06,-0.5722185287491373,0.0052920973161561,0.0558204159886286,8.952380885260322,18.15011940511818,31.42711532937149,28.451260063936264
0.9,31.22218981836036,131.01044570436258,15.528302790117973,8.62968306388332,-0.1173249678833126,27.73723594053059,-0.1044081397147907,-13.786780497802424,339.3781423542166,31.71965205363175,12.657912219038453,63.45751684298658,0.3018363276444013,120.32557122845456,615.3452690706054,1.274,1.0234837388140003,0.0,5.613547216485438,300.0001285565649,0.0932289644961702,4.9006179628107375e-06,-0.5869187106197027,0.0050905912635718,0.0577524429130293,8.63047453414701,17.882000207757276,31.70122270365188,30.9748361605818
0.91,31.22218925146315,131.0104468636894,15.788889616275029,8.295493663965305,-0.1183471536604217,20.97986268698389,-0.0989016297647361,-14.302298916167013,277.7421810230785,32.022379589888935,12.817573452938104,63.12122858172895,0.304101852784025,120.32810475575768,627.1311464092291,1.274,1.023436404813438,0.0,5.629220936842134,300.0001285565649,0.0941190042821826,5.149617361190924e-06,-0.601333037616541,0.0048835121775012,0.059734026125475,8.296331910802882,17.60114301537908,32.003789675682235,25.391340535396335
0.92,31.222188677209967,131.010448037799,16.051978775168525,7.986608574958723,-0.1196501343204069,24.95346970854344,-0.0926770007692223,-14.739761279088963,315.0281342480675,32.21310797912564,12.92819845857713,62.77668231467384,0.3059920990214428,120.33022439290232,634.6078669428954,1.274,1.0233859136578225,0.0,5.644848020415507,300.0001285565649,0.0946798672205343,5.404632112586806e-06,-0.6154481375528879,0.0046707829818848,0.0614987428973394,7.987498972863171,17.381875458037303,32.19431339363692,28.9818012222532
0.93,31.22218810024445,131.0104492172947,16.315470677619928,7.649017563936858,-0.1204854280604154,29.663430136031565,-0.0866247208216228,-15.230174081402454,359.16250706547066,32.497293051304105,13.083455668772272,62.42404951117712,0.3075160023192322,120.33193787807032,645.8379759705145,1.274,1.0233407575091376,0.0,5.660409595753096,300.0001285565649,0.0955154200110152,5.665592752411534e-06,-0.6291907212707017,0.0044532964044506,0.0634250260851735,7.64996078997198,17.116478965227525,32.478367258469625,33.34493655455512
0.94,31.222187513516,131.01045041643303,16.58242229325069,7.295580307676242,-0.1210054330122759,21.31278791978644,-0.0805114461539393,-15.74835973501264,283.06875048378083,32.83287675455496,13.264946606290913,62.06354364841498,0.3086841908763569,120.3332548144714,659.2284526636746,1.274,1.0232914783978162,0.0,5.675783581749862,300.0001285565649,0.0965020518566385,5.932277666657228e-06,-0.6425748367831772,0.0042305677934799,0.0654414140658031,7.296578315958718,16.829262218783832,32.81386927971503,26.500042365062814
0.95,31.222186918351937,131.01045163252135,16.8521545867793,6.972205416912783,-0.1219271039043639,27.66876589912744,-0.0736272942422824,-16.158483171957652,342.421873617488,33.02213676311515,13.379842222313156,61.69537013609448,0.3095068537434833,120.3341842614078,666.8331224629071,1.274,1.0232418269359267,0.0,5.691150365045512,300.0001285565649,0.0970586183060463,6.204487792957177e-06,-0.6555931679530052,0.0040023843847828,0.0671503629581533,6.973266174634274,16.61825045378743,33.00298451287538,32.04157620619831
0.96,31.22218632121717,131.0104528524897,17.12188724436494,6.614981545803111,-0.12222054702364,26.99055912659187,-0.0669967560649312,-16.652341924048233,337.09533515678265,33.348616589743195,13.561816213386974,61.319738562685714,0.3099941272069176,120.33473517539905,680.0662385231383,1.274,1.0231951201821403,0.0,5.70646943255148,300.0001285565649,0.0980185056697774,6.482149178189431e-06,-0.6681628334244084,0.0037699535749896,0.0691126682491765,6.61610552237706,16.344801838338995,33.32941824567065,31.714275367518475
0.97,31.22218571185949,131.010454097055,17.395879765159666,6.263375159441052,-0.1225283390580894,16.879941489967674,-0.0599844235357192,-17.107875270782124,245.0218871929888,33.63468081236223,13.726941327398404,60.93690602939338,0.3101579403400207,120.3349185445514,691.7652833337177,1.274,1.0231476260761452,0.0,5.721584687460754,300.0001285565649,0.0988596134188613,6.764959749741037e-06,-0.680308068871859,0.0035324835212306,0.0709706900105305,6.264568758581641,16.095860090797867,33.61543412054025,24.033631001503654
0.98,31.22218509698895,131.010455352652,17.671255128897506,5.936447436076255,-0.1232262214481185,24.879684306375044,-0.0523564815892921,-17.445787364711517,319.593746642963,33.77476658513885,13.823010456764203,60.547115717041855,0.3100092112909573,120.33474417557504,697.521130124477,1.274,1.0230935628253934,0.0,5.736737121904624,300.0001285565649,0.0992716643035848,7.052744884348484e-06,-0.6919856141291572,0.0032904618476675,0.0724876518109438,5.93772165795406,15.918727409564688,33.75541027045949,30.38678872735283
0.99,31.222184480286856,131.01045661184477,17.94652303443802,5.574665277507817,-0.1231735604716456,27.163372482712447,-0.0450128049024345,-17.891507886714763,341.66094855170127,34.08569750690245,14.004873537157442,60.150635593515446,0.3095595143359627,120.33422262259894,710.4042405862886,1.274,1.0230490803133316,0.0,5.751765543732004,300.00012855656485,0.1001858716531347,7.345392604273319e-06,-0.7031229290968747,0.0030451688775989,0.0743304177747356,5.576021590461635,15.668976376582158,34.066349464170806,32.52624917274603
1.0,31.222183850542404,131.0104578972739,18.22611086365117,5.211917083081255,-0.1230015792663504,24.06505445063025,-0.0374214264699294,-18.32031841021387,314.2672081822764,34.39229240610119,14.187369407580432,59.74777521084361,0.3088219138200375,120.33336618237622,723.2222210560922,1.274,1.022999484445133,0.0,5.766593013002574,300.0001285565649,0.1010873449815757,7.642515355938833e-06,-0.7137486888665885,0.0027955953729576,0.0761303653149129,5.21336429920486,15.427989946266662,34.372971378051766,30.245037819890044
1.01,31.22218321413108,131.01045919605775,18.50738624496388,4.856322310863221,-0.1228930887960531,25.10127023616524,-0.0294972857446919,-18.691836353788407,324.92031610370094,34.642772251082555,14.344092834986505,59.33882765699101,0.3078080485717554,120.33218551489564,733.7752473311917,1.274,1.0229507481225095,0.0,5.781460517102757,300.00012855656485,0.1018238895713513,7.943864512190464e-06,-0.7238329373379512,0.0025420114380416,0.0777661705766938,4.85787329133584,15.218093870756372,34.62346826463712,31.296315818889404
1.02,31.222182571703904,131.0104605068812,18.79007419956792,4.493955867428548,-0.122534386818428,20.58504625311064,-0.0214456546318916,-19.0699897713522,284.59063161543185,34.92561379805455,14.519610632753828,58.92410319097622,0.3065297056014332,120.33069148336364,745.7857545420993,1.274,1.0229039803623294,0.0,5.796228177139841,300.0001285565649,0.1026555600213365,8.249221338623233e-06,-0.7333330023267555,0.002285093075107,0.0794279254851696,4.495622672321407,15.001433722174363,34.90636615625477,28.06081073380248
1.03,31.22218192008416,131.01046183615577,19.07533141598616,4.139499519130239,-0.1222836968986572,16.397037537569414,-0.0131050763409332,-19.37542725755128,247.3046933904342,35.13725207913283,14.660831191546135,58.50393652356399,0.3049991993279246,120.32889560859005,754.830915257213,1.274,1.022853416101322,0.0,5.8108813767474246,300.0001285565649,0.1032779529885085,8.55827003686693e-06,-0.7422304785039738,0.0020248731229681,0.080876550954379,4.141302155699102,14.821484913046234,35.1180438155237,25.382478073745034
1.04,31.22218126383508,131.01046317466756,19.36138834526651,3.7877355825849457,-0.1220230948319474,26.951340865193888,-0.0045936108651508,-19.630155480154944,345.4656368807608,35.31026317950349,14.783829713337768,58.07867289279493,0.3032285641966974,120.32680912940184,762.2616445470097,1.274,1.0228049544826707,0.0,5.825481645290011,300.0001285565649,0.1037868147308323,8.870776744347818e-06,-0.7504834293615985,0.0017621718069618,0.0821762225560943,3.789697716449043,14.66420564337456,35.29109585107823,33.34243242038871
1.05,31.22218060211864,131.01046452410796,19.64853349026597,3.4144068875062263,-0.1210069776398318,15.37885940329922,0.0038658173961206,-20.00207456505428,240.4562587980608,35.66357938568454,15.004219822391368,57.6486815700502,0.3012303493516375,120.32444396036902,777.5709720546641,1.274,1.022755494436122,0.0,5.839940425734341,300.0001285565649,0.1048256502771533,9.186461710202865e-06,-0.7580619743562859,0.0014975883711335,0.0838343064643022,3.4165479280310183,14.443132213523915,35.644571668215626,25.230781168980485
1.06,31.22217992608984,131.010465902326,19.939879419593407,3.0638767846000543,-0.1206071229145128,22.621009997288223,0.0126606433063448,-20.178123441437886,308.1796836557233,35.792541543032826,15.107716992028273,57.214348958799626,0.2990172700199393,120.3218123046259,783.1827327983262,1.274,1.0227013895379469,0.0,5.8542757456086,300.0001285565649,0.1052050534922985,9.504810335484309e-06,-0.7649769041492372,0.0012300764005996,0.0849025712377198,3.066247407107502,14.318492201532862,35.77359663445767,30.312817737835058
1.07,31.222179252003777,131.01046727651527,20.22956921057071,2.6969259576138924,-0.1195056446433003,26.87536432040605,0.0214453174817367,-20.460552918688883,348.5093681440431,36.08929756303159,15.30355609564552,56.77605523134751,0.2966005131660867,120.31892461546448,796.2011543817162,1.274,1.0226540159946436,0.0,5.868643902782257,300.0001285565649,0.1060776555120779,9.825714322941748e-06,-0.7711660591226591,0.0009616557452369,0.0862967090783791,2.699570460447486,14.137682592746147,36.07052567387885,33.77750572488538
1.08,31.222178563066645,131.01046868056665,20.523487157720474,2.328543395662507,-0.1181745973516441,17.19871406284496,0.0303811051768377,-20.74180476706485,261.0015785751465,36.415102897668056,15.518374447497008,56.33421623232344,0.2939927782140817,120.31579327848688,810.6189788027096,1.274,1.0226061614050743,0.0,5.882757300185356,300.0001285565649,0.1070356535826046,1.014863475034754e-05,-0.7766345630562047,0.0006914081506805,0.0876907720718241,2.331538524545279,13.955986784219496,36.39654008848522,26.94474259335366
1.09,31.22217786536853,131.01047010218815,20.81938914370686,1.972638410212621,-0.117237699377024,15.48616458197286,0.0394307653998793,-20.86774379843485,246.54375332456465,36.57627362970143,15.644925331203506,55.88924482644666,0.2912053231788827,120.3124290448856,817.7871027746944,1.274,1.0225512795791307,0.0,5.896906473087311,300.0001285565649,0.1075097449704508,1.0473168415257844e-05,-0.7813602931037442,0.0004194754057956,0.0886123165808306,1.976117796180471,13.844842084211423,36.55785798779775,25.986257512045224
1.1,31.22217716592684,131.0104715272203,21.11488933234092,1.615077859622005,-0.1160797389778854,33.520012709436806,0.0485116748566382,-20.98536014565743,413.1890617384087,36.7616198210394,15.786716190533715,55.44156655012965,0.288249032263234,120.30884232513772,826.0727461178006,1.274,1.0224981043155532,0.0,5.910982245611679,300.0001285565649,0.1080548989299631,1.0799118359454188e-05,-0.7853043405937207,0.000147448154962,0.0895083612714513,1.6192428568195916,13.733929173017916,36.74338607075285,39.54717367734829
1.11,31.22217645777813,131.0104729697144,21.412299563877458,1.2452984607673403,-0.1139142867435517,23.669482680183688,0.0578458422594509,-21.29737920028841,324.1593910379213,37.22734209197713,16.08973246982014,54.99162925461324,0.2851356577446811,120.3050447207694,847.1116795212192,1.274,1.0224548851875197,0.0,5.92487434405872,300.0001285565649,0.1094241822534327,1.1126061450574945e-05,-0.7884526685029413,-0.0001244817370118,0.0910031070301841,1.2504969722982822,13.533307999769468,37.20944848944698,31.84063625761677
1.12,31.22217572958888,131.01047445253815,21.715186971867805,0.8885498596347208,-0.112348618386179,7.0186082454973855,0.0671493788260435,-21.39329791017349,172.7328179403806,37.45674636184575,16.261624165882886,54.53988884112164,0.2818764800206582,120.30104741124195,857.5591300951822,1.274,1.0223979224661404,0.0,5.938695129345853,300.0001285565649,0.1100988579624325,1.1453250439510772e-05,-0.7907993074479628,-0.0003979769609228,0.091833737244529,0.8956238346565908,13.427252526684027,37.43909869344666,22.515296272007483
1.13,31.22217500204929,131.01047593394387,22.0167951071199,0.5387509695162541,-0.1112362914264307,28.14751341697417,0.0762078853836866,-21.30122899877747,367.5328077894322,37.487200205097366,16.320157332433016,54.086804571245565,0.2784808016815417,120.29685926359272,858.9292740233661,1.274,1.0223460397860296,0.0,5.952608638519889,300.0001285565649,0.1101887477906036,1.178055077575058e-05,-0.7923096867872583,-0.0006708987397402,0.09208127372415,0.5501143108584571,13.399543968228896,37.469727260275945,35.29915970754678
1.14,31.22217427404736,131.01047741617614,22.317566585973527,0.1821596437070306,-0.108804767113958,14.063868469998912,0.0857747597149103,-21.4969484707082,239.6953177322812,37.919093639512695,16.61486759642185,53.63285555074562,0.2749591369002058,120.29249079705892,878.8094999931458,1.274,1.0223022138470996,0.0,5.966305945280812,300.0001285565649,0.1114586206452048,1.2107790795643249e-05,-0.79296925542625,-0.0009413989382585,0.0932169948214386,0.2121805204429106,13.24434594872145,37.90200263693294,25.688879835506985
1.15,31.222173520876105,131.01047894909038,22.625087142643714,-0.1665862345683523,-0.1071542264881766,13.696808526863164,0.0948964752038108,-21.410933003892048,237.4125115347709,38.0353997932253,16.726894072964924,53.17852926440393,0.2713227853530569,120.28795370289453,884.1826523371352,1.274,1.0222426194541194,0.0,5.979813690580247,300.00012855656485,0.1118008765864223,1.2434010085400564e-05,-0.7927613118626581,-0.0012119424149571,0.0934756309726563,0.1980731416622354,13.20642665664643,38.01856805650034,25.41730948113335
1.16,31.222172774579544,131.01048046802677,22.92941167107995,-0.5130857388097487,-0.1051789148511474,41.16759708362891,0.1040503772155066,-21.34561829175255,490.043774385954,38.21801666247234,16.87985979001026,52.724322659636414,0.2675804910584724,120.2832566120142,892.667276690115,1.274,1.02219674531104,0.0,5.993470731184044,300.0001285565649,0.1123380445881796,1.2759174540990796e-05,-0.7916782110377698,-0.0014798625422745,0.0937933645183093,0.5237549844958508,13.155837790565128,38.201495206441066,46.37259208172659
