Time,Latitude,Longitude,Altitude,Angle of Attack,Angle of Sideslip,X-Acceleration,Y-Acceleration,Z-Acceleration,Thrust,True Velocity,Ground Velocity,Pitch,Roll,Yaw,Dynamic Pressure,cp,parachute_deploy_gain,Wind Speed,Mach,omega_x,omega_y,omega_z,Cmq,Angle of Attack(total),Angle of Attack(gust),True Velocity(gust),Acceleration
0.0,31.222216000000007,131.010392,3.000000004412624,0.0,0.0,0.0,0.0,0.0,2.2828121974499247,0.0,0.0,71.99999999612658,-1.0292491154817412e-14,119.99999999354436,0.0,15.288,0.0,0.0,0.0,0.0,0.0,0.0,-0.0,0.0,90.0,0.0,0.0
0.01,31.22221599999862,131.01039200000284,3.0000009727369523,0.0,0.0,0.0,0.0,0.0,34.24218696174923,5.916279387578309e-11,5.734623670548936e-11,71.99999999613168,-5.86671995824671e-13,119.9999999935449,2.1432944861733093e-21,15.288,0.0,0.0,1.7386402909615473e-13,-3.4220131069073734e-19,7.115076756936125e-19,5.488773498207866e-19,-1.1574302492039043e-31,0.0,89.99999999962336,5.916279387578309e-11,0.0
0.02,31.22221599999738,131.01039200000537,3.0000018317022668,0.0,0.0,0.0,0.0,0.0,25.871876237766408,1.2265415415436536e-10,1.1895038237325684e-10,71.9999999961369,-1.1836364828043265e-12,119.99999999354544,9.211895886571454e-21,15.288,0.0,0.0,3.6044858651615574e-13,-6.979551485375437e-19,1.4162390878091906e-18,1.0909784360635388e-18,-4.776231873571785e-31,0.0,89.99999999921916,1.2265415415436536e-10,0.0
0.03,31.22221599921969,131.01039200159065,3.0001883335529382,18.80143492628821,-0.0001350810307892,10.931161642028636,-1.75114298675875e-05,3.026590975169265,180.34219359854663,0.0798232026864394,0.0478175828508887,71.99999999765336,-5.341802909786072e-12,119.99999999436793,0.0039016003969354,15.288,0.0,0.0,0.0002345795854893,3.788270153300133e-17,-7.771883375645477e-10,1.1422790048099072e-11,1.7057759223764537e-13,18.80143492675591,89.51882325913425,0.079801984207741,11.342422482672777
0.04,31.222215995131297,131.01039200995308,3.001692634342189,9.19442604083399,-4.49173898918486e-05,52.29595764159784,6.445392950801871e-06,3.026413589912948,548.6359724538078,0.3504174083926908,0.1601447499964056,72.00000000319055,-3.111420077280171e-11,119.99999999870242,0.0751892535633216,15.288,0.0,0.0,0.0010297854387864,2.0082066977226968e-15,-1.520937588847922e-08,2.5623342884322286e-11,1.4654248781413086e-11,9.19442604094277,87.798916624545,0.3504103527855857,52.383455068075136
0.05,31.222215983575865,131.01039203366796,3.0074067499493786,5.158590039700252,1.707592688632746e-06,76.26884281015512,5.843947534199429e-05,3.0258124765658088,761.6984298824644,0.9592973585397016,0.3772700771701255,72.0000000004862,-1.3608731808076822e-10,120.0000000109612,0.5634958029902841,15.288,0.0,0.0,0.0028191251099456,2.086299069701397e-14,-1.0551247853743037e-07,3.973493515691201e-11,2.783064866637575e-10,5.158590039700515,83.94063169874748,0.959297626767734,76.32884071402438
0.06,31.222215961742712,131.0103920785344,3.019291017943491,4.109521257467909,3.140103977270004e-05,57.06876634333886,0.0001151069734147,3.024834864051463,590.4875390737208,1.6257536642597354,0.6118982818704327,71.99999992547217,-3.5903296759057166e-10,120.00000003412836,1.6184272268450337,15.288,0.0,0.0,0.0047776672697797,1.0694899894620088e-13,-3.741090980393931e-07,5.521401959501359e-11,1.6723176417636091e-09,4.109521257587776,79.78719176344794,1.6257585967235286,57.148873286519276
0.07,31.222215929936205,131.01039214392435,3.0371334573469446,3.649087515174788,5.707077112564807e-05,86.89643797254193,0.0001728541558773,3.0234947746384675,855.2937749779139,2.3057260079826607,0.8506307413593818,71.99999965378231,-6.907496536790437e-10,120.00000006788592,3.255354923652711,15.288,0.0,0.0,0.0067759305364855,3.495199904512709e-13,-9.036515915819006e-07,7.594816279105379e-11,5.728932851326001e-09,3.6490875156204896,75.6601668283889,2.305734972638426,86.94902215090157
0.08,31.222215886364623,131.01039223353447,3.0621840248716574,3.4254446680114707,8.413075603463509e-05,17.831756866644035,0.0002285946601282,3.021841001032126,241.2171988638848,2.961944911520492,1.0819695676346892,71.99999900671328,-1.141745983122182e-09,120.00000011415082,5.371998197385977,15.288,0.0,0.0,0.0087043901031071,8.800530155962314e-13,-1.829098470920821e-06,1.0943386634701918e-10,1.4896287129277132e-08,3.4254446690434226,71.81713637501419,2.9619581267487467,18.085991154451033
0.09,31.22221583454733,131.01039234010327,3.0919888289029,3.389560809024919,0.0001118726864415,54.09031716446879,0.0002748660999733,3.020060228038602,563.0937377043176,3.504225426410036,1.2780161667917422,71.99999774508822,-1.634190085504106e-09,120.00000016921716,7.519080503822694,15.288,0.0,0.0,0.0102980157586766,1.865782139518716e-12,-3.1503298654458527e-06,1.6284478329871028e-10,3.03536411425607e-08,3.389560810868955,68.76526501308032,3.504242999330529,54.17456206384468
0.1,31.22221577423132,131.0103924641528,3.1267248829165366,3.4447939461814814,0.0001419149103147,51.372195336549765,0.0003131602029306,3.0182021883815127,538.7437595981919,3.950569597142709,1.4443465951180965,71.99999562056465,-2.1287748602259068e-09,120.00000023339832,9.55649523509932,15.288,0.0,0.0,0.0116097108366932,3.485956000178229e-12,-4.949356763187612e-06,2.4573266549165286e-10,5.3761299442583966e-08,3.444793949101151,66.34639928474206,3.9505918890846927,51.460781166288626
0.11,31.222215706113143,131.01039260424562,3.165907002780892,3.4691423802630394,0.0001702373452339,40.591037561894986,0.0003534470100582,3.016051659024047,442.8656393052949,4.421478635995476,1.6182620895289603,71.99999235067894,-2.5564479031457968e-09,120.00000030601664,11.970509656144712,15.288,0.0,0.0,0.0129935974697161,5.942887149865172e-12,-7.273722517324353e-06,3.67769289312894e-10,8.842679949465076e-08,3.4691423844348632,63.88798785789768,4.421505376815134,40.70293476011277
0.12,31.222215630588888,131.0103927595646,3.2092596514826863,3.4852659299808075,0.0001974376474727,44.30042894095728,0.000394069215595,3.013641598889868,475.58594813540446,4.896982486381051,1.793579340340896,71.99998761802138,-2.8337988279882726e-09,120.00000038673312,14.683611096353944,15.288,0.0,0.0,0.0143909889875706,9.464337642181618e-12,-1.017558359402848e-05,5.395790443954697e-10,1.3700793350599625e-07,3.4852659355662303,61.5068242157714,4.897013499814194,44.40281567867803
0.13,31.222215548046687,131.0103929293088,3.256512891171917,3.5606043721293616,0.0002276507019012,48.86766833507025,0.0004268800875964,3.0112558910133567,515.9156326236895,5.278566579338586,1.939796541405244,71.99998107389406,-2.8573058577484587e-09,120.00000047523812,17.061052093156064,15.288,0.0,0.0,0.0155123760833565,1.4300406003001044e-11,-1.3705268062305584e-05,7.724776992181392e-10,1.989112774124932e-07,3.560604379397528,59.67313531776262,5.27860233862722,48.960358155653
0.14,31.222215458587108,131.01039311327068,3.30759734332425,3.6000732663755977,0.0002555702913645,45.540290862247225,0.0004629468001456,3.0085404980032777,486.2390860568404,5.70011779273801,2.098362647205908,71.99997235012626,-2.508533681468686e-09,120.00000057154703,19.894788765881632,15.288,0.0,0.0,0.0167512184495524,2.071534240530911e-11,-1.7917736259613292e-05,1.0787346240473087e-09,2.8081526258393346e-07,3.6000732754351943,57.72385750323359,5.700157937625502,45.639559681930805
0.15,31.222215362317904,131.01039331122794,3.3624387479639086,3.651605404442164,0.0002842753491325,44.01308509501,0.0004965057129938,3.005703619811542,472.54218587214,6.091938849578711,2.2476968067377374,71.99996103728932,-1.6446954747148112e-09,120.00000067569304,22.723773683610247,15.288,0.0,0.0,0.0179026934683374,2.9002783512213203e-11,-2.287326399669318e-05,1.47199345427166e-09,3.831202693354572e-07,3.651605415492516,55.98561718911576,6.091983503446133,44.115597174664394
0.16,31.22221525912812,131.01039352340948,3.421115382839859,3.67540086436193,0.0003108411545024,34.83804992586084,0.0005330990866742,3.002517946501868,391.1218908297564,6.521183188362317,2.4085903880902046,71.99994669525161,-1.0153513453738144e-10,120.00000078796704,26.03872642002185,15.288,0.0,0.0,0.019164148528834,3.9478358970291335e-11,-2.864207894220033e-05,1.9677461746207517e-09,5.135466997084602e-07,3.6754008774883777,54.15946979122355,6.521232015176687,34.96719658394182
0.17,31.2222151493826,131.01039374906244,3.4833737923187487,3.7139589864597298,0.0003384978477213,43.96471427482637,0.0005668629535037,2.999235483723449,471.78125980632376,6.916861975403744,2.559060925010733,71.99992884100092,2.3206494032971838e-09,120.0000009081849,29.29426197817256,15.288,0.0,0.0,0.0203269651395979,5.248754693205839e-11,-3.5267097947693114e-05,2.580363454062817e-09,6.706952682968329e-07,3.713959001863866,52.549031795895466,6.916915146521327,44.06689817851128
0.18,31.22221503253009,131.01039398932429,3.549599475912623,3.7380363034619775,0.0003650282082698,36.67395661481795,0.0006021794701355,2.9956556354306425,407.10156721191447,7.332140201215607,2.71556808256092,71.99990696207136,5.837017536380516e-09,120.00000103716444,32.917216366714264,15.288,0.0,0.0,0.0215473823438242,6.839750892601699e-11,-4.285557247677198e-05,3.331016495775474e-09,8.639362741436378e-07,3.738036321259578,50.93050624815799,7.332197539712479,36.796100973258795
0.19,31.22221490871209,131.01039424390297,3.619694897703461,3.747799769666444,0.0003901520189829,41.42208371271829,0.0006393759928961,2.991742733214697,448.9531328318269,7.771071983754382,2.879366399937307,71.99988049019642,1.0709144790974043e-08,120.00000117502664,36.97605053227239,15.288,0.0,0.0,0.0228373144884866,8.761416506509219e-11,-5.146771415177372e-05,4.238406957677133e-09,1.0996552116864756e-06,3.747799789945131,49.29705748437159,7.771133268690212,41.529983675580546
0.2,31.22221477769685,131.01039451327668,3.693822889232993,3.7700519460961166,0.0004166800650969,37.99697972290605,0.0006740224661302,2.987733789228414,418.51563019916136,8.179966026035371,3.0338260708461373,71.99984881140107,1.723179577184912e-08,120.0000013223286,40.969302182777255,15.288,0.0,0.0,0.024038975990988,1.1057590044953188e-10,-6.120032215177249e-05,5.3263847350253015e-09,1.376394225587184e-06,3.7700519690893857,47.8457752505109,8.180031477986942,38.11426270718793
0.21,31.222214639876928,131.01039479663547,3.771710975053407,3.7926098867321474,0.0004432924407074,36.46301043881366,0.0007080907240332,2.983530483977461,404.8187610144644,8.582757448615462,3.1863584283669346,71.99981127559042,2.5745201416596626e-08,120.00000147900325,45.103059028532826,15.288,0.0,0.0,0.0252227064089584,1.3774582723633048e-10,-7.20875523136271e-05,6.61341033873124e-09,1.7010673350603349e-06,3.792609912601061,46.47936953648762,8.582827080829217,36.584868250565684
0.22,31.22221449507626,131.01039509434258,3.8534832466471007,3.782921298925821,0.0004660920499522,44.14577847155813,0.0007479176313898,2.978724032883548,472.5421858721365,9.056569122268344,3.360845972992861,71.99976720416048,3.661811567390422e-08,120.00000164562512,50.21995530074818,15.288,0.0,0.0,0.0266151520780326,1.6960703048385348e-10,-8.421592474264931e-05,8.124635526119773e-09,2.0969540034515424e-06,3.7829213275976334,44.9464484092354,9.056642335836344,44.24615863872642
0.23,31.22221434283448,131.01039540734791,3.9394622486964206,3.813874679301352,0.0004940771488601,36.66675459308932,0.000779455230549,2.974212905336642,406.3406421461021,9.430647902846331,3.5044030163419806,71.99971583979395,5.0272885112871524e-08,120.00000182313076,54.45382429059888,15.288,0.0,0.0,0.0277145095638672,2.0669790509245914e-10,-9.77285871729516e-05,9.894576563683824e-09,2.5339062472561444e-06,3.813874711257219,43.79476959007253,9.430725512303388,36.78718303164376
0.24,31.222214184153326,131.01039573358457,4.028950821673608,3.829256049377765,0.0005200487408944,37.802126339316736,0.0008136255607606,2.9692962675112065,416.2328240017114,9.837806876534357,3.658163422426286,71.9996564062533,6.718950080713476e-08,120.0000020109434,59.25679777340223,15.288,0.0,0.0,0.0289110855155543,2.4956955046738006e-10,-0.0001125744417092,1.1934277804843484e-08,3.0448209172448607e-06,3.829256084638984,42.59361542722471,9.83788856559955,37.91856374864305
0.25,31.22221401888584,131.01039607335582,4.122052964664892,3.851417709838087,0.0005469594058717,38.85163035360012,0.0008459008130282,2.964283881833675,425.36408079150686,10.22297576958679,3.8050691648373967,71.99958811418384,8.786880969336211e-08,120.00000220974424,63.98709205399403,15.288,0.0,0.0,0.0300430411774988,2.987811646313829e-10,-0.0001288461362054,1.4273117985167728e-08,3.621333387698252e-06,3.8514177486178034,41.50703126619192,10.223061685769354,38.96455005232871
0.26,31.222213847358866,131.0103964259872,4.218542267117083,3.8780574625554745,0.0005745172425185,42.3164797140743,0.0008766626387865,2.959162938653076,455.8015834241788,10.590779679138215,3.946551912391076,71.99951013710364,1.1286401474734325e-07,120.00000241975916,68.67355887153568,15.288,0.0,0.0,0.0311239685467471,3.5491769188178554e-10,-0.0001465721578858,1.6932703957058654e-08,4.267712643344226e-06,3.8780575050466,40.51245375834074,10.590869924095635,42.41981967733593
0.27,31.22221366913008,131.0103967923915,4.318728802515264,3.886188503202341,0.0005994342651313,38.70936050721014,0.0009111181036949,2.953518013741325,423.84219965987256,11.004860953238978,4.102320296019413,71.99942161756776,1.4276417094868828e-07,120.0000026420792,74.14786134434608,15.288,0.0,0.0,0.0323408987462391,4.1858405402174807e-10,-0.0001658847815307,1.995072923688136e-08,5.018832267232506e-06,3.886188549362022,39.43841359495857,11.00495511215316,38.8218734782956
0.28,31.22221348431185,131.01039717233687,4.422535913956003,3.90556090261878,0.0006261175699806,44.68030766832924,0.0009425767186621,2.947879457547137,476.3468732012221,11.38358114165448,4.247086834352694,71.999321619057,1.7823531611327881e-07,120.000002877279,79.33831935330025,15.288,0.0,0.0,0.033453914386159,4.904408325040897e-10,-0.0001868529238516,2.3357766479368094e-08,5.847713054408178e-06,3.9055609527288775,38.49894431917428,11.383679491972384,44.77744842575601
0.29,31.222213292835256,131.0103975659655,4.530013412817602,3.9242599519377537,0.0006528240665589,35.802573724660256,0.0009737210635801,2.942037024315898,397.97031042211177,11.759725774384751,4.391004157029451,71.99920917567837,2.1999186079018322e-07,120.00000312617878,84.66717879828003,15.288,0.0,0.0,0.0345593650464213,5.711677680739745e-10,-0.0002095620322847,2.7188189988316943e-08,6.77505090435382e-06,3.9242600061534456,37.60352534239979,11.759828319749328,35.92324968749781
0.3,31.222213095024976,131.0103979726075,4.64093665799555,3.936939025755682,0.0006785438093183,33.570228713727204,0.0010059102294455,2.93586442972183,378.1859457108711,12.149968255527943,4.539237002744259,71.99908328532703,2.6880857935396905e-07,120.00000338923812,90.3787563598417,15.288,0.0,0.0,0.0357062504417728,6.614698865958865e-10,-0.0002340353597042,3.1467140861055e-08,7.817263716758327e-06,3.9369390841381695,36.71173884615234,12.150074840940263,33.698361337808635
0.31,31.22221289105846,131.01039839189684,4.755183729044857,3.9598342215431432,0.0007060286581592,35.396825578217346,0.0010350810412898,2.9297385597941448,394.1656220930212,12.504537499407316,4.6763673222047455,71.99894291513503,3.255120771695107e-07,120.00000366712923,95.72967338626896,15.288,0.0,0.0,0.0367483036680869,7.620720834468404e-10,-0.0002603234137215,3.622454560346964e-08,8.948994505138873e-06,3.9598342843844345,35.934338386209795,12.504648402129598,35.5178635353378
0.32,31.222212681031937,131.01039882363492,4.872689374180126,3.985461429033668,0.0007340760463279,38.52097867048992,0.0010630242168685,2.9235095146848846,421.55939346242695,12.84534566718622,4.809181081594425,71.99878701464397,3.909756427278764e-07,120.0000039606604,101.01782231644016,15.288,0.0,0.0,0.0377499198995686,8.737098716736534e-10,-0.0002884807530145,4.1491545539590986e-08,1.0187112828155184e-05,3.98546149652875,35.21473736963424,12.845460975581933,38.631757748577954
0.33,31.22221246496604,131.01039926777932,4.9934410812554,4.010606629086,0.0007621365968788,38.18822026147908,0.0010905599149574,2.917102431053817,418.5156301991682,13.18247167592885,4.940798912752974,71.99861449732019,4.661299779655886e-07,120.000004270781,106.38859400029033,15.288,0.0,0.0,0.0387407190563976,9.971421990244511e-10,-0.0003185760672934,4.7302669734505256e-08,1.154498667827874e-05,4.010606701382261,34.52805863348922,13.182591392065536,38.299473293007864
0.34,31.222212242662028,131.01039972474007,5.117579377337869,4.019339771238816,0.0007871574969313,29.898022638335373,0.0011220389395318,2.910051232417875,345.46563688075645,13.569536737955724,5.0878303926024735,71.99842423285973,5.519675040347761e-07,120.0000045987411,112.72655675097128,15.288,0.0,0.0,0.0398782837956187,1.1331556132162459e-09,-0.0003507224668667,5.37022358302301e-08,1.308298593306914e-05,4.019339848191799,33.76700548046532,13.5696603843662,30.039310197084795
0.35,31.22221201433324,131.01040019407705,5.2449575244483055,4.033762873683395,0.000813261106463,32.76415525156106,0.0011515840876071,2.902959820469776,370.5765700527033,13.934300103976534,5.227895396154902,71.99821502296155,6.495674834876441e-07,120.000004945438,118.8669740701126,15.288,0.0,0.0,0.040950312688979,1.2825853697215452e-09,-0.0003849609961885,6.072234695821837e-08,1.4746020857580124e-05,4.033762955530055,33.07785186209504,13.934427850732408,32.89250745069162
0.36,31.22221177990305,131.01040067594835,5.375631006350063,4.051723629010647,0.0008401329464575,37.01692984301412,0.0011797030485285,2.8957873473716007,407.8625232777193,14.282998147928636,5.362923567977223,71.9979856440668,7.600645476620651e-07,120.00000531213882,124.88900300695136,15.288,0.0,0.0,0.0419751331662584,1.4462801652534363e-09,-0.0004213876232777,6.84067806399068e-08,1.654507199147348e-05,4.051723715967022,32.44322602189087,14.283130115703262,37.13002398000203
0.37,31.222211539445663,131.01040117020102,5.509550188388412,4.071639898917391,0.0008674922629137,35.12417761390579,0.0012067983861697,2.88849906286036,391.1218908297666,14.620581431527652,5.494447309446232,71.99773482653193,8.846681943540367e-07,120.00000570002652,130.86067091914967,15.288,0.0,0.0,0.0429672939311924,1.6251202388969355e-09,-0.0004600660652957,7.679415042686734e-08,1.849041957573993e-05,4.071639991174516,31.85023865502424,14.620717696893658,35.24274792557624
0.38,31.222211292895075,131.01040167697127,5.646763233102716,4.08264881385344,0.0008930259828975,36.695642158537446,0.0012360471443664,2.880711738179021,404.8187610144602,14.986392916850402,5.634654729559426,71.99746126698146,1.0246533537040716e-06,120.0000061105033,137.4891296153862,15.288,0.0,0.0,0.0440424171304414,1.8200057922063743e-09,-0.0005010869196581,8.592980519823866e-08,2.0642694281337543e-05,4.082648911356968,31.228847973200924,14.986533193043764,36.808540518115166
0.39,31.22221104018777,131.0104021963902,5.787316652586672,4.096641430700089,0.0009192713382325,31.335681548387896,0.0012640110027448,2.872831219844713,357.64062493382744,15.337978856701952,5.770390286512262,71.99716358743511,1.1813915463769678e-06,120.00000654506955,144.01394309468844,15.288,0.0,0.0,0.0450757388736732,2.031886352449547e-09,-0.00054455673306,9.586443829735616e-08,2.295945663566148e-05,4.096641533664766,30.65298398882095,15.338123255506089,31.4670954954126
0.4,31.222210781536543,131.01040272801887,5.931064331106764,4.109028969993624,0.0009451871856381,29.95928076777898,0.0012920492774571,2.8646905607053603,345.465636880754,15.692185018814769,5.906873567965718,71.99684037970908,1.3563276523471372e-06,120.00000700500496,150.74021066990193,15.288,0.0,0.0,0.0461167659598875,2.2617341782092324e-09,-0.0005905037520737,1.0663253249436129e-07,2.5471259834659164e-05,4.1090290785164525,30.09246700352443,15.692333488470696,30.095929256306363
0.41,31.222210517064383,131.01040327160345,6.077922766619747,4.122888296344507,0.0009714525997821,33.78425365340317,0.0013192264430821,2.85640971467756,378.94687077668647,16.03742529732769,6.0405139809190125,71.99649020751959,1.5509747261474075e-06,120.0000074917568,157.44375780268788,15.288,0.0,0.0,0.0471314487675864,2.5105374204052982e-09,-0.0006389770219162,1.1827345344180344e-07,2.816813594418537e-05,4.122888410595805,29.56469007160549,16.037577892745222,33.904791300285986
0.42,31.22221024682894,131.0104038270252,6.227854084363214,4.14444025865494,0.0009995884754813,38.04468161607466,0.0013435485656724,2.8482703202464488,416.2328240017114,16.348862540904037,6.163613566771559,71.99611159893284,1.766920641656551e-06,120.00000800692096,163.6157044470786,15.288,0.0,0.0,0.0480467946810589,2.779304965995011e-09,-0.0006900467934588,1.308321832549104e-07,3.100973487310896e-05,4.144440378988911,29.104646754454564,16.34901955589459,38.15115260238947
0.43,31.222209970843565,131.0104043942566,6.380851271439565,4.1618082623168045,0.0010268052928652,33.45815353250911,0.0013687230309017,2.8397750580998298,375.9031395134336,16.67263197205097,6.290467308135904,71.99570306121484,2.005818691215035e-06,120.00000855220898,170.15779512382937,15.288,0.0,0.0,0.0489983878509763,3.0690566816849196e-09,-0.0007437862329608,1.443552931671376e-07,3.4086145072160934e-05,4.161808388761201,28.640125213458976,16.672793262249197,33.57845085853367
0.44,31.22220968892116,131.01040497368373,6.537047157143216,4.164954087655709,0.0010505545842624,30.86574023822051,0.0013980747538988,2.830419582421933,353.0750125389216,17.050421620730056,6.433992917638883,71.99526304125902,2.269416145406482e-06,120.00000912964636,177.9537948947602,15.288,0.0,0.0,0.050108743779844,3.380847125286677e-09,-0.0008003278134917,1.589055036683518e-07,3.750784460406397e-05,4.164954219916419,28.113519280259386,17.050586641458253,30.99524475496968
0.45,31.22220940081287,131.01040556582012,6.696617751072218,4.165241899529329,0.0010735835484822,35.912216710755274,0.0014280646808282,2.820677244966047,397.2093853562869,17.438293672974723,6.580571293039616,71.99478987454265,2.5595995397253085e-06,120.00000974147088,186.13940823302417,15.288,0.0,0.0,0.0512487363629523,3.7158016249566814e-09,-0.000859850913876,1.745604864109677e-07,4.121350642664912e-05,4.1652420376426775,27.591357195572936,17.43846231108416,36.02281959036367
0.46,31.222209106468902,131.0104061707686,6.859600379555308,4.174585124444534,0.0010989881252456,41.916816790010685,0.0014546917035209,2.811153314474766,449.7140588976434,17.786187321601275,6.714685486378061,71.99428180697711,2.8783880229668832e-06,120.0000103898448,193.6374175079873,15.288,0.0,0.0,0.0522712438446989,4.0751091178509895e-09,-0.0009224765531151,1.9138630415982226e-07,4.50966024037632e-05,4.1745852688465686,27.13985967570823,17.786359950252297,42.01097612387663
0.47,31.22220880579083,131.01040678873238,7.026066274755745,4.1823089530633855,0.0011240727220223,28.37640408484148,0.0014814747534716,2.801325368441072,331.0078106302534,18.138167428286582,6.849989708801916,71.99373704967608,3.2278903746588286e-06,120.00001107707628,201.37401505997488,15.288,0.0,0.0,0.0533057667609836,4.459978104761035e-09,-0.0009883252835099,2.094509673354327e-07,4.927107017839778e-05,4.182309103852639,26.69716826759888,18.13834399721685,28.514342615617974
0.48,31.222208499300592,131.0104074186346,7.195654207463586,4.189479568102716,0.0011490100608361,27.95074823096412,0.0015080719422187,2.7912412472910484,327.2031223011574,18.48995085190441,6.98515976370584,71.99315377257649,3.6103201777021456e-06,120.00001180491516,209.25751230436188,15.288,0.0,0.0,0.0543397174489847,4.8716620260348906e-09,-0.0010573190976925,2.2877013380347535e-07,5.373205427420879e-05,4.189479725385959,26.268461765425428,18.4901313379827,28.089773168283216
0.49,31.222208187201936,131.01040806005494,7.368224738812109,4.202723284133339,0.001175611380853,35.08821363242469,0.0015321405723077,2.781292092003844,389.60000969812296,18.812014261754847,7.111044804193205,71.99253015042137,4.027946338669921e-06,120.0000125755114,216.60722913930897,15.288,0.0,0.0,0.0552863302793499,5.311396446020465e-09,-0.0011294854492155,2.4938633613154685e-07,5.8398320167141767e-05,4.202723448262914,25.88860807032205,18.81219892635871,35.1982716047702
0.5,31.22220786953184,131.01040871291724,7.5437546994244835,4.220815778795054,0.0012036252596423,36.05491615971072,0.0015540388599792,2.7714444106710974,397.97031042210494,19.10875420627192,7.229005658018125,71.99186435180009,4.483102820610566e-06,120.00001339126192,223.4908652241728,15.288,0.0,0.0,0.0561585257949344,5.7804122391526605e-09,-0.0012048912160576,2.713531252030471e-07,6.327866493526626e-05,4.220815950099865,25.54902500917784,19.108943271285572,36.161276053538906
0.51,31.222207546379583,131.0104093770373,7.722184419225251,4.232567510615346,0.0012298790840397,27.54004661432325,0.0015777580800203,2.761017323676155,323.3984349720841,19.430597746636646,7.354673636736509,71.99115452520388,4.978202222778502e-06,120.00001425458936,231.07869697977367,15.288,0.0,0.0,0.0571045034845869,6.2799518101633574e-09,-0.0012835871653678,2.947201005874635e-07,6.854585242460463e-05,4.232567688976395,25.189423168613605,19.430790935591396,27.678103017910345
0.52,31.222207217732127,131.010410052319,7.903532447856861,11.009068497714104,-7.257559072054862,33.277005964818294,0.4856449447919574,2.284202475854688,372.0984511843415,21.08626181365438,7.480074123830101,71.9903817626259,-1.6675607140819596e-05,119.99999183343412,272.1317499986497,15.288,0.0,3.7714363784034513,0.0619704545512272,6.8160805809870705e-09,-0.0014695734447136,-7.732176641535718e-05,8.51633982028137e-05,13.161354498403458,18.92794178098682,19.949293218191137,33.35884527296554
0.53,31.222206883269315,131.01041073861958,8.08792743629716,10.924925265787325,-7.1600417993572165,34.94241174711608,0.4977004844029783,2.261437239253857,386.5562464348624,21.414809283366928,7.6031295975349105,71.98947786924018,-0.0002829644681256,119.99971217841671,280.673078337996,15.288,0.0,3.7859472741305527,0.0629361542446916,7.370118012201875e-09,-0.0017136049393731,-0.0002420062466422,0.0001008507933611,13.03827963893774,18.711408958459455,20.293037581555904,35.01905114168936
0.54,31.22220654285689,131.0104114361039,8.275445239326078,10.84365545970328,-7.065702727427178,30.68744858891196,0.5098945837350372,2.2383035324035525,349.2703242098436,21.74151306440151,7.725424658530145,71.9884321837228,-0.0008426977232369,119.99912396243188,289.2970770565569,15.288,0.0,3.800426545601733,0.0638964417643219,7.935044500444031e-09,-0.0019653634833287,-0.0004108329424285,0.0001174300458083,12.919400983515075,18.501549972777077,20.63444606475605,30.773194440727263
0.55,31.222206196790587,131.0104121441438,8.465880618511173,10.767919393617817,-6.976149354451384,32.527069173614464,0.5220878131425413,2.215022281094632,365.2500005919907,22.06071369213535,7.845175537592131,71.9872403178343,-0.001702988206459,119.99821970160302,297.848687915316,15.288,0.0,3.81485628255066,0.0648346843103859,8.511778940149983e-09,-0.0022246594758004,-0.0005836347606183,0.000134871983215,12.80780485871509,18.30222812090677,20.967608221578885,32.606581059894616
0.56,31.222205845071294,131.01041286272005,8.659233948964948,10.699517701970132,-6.892426204867983,30.359465525829705,0.5341683135583645,2.1917754525496647,346.2265619465787,22.368055238159275,7.961004610745158,71.98589790206343,-0.0028708164005607,119.99699205059471,306.19984365166647,15.288,0.0,3.8292354989070727,0.0657380800784107,9.101240678688425e-09,-0.0024916469390047,-0.0007604703703421,0.0001531599826995,12.705557355049292,18.11603791002857,21.2880047705375,30.443166103998635
0.57,31.22220548777589,131.01041359165703,8.855452638885124,10.628654319501075,-6.808278399755458,30.020891804601696,0.5466117425827559,2.1677970724756728,343.1828296833023,22.682986233342668,8.079082450590814,71.9844005293807,-0.0043531418991379,119.9954336849402,314.8768899153917,15.288,0.0,3.8435572244468448,0.0666637868278804,9.704380039111213e-09,-0.0027663669455734,-0.0009413246059845,0.0001724377754318,12.60109234208018,17.928735549487826,21.616059309147104,30.104020882403148
0.58,31.222205124881224,131.01041433098584,9.054553906391988,10.5491411590846,-6.719837742975181,39.53462609920498,0.5597674700441658,2.142512994287121,426.1250058573153,23.01901161890097,8.203685124227054,71.98274372180553,-0.0061569686096198,119.9935372325946,324.26895358127666,15.288,0.0,3.857820883132156,0.067651495022418,1.03221676422968e-08,-0.0030489833578884,-0.001126261498771,0.0001928660645101,12.487142327168527,17.731283456743405,21.96588022360289,39.596595337922025
0.59,31.22220475596063,131.0104150815693,9.256836133636224,10.484015203430818,-6.641474590766447,32.046907564557664,0.5724232546580066,2.117891390735609,360.68438819711065,23.327321731072605,8.31933506016256,71.98092273283788,-0.0082897314684631,119.99129486752535,333.0069891699719,15.288,0.0,3.8720479287322287,0.0685577564047307,1.0955586699516246e-08,-0.0033402085134849,-0.0013156942551089,0.000214113531608,12.3907195967036,17.55709445971486,22.286416009928967,32.1219148989709
0.6,31.22220438123833,131.01041584292744,9.46214420972344,10.402545214668526,-6.554031390756862,28.480799119118096,0.5862499597623732,2.091202627964652,329.4859594986058,23.67413036402929,8.447012135482801,71.97893272294178,-0.0107589415817374,119.98869868164287,342.9754999703058,15.288,0.0,3.8862243484351873,0.069577169659375,1.160570933837895e-08,-0.003639903631422,-0.0015094892234451,0.0002367887230694,12.275782566616332,17.361476822515517,22.646869220521523,28.5634860601798
0.61,31.222204000662863,131.01041661514927,9.670515189795484,10.320108936959606,-6.467085190486814,33.37781262633071,0.6004461054333753,2.0637444075166846,372.0984511843297,24.02697392014744,8.576429533885056,71.97676867800077,-0.0135722583969386,119.98574061234666,353.26815702474084,15.288,0.0,3.9003520619768097,0.0706143264765486,1.2273623844914945e-08,-0.0039483012980334,-0.0017077498065487,0.0002606740317746,12.16035293562877,17.166730608456557,23.01328217516895,33.44694234490693
0.62,31.222203614354747,131.01041739796864,9.881866329869082,10.266561595315128,-6.398873382292561,41.50708790231308,0.6132205941085769,2.0384747964230083,442.86563930529206,24.31679726546321,8.685739031231485,71.97442556893537,-0.0167375138757254,119.9824124063914,361.834749397324,15.288,0.0,3.914430573868776,0.071466276229414,1.2960451436690721e-08,-0.0042654686797939,-0.0019104741490799,0.0002850051599877,12.079252699176669,17.016260604281108,23.313752741612653,41.56163814292016
0.63,31.22220322212032,131.01041819176928,10.09633383230394,10.205800388515264,-6.327131606291943,23.531126443999742,0.6266578170603608,2.011959957107412,286.11251274707894,24.624874963472944,8.800663142480552,71.9718983517809,-0.0202622032857387,119.97870617100564,371.0535993278032,15.288,0.0,3.928449754680028,0.0723718816664683,1.3667315039385856e-08,-0.0045917675807921,-0.0021178433544011,0.0003106880712797,11.990259563803347,16.857539772525076,23.63303018912777,23.625295651318112
0.64,31.222202824574108,131.01041899526652,10.31349090414356,10.132901317735362,-6.248924279030542,23.101986529371988,0.6411174182524892,1.9835879970950965,282.30782441796754,24.96416077420699,8.92531277497319,71.96918189947401,-0.0241538657121928,119.97461396487212,381.34096946947056,15.288,0.0,3.942415032530776,0.0733692137844102,1.4395453183007124e-08,-0.0049265019886856,-0.0023293794223846,0.0003379225896482,11.887660039788486,16.68328756184283,23.984526870243293,23.195849509976807
0.65,31.222202421695656,131.0104198084873,10.533353179617349,10.081152275151696,-6.1843665204094975,40.84731903304091,0.6544811968834191,1.956885437594092,436.7781447787475,25.25455387033057,9.034355190050952,71.96627125711349,-0.028419852426844,119.97012803548331,390.25615154900873,15.288,0.0,3.956289213100323,0.0742228579049538,1.5146026756966197e-08,-0.0052699016215571,-0.0025451841047444,0.0003656744621145,11.810174392711504,16.541987340978874,24.28500104287527,40.89940364406269
0.66,31.222202012953225,131.01042063251506,10.756292504892304,10.025572084659208,-6.1183048940560765,34.7415939854757,0.6683304101827958,1.929220494058736,383.51251517160017,25.55566506557121,9.14662669792854,71.9631612649852,-0.0330675377952614,119.96524061246144,399.6091587486273,15.288,0.0,3.9701202364677046,0.0751080093223276,1.5920188054062824e-08,-0.0056228463339253,-0.0027657561175296,0.0003948085302514,11.72870984759854,16.397177184991037,24.5964294266235,34.80153602793292
0.67,31.222201598540806,131.01042146693356,10.982175209266652,9.959439996480988,-6.046742232669766,23.910852599594143,0.6831556897351825,1.8997555322474289,289.1562440103425,25.88511276112668,9.267702780785596,71.95984643927929,-0.038104784091761,119.9599434096924,409.9697002571104,15.288,0.0,3.983906458259897,0.0760764488026466,1.671923857335649e-08,-0.0059852206030627,-0.0029909787294207,0.0004256610659305,11.63547453539034,16.239042583462176,24.937054874473148,23.995929755236414
0.68,31.22220117863457,131.01042231136367,11.21088007204675,9.897536598804606,-5.978492589609721,29.865715107326125,0.6979626104043837,1.8701537869259297,340.8999924858462,26.205957277447453,9.385914114957687,71.95632134378009,-0.0435394124435394,119.95422817698608,420.1865603356201,15.288,0.0,3.997599070513021,0.0770196108292396,1.754448925476312e-08,-0.0063569633808717,-0.0032207702479517,0.0004576926152185,11.54760202157141,16.089140546794585,25.268561043265088,29.93234982196092
0.69,31.22220075331732,131.01042316561987,11.442350997793625,9.847498478716656,-5.918037932649127,36.78622800544393,0.7121736295618006,1.8414051519539192,401.0140726853634,26.49762126192803,9.494755763385804,71.95258055554297,-0.0493790900155759,119.94808682410724,429.58214609534446,15.288,0.0,4.011238443586394,0.0778770180125664,1.839726142457084e-08,-0.006738105446286,-0.0034551055584504,0.0004905228070791,11.473910217177387,15.958400901239878,25.569670093895365,36.83917120512883
0.7,31.22220032244495,131.01042402998627,11.676689927794776,9.797446858039253,-5.85827632944658,30.84638406022055,0.7266179700055562,1.812105493821046,349.27032420985284,26.79033428877907,9.60378073161989,71.94861852867284,-0.0556313318691413,119.94151142664684,439.115673907128,15.288,0.0,4.0248279603421295,0.0787375153858855,1.9278880280719856e-08,-0.007129018116993,-0.0036941646448453,0.0005247018454226,11.40061306780872,15.829527087839075,25.87172092384747,30.908107505728978
0.71,31.22219988607268,131.01042490433505,11.913860060027776,9.740756475449546,-5.795285830288153,25.340872952530447,0.7418036699664862,1.7813740984282325,301.33126406340574,27.101977066399776,9.718648435048753,71.94442968664887,-0.062303832837458,119.93449386062844,449.3810239280148,15.288,0.0,4.038324327416642,0.0796536550493085,2.019072612962553e-08,-0.0075297669446737,-0.0039379416619383,0.0005606313213993,11.32003796176683,15.692976024757568,26.193207104042315,25.41423633241054
0.72,31.2221994442014,131.01042578865065,12.153862439891547,9.676154527117744,-5.728388120351422,31.04057943220711,0.7578910078667225,1.7489267118367404,350.79220534145287,27.43719206187864,9.84082098478119,71.94000827204526,-0.0694044068647713,119.92702587681396,460.5556346023325,15.288,0.0,4.051766289845123,0.0806390819477689,2.1134213887310225e-08,-0.0079405399096917,-0.0041865040645993,0.0005985143070048,11.23074492421574,15.54677679135346,26.538877276747996,31.099046848904234
0.73,31.22219899682654,131.01042668292857,12.396701969046696,9.63217873455484,-5.674177863925376,39.283398398654846,0.7726000814561413,1.7186900522554027,422.320318528234,27.716484731223527,9.945175119314754,71.93534830828318,-0.0769411199144874,119.9190989585144,469.96870748136246,15.288,0.0,4.065157889950321,0.0814601582353733,2.211080475170021e-08,-0.0083615642981308,-0.0044399420304519,0.00063664948806,11.165620447072731,15.432269108557618,26.826643150563957,39.328567176151054
0.74,31.222198543880182,131.01042758729693,12.642427713288036,9.582078752268654,-5.6170213862535965,24.575011768613887,0.788034205473362,1.6870378071736607,294.48281347105944,28.013653556498728,10.055036131993596,71.93044393452867,-0.0849216920552105,119.91070494993716,480.08916475092246,15.288,0.0,4.078476973571041,0.0823337807789793,2.3121965207254343e-08,-0.008793059498045,-0.004698338744783,0.0006766658040652,11.093794546883109,15.310679259566705,27.132746544923577,24.645451870463653
0.75,31.22219808574113,131.0104285009591,12.890777661376164,9.528235167344226,-5.558314214079536,28.70158731433549,0.804036085050226,1.6542302421160222,330.24688556441487,28.32262255760516,10.168498350388637,71.92528919890754,-0.0933538633431185,119.90183567086926,490.7258877823271,15.288,0.0,4.091713755906342,0.0832420921408119,2.4169270434232532e-08,-0.009234558376882,-0.0049613730970693,0.0007184618339033,11.018013201334693,15.185418555891392,27.450893428654123,28.760460115972034
0.76,31.22219762229096,131.0104294241484,13.141836127903687,9.48175501730876,-5.504435727080508,30.90165292579014,0.8196539219322976,1.6219243503611571,349.27032420986166,28.61105203480267,10.27533526609503,71.91987812641099,-0.1022452585924233,119.89248306016992,500.7595306040704,15.288,0.0,4.104890761640816,0.0840900439519341,2.5254221500293505e-08,-0.0096864587825405,-0.0052292344171959,0.0007612766304449,10.95103762611476,15.072494777369691,27.747746710081717,30.955041991508068
0.77,31.222197153467416,131.01043035698214,13.395648317364214,9.43729224242442,-5.452272204300272,28.893484824919664,0.83532709526012,1.5893576810196837,331.7687666960708,28.893978484661744,10.380297541990789,71.91420460233174,-0.1116035364242685,119.88263902003072,510.6997836254602,15.288,0.0,4.118009384392124,0.0849218293467298,2.6378374326854748e-08,-0.0101490385659299,-0.0055020391659148,0.0008054995431139,10.886701727598409,14.964130159565109,28.038829560019025,28.949219238559007
0.78,31.2221966793374,131.01043129931068,13.652169569940904,9.38709366827499,-5.397388512700143,23.72622724854108,0.8517569086663896,1.5552918750079991,286.8734378128899,29.19469202395672,10.490753360911274,71.90826252001068,-0.1214363507919466,119.87229544882184,521.3724534124235,15.288,0.0,4.131046856933941,0.0858059000279458,2.7543335459765588e-08,-0.0106223191941972,-0.0057797534619333,0.0008518156163807,10.816101695064935,14.849127556747677,28.348125595902527,23.79239967084741
0.79,31.222196199992656,131.01043225093272,13.9113379376177,9.333837531555838,-5.341329182571204,33.736387486016575,0.8687375516446029,1.5200781878994487,373.6203323159534,29.50572365319991,10.604346780746468,71.9020456481758,-0.1317514009971768,119.86144419427168,532.5274722037333,15.288,0.0,4.144007695225504,0.0867203043255535,2.8750752728146487e-08,-0.0111063146279969,-0.0060623397287026,0.0009000938323249,10.742315792689393,14.731317354149107,28.66792436534648,33.78178774484294
0.8,31.22219571519764,131.01043321232586,14.173319427721404,9.292477707481783,-5.292513273631196,34.184705923054615,0.8848352762389406,1.4862522879724676,377.42502064505743,29.780385028128205,10.706307750484418,71.89554744278567,-0.1425565466470124,119.85007693960858,542.4742980324312,15.288,0.0,4.156914487451726,0.0875278205830522,3.0002258198017744e-08,-0.0116016882821425,-0.0063501333515971,0.000948969200795,10.682446925044127,14.632248191708207,28.95022073262375,34.228438444885356
0.81,31.22219522505948,131.01043418325784,14.438041453654527,9.244026916644048,-5.24022329475527,22.253611591704008,0.901862072396922,1.450606453523438,273.9374926939919,30.07769002110895,10.815299179278052,71.88876145853013,-0.1538595526309776,119.83818545547022,553.3456081073679,15.288,0.0,4.169760588083584,0.0884018966241691,3.1299589245034046e-08,-0.0121083595099161,-0.0066430397098173,0.0010002748790641,10.614761638111746,14.524461673772125,29.255704743926565,22.319069047678823
0.82,31.22219472977639,131.01043516330725,14.705368045091824,9.192869807017695,-5.186936562710748,28.583206504689446,0.9194304710438644,1.4138156805332776,328.72500443277005,30.384421572093697,10.927153141741742,71.88168113355049,-0.1656681152739953,119.82576158388478,564.6746685547541,15.288,0.0,4.18254018982576,0.0893036863658544,3.2644534835556805e-08,-0.0126261320055959,-0.0069408999641457,0.0010536581357355,10.544277058188664,14.414264061491592,29.57077192621464,28.632916743833952
0.83,31.222194229329286,131.01043615250393,14.97531460870496,9.155746061266283,-5.1419227853286,36.321807591858274,0.9357897609878386,1.379003082414357,395.68750322465047,30.64568872447244,11.02451107020069,71.87429979204572,-0.17798992713029,119.81279716783794,574.4124874092208,15.288,0.0,4.1952366403836185,0.0900718581474501,3.4038859521747364e-08,-0.0131552687575369,-0.0072438172332185,0.0011072260077859,10.490066972971938,14.325818067895352,29.8390811221392,36.36002005937361
0.84,31.22219372360433,131.010437151076,15.247962468932924,9.116053748377803,-5.095923442422504,22.44750288330168,0.9526237349301162,1.343167637590993,275.4593748256452,30.915012561040687,11.124293495091596,71.86661089942264,-0.1908324304643755,119.79928430383008,584.5377770001329,15.288,0.0,4.207866920221401,0.0908637171440798,3.548431748146336e-08,-0.0136961151587078,-0.007551938531801,0.0011628471213019,10.433180739422994,14.235108850767212,30.115601700353388,22.507820351576942
0.85,31.22219321291374,131.01043815836633,15.523096419246317,9.065415095276087,-5.044345260803604,24.47524496120936,0.9708845669960467,1.304584406697591,292.96093233939376,31.221114962622263,11.2356046919465,71.85860771764702,-0.2042029353176452,119.78521523264844,596.1548350472649,15.288,0.0,4.220425901251976,0.091763681470318,3.698282836207165e-08,-0.0142481859191039,-0.0078649434266482,0.0012216654800047,10.364090504591736,14.130025759916112,30.429774282981768,24.529210611591925
0.86,31.222192697071254,131.0104391747538,15.800848315527464,9.023314057135192,-4.997911212661256,30.63651593146813,0.9884589162274552,1.2670518827816295,346.2265619465587,31.498605254629823,11.337748431962549,71.85028344138802,-0.2181090193030685,119.77058189807136,606.7828770038848,15.288,0.0,4.232922201528236,0.0925795584470055,3.8536188796726935e-08,-0.014812108402137,-0.0081831370538437,0.00128127083777,10.304967525170612,14.03863045832794,30.71453042782781,30.678633931807173
0.87,31.222192176101423,131.01044020017972,16.08120324678423,8.985287939670329,-4.954120854654566,28.53381668726397,1.00579332682189,1.229772008090247,327.964078366998,31.76176586211818,11.43524268451788,71.84163107683374,-0.2325580746475753,119.755376444526,616.9475668722213,15.288,0.0,4.245355172291984,0.093353325858874,4.014631614488554e-08,-0.0153880021514412,-0.0085065374428734,0.0013421712167904,10.250711244375443,13.954460483986637,30.984543683804525,28.578009975338478
0.88,31.222191650041182,131.01044123456032,16.36413772951587,8.9419150032973,-4.907829630955495,24.67049708262189,1.0239717511179576,1.190775746477575,294.4828134710418,32.04321938526247,11.538419364356509,71.83264375998415,-0.2475573998271372,119.7395910992648,627.9129810305157,15.288,0.0,4.257721822774996,0.0941808671225692,4.18151466869749e-08,-0.0159759020425521,-0.0088351153197003,0.0014057586807494,10.190616516815464,13.86392689671887,31.27324170348418,24.72043469134679
0.89,31.22219111897625,131.01044227771027,16.649594343176126,8.893370073095722,-4.859157670832258,27.05287242108952,1.0430172564073,1.15000564793994,315.028134248087,32.343077808107246,11.64732418067572,71.82331438961812,-0.2631142505725433,119.72321813756092,639.7023703713362,15.288,0.0,4.270017280291893,0.0950625119064042,4.3544674508691294e-08,-0.0165758329271945,-0.0091688362628329,0.0014721567071158,10.12489145252668,13.76726917773811,31.58071774596129,27.09738556058874
0.9,31.222190582825696,131.01044332979157,16.937631745372233,8.858550707028744,-4.818278781905112,29.876595524980587,1.0606297710349704,1.1116589355686752,339.37814235421445,32.593458213592605,11.74045087793818,71.81363562896857,-0.2792360452237712,119.70624965920052,649.6271084274883,15.288,0.0,4.282237818916263,0.0957987393044512,4.533689203042015e-08,-0.017188192591897,-0.0095078705165373,0.0015383174810018,10.074937273952544,13.691679244642184,31.83749650741485,29.91607730407724
0.91,31.22219004166369,131.01044439064415,17.228200565107517,8.818454818597651,-4.7749332509139055,22.75242041151596,1.0791026648796964,1.071548176562439,277.7421810230789,32.8622330170394,11.839302923510354,71.80360043385093,-0.2959297807738807,119.68867819234951,660.3668700813574,15.288,0.0,4.294393224227818,0.0965890392644416,4.71938406379427e-08,-0.0178129488857667,-0.0098521504590692,0.0016073338642201,10.019218110535506,13.609761736309988,32.11305616545388,22.803186458002155
0.92,31.222189495703567,131.0104454598173,17.521154673703762,8.773297022929187,-4.729260344633207,27.07361447353397,1.0984532191326324,1.0296258618462284,315.02813424806214,33.149343126965064,11.943879300597471,71.79320153152086,-0.313202392280838,119.67049633238818,671.9373317039028,15.288,0.0,4.306477740584147,0.097433238542421,4.911766860868826e-08,-0.0184497574023087,-0.0102014402228706,0.0016792933576679,9.9579862145567,13.521801341721831,32.4073158967279,27.11544448375415
0.93,31.22218894484857,131.0104465375081,17.816563768724173,8.740519911907036,-4.6905368082891,32.18994351278759,1.116413026134812,0.990071330864488,359.1625070654728,33.38972495146717,12.033543439041605,71.78243158832433,-0.3310607652278822,119.6516967189809,681.6984050541516,15.288,0.0,4.318497557160436,0.0981401009189065,5.111041062259007e-08,-0.0190990965303684,-0.0105559513602664,0.0017509523476946,9.91094416033942,13.452865904937209,32.653759860087085,32.22451058808464
0.94,31.22218838898161,131.0104476239578,18.11451164540857,8.696855141149722,-4.646388051573935,23.38605453999056,1.1360271432603328,0.947261500297741,283.0687504837787,33.67030780317197,12.135864045239147,71.77128330741367,-0.3495115085608887,119.63227227675708,693.1836976577372,15.288,0.0,4.33045251300987,0.098965131326382,5.317414823616e-08,-0.0197613079982144,-0.0109158180785142,0.0018268336713318,9.851806024976192,13.369486215234046,32.94125457454999,23.432784917025625
0.95,31.222187828408824,131.01044871852164,18.41478771524577,8.654918165423313,-4.60350793665247,30.26697342111756,1.1556443738966256,0.9042384704126653,342.4218736174873,33.94394275901303,12.235902223254048,71.75974912446219,-0.3685614398050865,119.61221570390688,704.4760211593069,15.288,0.0,4.342337799952108,0.099769748297887,5.53111742772519e-08,-0.0204359033380473,-0.011280728571103,0.0019044949941308,9.794814406415142,13.289767918704364,33.221603190925414,30.30252202713381
0.96,31.22218726281887,131.01044982184823,18.71761100221835,8.619169235370578,-4.564216664848543,29.65734686358637,1.1746159010464212,0.8622136242565341,337.09533515678345,34.192801708202325,12.32798093647628,71.74782145381053,-0.3882171829677115,119.59151989640918,714.8227843427765,15.288,0.0,4.354162699980791,0.1005015504765731,5.75235441623175e-08,-0.0211238277776492,-0.0116511389178821,0.0019829802280225,9.74498356143371,13.22012227082405,33.47661425739917,29.69311970534455
0.97,31.222186692232263,131.0104509338922,19.022969648136275,8.580599149136262,-4.523769955627627,18.99353780092805,1.1941898874458967,0.8188618837524335,245.02188719299323,34.45162678348348,12.423133385442087,71.73549252764222,-0.4084854185465199,119.5701776835478,725.6642736072539,15.288,0.0,4.365926043318249,0.1012626536949668,5.981352802411482e-08,-0.02182519060852,-0.0120270546808567,0.0020642681907917,9.692156180338358,13.147581643255252,33.7417727168928,19.048650935623325
0.98,31.22218611695335,131.01045205401252,19.330654375067905,8.531864935076882,-4.478364829741997,27.643113045902904,1.2154828477607251,0.7720764371278713,319.5937466429581,34.75031065390541,12.530884825922795,71.7227545522023,-0.4293726284145406,119.54818209636088,738.2795233531683,15.288,0.0,4.3776198807812285,0.1021409210286392,6.218356974547795e-08,-0.0225393523225046,-0.0124080857486956,0.0021502335352451,9.628081469675497,13.061556033866143,34.04756681094294,27.68059246921091
0.99,31.22218553682479,131.0104531825368,19.640777122038106,8.50077011503519,-4.442432135956044,30.20869255783291,1.234375737660253,0.7295812991296406,341.6609485517054,34.97731304709994,12.615767719421829,71.70959953176764,-0.4508853681790401,119.52552608142628,747.9342006277078,15.288,0.0,4.389253059305793,0.1028085045687287,6.46358936944864e-08,-0.023267021870824,-0.0127945564755659,0.0022340856216051,9.58400841838608,13.002016183831827,34.28019640365156,30.242702894870913
1.0,31.222184951844767,131.01045431946866,19.95334157727716,8.459793290365852,-4.401687214534844,27.0385504020698,1.2549599632670707,0.6836927421796029,314.2672081822764,35.24313393285108,12.71291905943364,71.69601970632297,-0.4730295763441292,119.50220322754772,759.3229171012833,15.288,0.0,4.400822061230226,0.1035901948849727,6.717284993970179e-08,-0.0240082419478976,-0.0131864362656497,0.0023227069163025,9.529002899736897,12.92937739219252,34.55239843407009,27.07629162423062
1.01,31.22218436220309,131.0104554644076,20.26821822878076,8.420676032721774,-4.36220276138048,28.2809369125608,1.275469013156152,0.63772573704627,324.9203161036979,35.500366332359015,12.807273096441616,71.68200700480736,-0.4958114240107211,119.47820687064852,770.4243520778286,15.288,0.0,4.412325246875192,0.1043466491997851,6.979692078165598e-08,-0.0247627515595268,-0.0135835369578789,0.0024131156402692,9.47625144707391,12.86049872207415,34.81581490705883,28.316866139660597
1.02,31.222183767818866,131.0104566175239,20.585465849946164,8.384309343921617,-4.324416271802039,23.607107170529687,1.2957388928191842,0.5919924293724756,284.59063161540416,35.74490366545879,12.897515898197838,71.66755342089284,-0.5192367246363627,119.4535307157106,781.0509432208147,15.288,0.0,4.423765416746623,0.1050657968099643,7.25104647127583e-08,-0.0255309307711201,-0.013986004927115,0.0025050358473838,9.42674364259399,12.79665648806981,35.0662706822584,23.650050809156262
1.03,31.22218316876361,131.01045777866756,20.90503717469852,8.341321451887724,-4.28354166834322,19.2840101475789,1.3172887564862668,0.5436034544781465,247.30469339049705,36.01621188177778,12.996229627434962,71.65265093931295,-0.5433110453686943,119.42816871889536,792.9281463933168,15.288,0.0,4.435140497001597,0.1058636408851871,7.531596193097787e-08,-0.0263127168844209,-0.0143937549093428,0.0026012587931985,9.369979190224033,12.724348499396806,35.34398135965087,19.336592299461966
1.04,31.22218256510154,131.01045894770323,21.22689009362749,8.304940539751481,-4.246307894445368,30.68629560950758,1.337958291160514,0.4966614421787479,345.46563688072297,36.25821912424244,13.08554713702228,71.63729127053367,-0.5680401059876466,119.4021146672092,803.5951037322221,15.288,0.0,4.446452098556072,0.1065753678292713,7.82159339560779e-08,-0.0271081744875826,-0.0148067685023596,0.0026978211303282,9.320765326514652,12.662598013947177,35.59182107368481,30.719465216880263
1.05,31.222181956534552,131.0104601252627,21.551234381700887,8.263266948116401,-4.206675642004019,18.49681348811494,1.3597228352854027,0.4473988670466525,240.45625879819983,36.521692444104005,13.18164590695398,71.62146616153291,-0.593429299189103,119.37536268403956,815.2909162624167,15.288,0.0,4.457706418690665,0.107350199370953,8.121272150428876e-08,-0.0279182833387885,-0.0152254951465084,0.0027985462332259,9.265786233771108,12.594281428857824,35.86150288309678,18.55211904740647
1.06,31.222181343310183,131.01046131082447,21.877900503339287,8.217167762215327,-4.16510497733938,26.368582022626203,1.3824969154242637,0.3959600102491754,308.17968365593924,36.803653617546935,13.283603440313916,71.60516700988028,-0.6194842651698798,119.34790662249416,827.9022378757402,15.288,0.0,4.468898689180706,0.1081793819738446,8.430910165961342e-08,-0.0287425115493798,-0.0156496070153761,0.0029033199828364,9.206019761582024,12.520611584108662,36.149976542498536,26.407767795382476
1.07,31.222180725307243,131.01046250464637,22.20697527397343,8.181787024974092,-4.129186134257815,31.06113014532853,1.4035918624158883,0.3475049038749086,348.5093681440308,37.03694490288402,13.369960182633308,71.58838500696466,-0.6462106642197109,119.31974030566226,838.4048290512536,15.288,0.0,4.480035309017476,0.1088655145432064,8.750763392211528e-08,-0.029581506956711,-0.0160793798470318,0.003006913789462,9.158369166797318,12.46342095550198,36.388895173176095,31.09476862238235
1.08,31.222180102420648,131.01046370695505,22.53853427905156,8.14426941148029,-4.092451532157543,20.896292757510988,1.4252533686227564,0.2977236972044003,261.00157857466235,37.277967711351685,13.45872466576182,71.57111145128047,-0.6736137034847317,119.29085802468344,849.3253464551891,15.288,0.0,4.491116970817744,0.1095743812211241,9.081094518739274e-08,-0.0304356784093989,-0.0165149629917431,0.0031137727278555,9.108473770607633,12.404181402751172,36.63567339400377,20.946957716390553
1.09,31.22217947493718,131.01046491714598,22.872380742127746,8.095614776860414,-4.050447592752285,19.219222442307395,1.4491908115624064,0.2432957757644836,246.54375332474407,37.568282488864085,13.563225556504278,71.55333752255338,-0.7016984685100056,119.26125418875192,862.5780145522397,15.288,0.0,4.502137155680249,0.110428144780585,9.422199418664693e-08,-0.0313042880572013,-0.0169559262004803,0.0032274754079878,9.046311041313851,12.329860765373558,36.932569483370514,19.27531732889796
1.1,31.22217884293597,131.01046613505406,23.20846227553969,8.052901515279245,-4.01166352895678,38.60455168370412,1.4722574412110048,0.1902921522472957,413.1890617385841,37.83050864594265,13.658713966818404,71.53505428324803,-0.7304699137153621,119.23092333556777,874.633372747202,15.288,0.0,4.513097998315662,0.1111993536255878,9.774357390073773e-08,-0.0321873778528998,-0.0174022358686038,0.0033415774299265,8.99091328451184,12.265097385809556,37.20087275533235,38.63308379842581
1.11,31.222178205998908,131.01046736157315,23.547072005881088,8.021844613221518,-3.978869328130602,28.25591695106588,1.4932500217032565,0.1410691851231393,324.1593910376397,38.03661950769249,13.736164600323448,71.51625261571238,-0.7599329468721094,119.199860042335,884.1610567636714,15.288,0.0,4.524009890691282,0.11180562505827,1.013781671144084e-07,-0.0330864779323772,-0.0178546005682288,0.0034535207976999,8.948618915613672,12.218203215804031,37.41212239939102,28.29569823997705
1.12,31.222177564191234,131.010468596572,23.88816705477941,7.969331627375486,-3.935788706708416,10.640928178182396,1.5186796135657508,0.0829475762253006,172.73281794065943,38.341870366323775,13.845363207420982,71.4969235015786,-0.7900920175648944,119.16805935833366,898.379675012586,15.288,0.0,4.534868088543545,0.112703319554999,1.0512872601901705e-07,-0.0340014304195726,-0.0183128782966291,0.0035773866181828,8.882602355378603,12.141260745457217,37.72412421145052,10.749075335222932
1.13,31.22217691812713,131.01046983874423,24.231323475402547,7.928614700638229,-3.8987417604226455,33.316182171882694,1.541980509374056,0.0287056338483462,367.5328077900705,38.590178142774015,13.93629475520158,71.4770572629435,-0.820952199676291,119.1355156631504,910.0234434212558,15.288,0.0,4.545665425505681,0.1134336426424445,1.0899871923528909e-07,-0.0349305813581231,-0.0187761905962636,0.0036988240915668,8.829832440133876,12.08233553646084,37.97823771305705,33.35185935468633
1.14,31.22217626711888,131.01047108956536,24.57702147450581,7.896122325171454,-3.8659254942535504,18.439864720161808,1.5637501909587044,-0.0227954998597675,239.69531773195544,38.79660505551288,14.013721810506858,71.45664483046147,-0.852517368426391,119.10222459079492,919.7547511746616,15.288,0.0,4.556416115457445,0.11404086775565,1.1299042514060822e-07,-0.0358763507088814,-0.0192456751065725,0.0038191669531927,8.786316763921228,12.036340661533414,38.18980756361743,18.506065092082796
1.15,31.222175611671616,131.01047234796462,24.924912713870693,7.842085284972772,-3.8228997749314257,18.176627119100043,1.590248420868827,-0.0838541831915254,237.41251153546767,39.10637782320008,14.124366649221104,71.43567707475349,-0.8847911594499265,119.06818201559707,934.4697842408876,15.288,0.0,4.56710719311349,0.114951882110231,1.1710731697506532e-07,-0.0368370609115509,-0.0197204426156119,0.0039526167829854,8.719028771344387,11.960025188021543,38.50632358741355,18.24625153260027
1.16,31.222174951928288,131.01047361364027,25.274900624217032,7.811617064790893,-3.791491624248548,47.60810232572638,1.611889050021149,-0.1356305740284016,490.0437743845894,39.298416514824325,14.197132939757488,71.41414422292195,-0.9177777789061796,119.03338319906842,943.6383479747902,15.288,0.0,4.577743170951476,0.1155168296383318,1.2135250901894453e-07,-0.0378126590893375,-0.0202004113578976,0.004077085474096,8.67799300323364,11.91888756001435,38.70328497201256,47.635574826163506
1.17,31.222174286986288,131.0104748885389,25.627614303860007,7.769845746201193,-3.7548576319233535,8.430364293773987,1.6361390579311483,-0.1928223306449331,153.70937929486794,39.54402259794902,14.28708864879634,71.39203706598174,-0.9514803035745308,118.9978245836012,955.4378805973548,15.288,0.0,4.588337968740258,0.1162392459958032,1.2572817712573397e-07,-0.0388063035908782,-0.020687058193824,0.004210231285074,8.62455226560311,11.862331106012483,38.95463303567253,8.589829660349649
1.18,31.22217361803717,131.0104761701119,25.982229138653,7.713118111365213,-3.711303071736229,23.151595666677263,1.663981638667246,-0.2574293639806925,280.02501822196746,39.86415605400364,14.401119404973397,71.36934590866241,-0.9859021429060588,118.96150224644931,970.9371523958196,15.288,0.0,4.59885836075888,0.1171807439353784,1.3023871311583024e-07,-0.0398138681328153,-0.0211783130035108,0.0043543665559604,8.554684868050348,11.784886738892364,39.28159350946655,23.212744057619954
1.19,31.22217294454504,131.01047745951715,26.33911975896584,7.689260936233419,-3.683637584513363,40.453826551709824,1.6844746114651228,-0.3077408315909904,428.4078130529292,40.01425701356504,14.460276218498084,71.34606076487648,-1.0210467514011092,118.92441220699176,978.229142350954,15.288,0.0,4.609326479975951,0.1176224396657399,1.3488659544056298e-07,-0.0408378077666797,-0.0216753078320161,0.0044830163904364,8.521287284099467,11.756347460232291,39.43603110786856,40.49005114607688
1.2,31.22217226604992,131.0104787577606,26.69860765819228,7.638930630477027,-3.6435986856049856,4.171614814107669,1.7112659811809137,-0.3708636848073016,117.1843741360236,40.29808889143624,14.562588419498857,71.32217239478089,-1.056916209558303,118.8865519222376,992.121784743256,15.288,0.0,4.619749320968015,0.1184572478211129,1.396745765337314e-07,-0.0418796168629448,-0.0221786925762858,0.0046298327431653,8.45874086384945,11.690151359152232,39.72613942830355,4.524195098394684
1.21,31.222171583744743,131.0104800622781,27.059867752114112,7.589980532221595,-3.6044493163157183,32.4827586653799,1.7379674035619157,-0.4341253624197911,359.92343213200894,40.57378222806622,14.662343391572236,71.29767056150476,-1.0935135945597887,118.84791778284932,1005.7082234100188,15.288,0.0,4.630109517415815,0.1192681415933883,1.4460728862700984e-07,-0.0429351379902788,-0.0226864100234235,0.0047788284135147,8.397842221119095,11.626826215775036,40.007970036148,32.532116531812875
1.22,31.22217089672276,131.01048137503858,27.42353162943821,7.563462946043894,-3.5760568994803865,23.522723112122847,1.759323649730036,-0.4869864397617944,283.0687504825761,40.728042223074645,14.722771348094442,71.27254549941867,-1.1308409785368918,118.8085072298828,1013.3346898983634,15.288,0.0,4.640428035829428,0.1197220859491128,1.4968679098318948e-07,-0.04400817009186,-0.023200214750553,0.0049167118122354,8.361804051431493,11.597345767655504,40.16668114855705,23.593449898363946
