Time,Latitude,Longitude,Altitude,Angle of Attack,Angle of Sideslip,X-Acceleration,Y-Acceleration,Z-Acceleration,Thrust,True Velocity,Ground Velocity,Pitch,Roll,Yaw,Dynamic Pressure,cp,cg,parachute_deploy_gain,Wind Speed,Wind Direction,Mach,omega_x,omega_y,omega_z,Cmq,Angle of Attack(total),Angle of Attack(gust),True Velocity(gust),Acceleration
0.0,31.222216000000007,131.010392,3.000000004412624,0.0,0.0,0.0,0.0,0.0,2.2828121974499247,0.0,0.0,69.99999999623412,0.0,119.9999999935444,0.0,1.274,1.0271675151847728,0.0,0.0,0.0,0.0,0.0,0.0,0.0,-0.0,0.0,90.0,0.0,0.0
0.01,31.22221599999084,131.01039200000497,3.000002745347096,0.0,0.0,0.0,0.0,0.0,34.242186961749226,3.465174813755316e-14,2.8705476994166025e-14,69.9999999962611,-2.1713911667908447e-11,119.99999999352175,7.352495975525499e-28,1.274,1.0271659134330349,0.0,0.0,0.0,1.0183245502395064e-16,-3.3305335486039093e-18,7.169286865560398e-18,5.624298769768554e-18,-7.715917190115602e-34,0.0,89.99999999999979,3.465174813755316e-14,0.0
0.02,31.222215999994315,131.0103920000094,3.0000030495639742,0.0,0.0,0.0,0.0,0.0,25.871876237766216,3.8197434737535036e-11,2.4171837235633357e-11,69.99999999628672,-1.1921727947863515e-11,119.99999999353136,8.93414285188691e-22,1.274,1.027164492361118,0.0,0.0,0.0,1.1225230367947217e-13,-6.657678965418802e-18,1.4338573731120796e-17,1.1241821275959074e-17,-1.7010872994127372e-30,0.0,89.99999999975682,3.8197434737535036e-11,0.0
0.03,31.222215999994315,131.0103920000094,3.0000030495639742,0.0,0.0,9.81877837424427,-2.5122800045972096e-05,3.3498614629347925,180.34219359854663,1.2659015405517447e-10,1.1364406173918436e-10,69.99999999631459,-1.6431898037347223e-11,119.99999999352724,9.812605835254651e-21,1.274,1.0271551940870716,0.0,0.0,0.0,3.720154642239108e-13,-9.991600645811728e-18,2.150108433310316e-17,1.6859343782149594e-17,-8.453698244545225e-30,0.0,89.99999999919412,1.2659015405517447e-10,10.374487003414373
0.04,31.222215999994315,131.0103920000094,3.0000030495639742,18.83801224594347,-0.0001111777826462,48.68248476615645,-1.016330065874988e-05,3.3497854396877287,548.635972453808,0.1556173050466994,0.0975908358443652,69.99999999633813,-2.0932768807056278e-11,119.99999999352085,0.0148286043323172,1.274,1.027133720825283,0.0,0.0,0.0,0.0004573186944143,-1.3322134194415637e-17,-1.04744143520903e-11,1.336824254131964e-11,5.0626055458604615e-15,18.83801224625964,89.06236267790787,0.1555998412814392,48.79759610369246
0.05,31.22221599164764,131.01039201704114,3.002326315126219,5.772385609593056,-4.395076213712875e-06,71.20344550265034,4.905512691849684e-05,3.349217396035405,761.6984298824663,0.8326471944351852,0.3620326097059287,70.00000001316391,-1.0866255162484559e-10,120.00000000231074,0.4245281043148827,1.274,1.027093426565204,0.0,0.0,0.0,0.0024469331205246,-5.0245994431125096e-18,-7.32924164976824e-07,2.217344936947165e-11,1.895424184525467e-09,5.772385609594774,84.74112356985832,0.8326465040582279,71.28217104309611
0.06,31.22221596664444,131.01039206837547,3.015081730143309,4.056581213689704,3.169093567502233e-05,53.16249142470188,0.0001203825427859,3.3481235983850643,590.4875390737236,1.657216205300742,0.6755452977614796,69.99999964391398,-3.9285905645317736e-10,120.0000000287861,1.6816755551786196,1.274,1.027050317124926,0.0,0.0,0.0,0.0048701272653724,3.095757869075056e-13,-7.483541766772344e-06,3.074135420506017e-11,3.8518749565858254e-08,4.056581213813337,79.59316473687034,1.657221183301277,53.26781792157489
0.07,31.22221592883117,131.0103921460222,3.034593611434361,4.115662018628709,6.450869598349036e-05,81.18203554989698,0.0001593212642178,3.347059402768047,855.2937749779172,2.099899704220947,0.8579771146174259,69.99999543281565,-8.233801910783518e-10,120.00000006883089,2.700101932075157,1.274,1.027003201295312,0.0,0.0,0.0,0.006171060252819,3.4704292086287e-12,-2.6327204536316785e-05,1.9541142932033486e-10,1.7170712165327165e-07,4.115662019133419,76.90111966094352,2.099909837223217,81.2510043180746
0.08,31.22221588914193,131.01039222747755,3.0542761843835606,3.459696193892355,8.037433511260004e-05,16.298214211652088,0.0002413456836072,3.344878926597744,241.2171988638792,3.051964775152957,1.2149999716613011,69.99998042886442,-1.0128995578004475e-09,120.00000011111383,5.703497661025892,1.274,1.0269597189470347,0.0,0.0,0.0,0.0089689344021769,1.458982438104473e-11,-5.702803872814215e-05,7.043261397829576e-10,5.405702492731987e-07,3.459696194824858,71.30331929508368,3.051977400323993,16.63790856991177
0.09,31.2222158241468,131.01039236098703,3.0886872184095737,4.313676956300389,0.0001337561018991,50.35975918308536,0.0002293282821279,3.344215841840564,563.0937377043203,2.893161298572128,1.191209213966114,69.99994788602814,-7.098432023887522e-10,120.00000018106356,5.125380275808925,1.274,1.026918932011013,0.0,0.0,0.0,0.0085022553945842,3.8672912027154325e-11,-0.0001115933708951,2.016054215232918e-09,1.0027525988343615e-06,4.313676958370176,72.2316578138625,2.893182308931483,50.47067588835877
0.1,31.2222157788302,131.01039245392113,3.109877853389092,4.035124630954496,0.0001457499816535,47.804664812504015,0.0002878217657545,3.341734392237128,538.7437595981891,3.5677148583138303,1.4531247507621967,69.99988403958329,1.9248461973355822e-09,120.0000002323013,7.7939962029572305,1.274,1.0268846934974103,0.0,0.0,0.0,0.0104845969583028,8.579678749070606e-11,-0.0001726817043215,3.984565639703107e-09,1.913455350430327e-06,4.0351246335824245,68.43243098813296,3.567737752667411,47.92132267234452
0.11,31.222215703308,131.01039260899836,3.148841432727305,4.043401107254707,0.0001752764476999,37.67622367577205,0.0003286462930162,3.3392563999062723,442.86563930529127,4.034183355956686,1.6436552022667772,69.99978525353545,7.302513231814865e-09,120.00000031883242,9.96528118825134,1.274,1.026848594915519,0.0,0.0,0.0,0.0118554331868328,1.5870341853361987e-10,-0.0002596204409236,7.232030302688121e-09,3.252930323390323e-06,4.04340111104746,65.92012987243639,4.034210888316708,37.82391391539392
0.12,31.222215627491828,131.01039276462643,3.186995101203875,4.17874459224363,0.0002066711490009,41.15991989399172,0.0003576945202315,3.336766085769504,475.58594813540793,4.361857560629481,1.7865750500940407,69.99963665601238,1.781774420198147e-08,120.00000041104812,11.649831899889556,1.274,1.0268114448194128,0.0,0.0,0.0,0.0128183893919737,2.682972478760441e-10,-0.0003710216542429,1.2215991071490164e-08,5.026311388647148e-06,4.178744597345269,64.21681651392016,4.361890024457652,41.29495143136631
0.13,31.22221554594398,131.01039293200228,3.2277173449026786,4.202734874672792,0.0002327160860324,45.44886120763352,0.0003953741266062,3.333578629398489,515.9156326236897,4.792165672014363,1.9646716520715424,69.99942424225341,3.613383418913551e-08,120.00000051758742,14.061726603124043,1.274,1.026779572895131,0.0,0.0,0.0,0.0140829618979635,4.248908088871395e-10,-0.0005056103199642,1.908859219307828e-08,7.5253154423526356e-06,4.202734881104192,62.048594618540655,4.792202226971676,45.570952718869485
0.14,31.222215454191247,131.01039312033683,3.2737880595608355,4.184830647080848,0.000257138757548,42.32232525579263,0.0004369426767266,3.329727443445437,486.2390860568421,5.269261304374574,2.158791628597544,69.99913473613935,6.515851355725497e-08,120.00000064630268,17.000925061330125,1.274,1.0267449573927567,0.0,0.0,0.0,0.0154850332441425,6.382432869666793e-10,-0.0006690086306358,2.8426433029675884e-08,1.0948547100483978e-05,4.184830654966803,59.74181173116622,5.269301695636157,42.45310707234106
0.15,31.222215353826755,131.0103933263496,3.3242182719560263,4.21963947489699,0.0002846467688673,40.886944113003565,0.0004726792395108,3.325585650885676,472.5421858721398,5.6781946837482895,2.329510773545807,69.99875162806286,1.0876776246115984e-07,120.00000079954532,19.742017654108928,1.274,1.0267115958081523,0.0,0.0,0.0,0.0166867950518804,9.204756288136623e-10,-0.000865746478554,4.08948221429571e-08,1.526771148078443e-05,4.219639484480408,57.84996018384879,5.678239395958187,41.02196629910223
0.16,31.222215247130432,131.01039354534575,3.3775922280208457,4.253495568077899,0.0003118339050386,32.26872905470846,0.0005078415214353,3.32090791922544,391.1218908297597,6.081244877834229,2.4981889727471702,69.99825581174558,1.7187028096464329e-07,120.0000009800088,22.644030778355887,1.274,1.026675762255412,0.0,0.0,0.0,0.0178712695992133,1.2856146928958252e-09,-0.0010961187242953,5.6923362293832417e-08,2.0702404729358337e-05,4.253495579487569,56.06022383757386,6.081293860589489,32.43916312841722
0.17,31.22221513260033,131.01039378041813,3.4348437275053194,4.364838523348639,0.0003448792023946,40.840448242802736,0.0005326487904353,3.3162727284953744,471.78125980632416,6.362544479165355,2.6250789114832647,69.99762801982864,2.5997588617291615e-07,120.00000119506798,24.78723182122683,1.274,1.0266409836796937,0.0,0.0,0.0,0.0186979513961862,1.747791994374917e-09,-0.0013624931601664,7.706724512977917e-08,2.6923621797558364e-05,4.364838536947241,54.85936171416122,6.362598652663785,40.97486885600156
0.18,31.222215014088988,131.01039402363364,3.4935801365785646,4.353948305387995,0.0003681615230806,33.992183768165326,0.0005718025428208,3.310131992647221,407.1015672119096,6.81502088160835,2.810667639293692,69.99684761766231,3.794979223522764e-07,120.00000144728236,28.437950785509614,1.274,1.0266048342046536,0.0,0.0,0.0,0.020027681385988,2.3221419748804155e-09,-0.0016616990447559,1.0147209890543081e-07,3.517105786247627e-05,4.353948320923495,52.99157233768714,6.815078712285162,34.152972512863755
0.19,31.22221488419521,131.01039429023237,3.558399965607869,4.432620772533925,0.0003996774584738,38.45149959021069,0.0005986099513107,3.304145139297767,448.95313283182486,7.1223367465208405,2.946425726785696,69.99589577323147,5.440084577183829e-07,120.00000176148238,31.060341085698347,1.274,1.026566130444714,0.0,0.0,0.0,0.0209308229359413,3.022391489754689e-09,-0.0020041563310821,1.3135864879722746e-07,4.433199397898183e-05,4.432620790516937,51.77883352025967,7.122399527709208,38.59320142454953
0.2,31.222214751373183,131.01039456280608,3.624052454705669,4.443889400961181,0.0004246617145652,35.23432408779927,0.0006337972852267,3.2968110145188256,418.5156301991588,7.530482904611057,3.1167566004785483,69.99474776398331,7.478025600151903e-07,120.00000211715036,34.72195181863731,1.274,1.026529240027363,0.0,0.0,0.0,0.0221302820454282,3.866698391504749e-09,-0.0023849544920781,1.668144671071589e-07,5.57780533277244e-05,4.443889421210987,50.22448880200342,7.530549610317194,35.38822625098952
0.21,31.222214608673173,131.01039485566503,3.6948551453492566,4.493351735844891,0.0004538195602194,33.79371564104691,0.0006629296043866,3.2891790438445727,404.8187610144608,7.868284042829251,3.2629204975089228,69.99338155599101,1.0150082652278477e-06,120.00000255293388,37.906665490338085,1.274,1.0264923657015164,0.0,0.0,0.0,0.0231230169900677,4.871073773182836e-09,-0.0028117605859743,2.089322918608601e-07,6.870935089180403e-05,4.493351758715364,48.992529909481824,7.868355328639073,33.95340801819282
0.22,31.22221446109996,131.01039515850383,3.767700382407304,4.5412639153933885,0.000482649303782,41.008966751568416,0.0006914639179131,3.2808061382386606,472.5421858721387,8.20057841132235,3.4071691679735228,69.9917708347139,1.3454961520984431e-06,120.00000305929996,41.175744234065135,1.274,1.0264494137127138,0.0,0.0,0.0,0.0240995709751246,6.054779813287368e-09,-0.0032829112061357,2.580881224843564e-07,8.3609968899004e-05,4.54126394098788,47.82515604752711,8.2006542256977,41.13999323561041
0.23,31.22221430675399,131.0103954752338,3.843768625625224,4.52371495179584,0.0005047555656171,33.98493478127787,0.0007294889663961,3.2705214710765107,406.340642146096,8.647938096586296,3.5908865300848416,69.98989017772566,1.7539876018835507e-06,120.00000365514876,45.79040229326471,1.274,1.0264133390858623,0.0,0.0,0.0,0.0254142776666487,7.436335125872812e-09,-0.0038001790077148,3.1489825108822685e-07,0.0001020628978177,4.523714979897577,46.31461705147579,8.648017383405135,34.14194053232237
0.24,31.222214142622448,131.0103958120587,3.92493179063287,4.57837522350066,0.0005351929930195,35.051650311058864,0.0007555049947555,3.26053011385611,416.2328240017099,8.954297884844461,3.72617527247482,69.98771316795013,2.25257161141768e-06,120.0000043564586,49.09180568115741,1.274,1.0263750048312463,0.0,0.0,0.0,0.0263146218848643,9.034877387788232e-09,-0.0043732521010013,3.809642748985157e-07,0.00012161410144,4.578375254714954,45.32798984252032,8.954381952763216,35.20297212911011
0.25,31.22221397517227,131.0103961556623,4.0071748888306855,4.6034117733065,0.0005618935542827,36.03738579534623,0.000785606492708,3.249069743648399,425.3640807915084,9.311611941121669,3.8789349536029696,69.98520781816889,2.8559738498748624e-06,120.00000517181904,53.08749562138344,1.274,1.0263373768840591,0.0,0.0,0.0,0.0273647110956883,1.0873791100894836e-08,-0.0049950711786164,4.5609738277273444e-07,0.0001444478241125,4.603411807525074,44.2165428352526,9.311700203154778,36.183554686886296
0.26,31.22221379934012,131.01039651647062,4.09364247475714,4.621386912291471,0.0005881033207375,39.29107511182762,0.0008162761165496,3.236407051295005,455.80158342417656,9.67833954512075,4.034902068846398,69.98234620927953,3.5784678110229355e-06,120.00000612171208,57.350948423913096,1.274,1.0263006300381676,0.0,0.0,0.0,0.0284424679130479,1.2973286442992724e-08,-0.0056712051373577,5.414206381221602e-07,0.0001704578711045,4.621386949630312,43.12063533194282,9.678431924174348,39.42414126789902
0.27,31.222213616776543,131.01039689108487,4.183310605341074,4.617158109135719,0.0006115457810536,35.90419462403674,0.0008503454714941,3.221982799915672,423.8421996598744,10.088790784535757,4.205862468567124,69.97909721779352,4.436165972465058e-06,120.000007221354,62.31798301949865,1.274,1.026260090595354,0.0,0.0,0.0,0.0296487219805601,1.5355910600537293e-08,-0.0064045199323113,6.379142666348734e-07,0.0002006609239367,4.617158149547818,41.94410287616451,10.08888684592241,36.048472443180565
0.28,31.22221342607797,131.0103972823952,4.277051150896916,4.642105655370123,0.0006389739579882,41.51133203546672,0.0008785747638736,3.2071101123224945,476.3468732012228,10.432377224420517,4.35383399240675,69.97542808435722,5.446665372087172e-06,120.00000849080963,66.63429581008447,1.274,1.0262212716723291,0.0,0.0,0.0,0.0306584788590473,1.8045308789081613e-08,-0.0072006835403936,7.469524967369969e-07,0.0002332868227611,4.642105699250441,41.0023231023774,10.432477594215127,41.63503624837164
0.29,31.22221323001776,131.01039768469093,4.373143569786686,4.62134615173668,0.0006600657405645,33.17552944492765,0.0009148746278066,3.1894209319791806,397.9703104221098,10.876662296046485,4.536381530986506,69.9713027936179,6.629751536885327e-06,120.00000994797426,72.43000748232016,1.274,1.026183007522519,0.0,0.0,0.0,0.0319641703260467,2.1067646517035105e-08,-0.0080566154554079,8.688043379161898e-07,0.000272130659453,4.621346198772975,39.83162628795024,10.876765978930557,33.32848872465723
0.3,31.22221302403368,131.01039810736614,4.4744193758467325,4.664362353358112,0.0006905183788532,31.08096762732793,0.0009381960428197,3.172549142946348,378.1859457108735,11.168362145070317,4.66647911311536,69.96668711012893,8.005507138509574e-06,120.00001161892672,76.36634300732833,1.274,1.0261430389738484,0.0,0.0,0.0,0.0328214509167604,2.4447409007156216e-08,-0.0089829108229115,1.0056222251461646e-06,0.0003115527202986,4.664362404357781,39.09908960432563,11.168470611443622,31.242464973103964
0.31,31.22221281503337,131.01039853619727,4.576593712520673,4.700143580504286,0.0007196683316923,32.79732593144512,0.0009620705970519,3.154230688182399,394.1656220930229,11.470279728974068,4.800072153432283,69.96154070456518,9.597499105113692e-06,120.00001352112182,80.55022837857167,1.274,1.0261054058068628,0.0,0.0,0.0,0.0337087616009043,2.8214060606649844e-08,-0.0099686353219717,1.1565909895184251e-06,0.0003550834484269,4.700143635477137,38.36463422765983,11.47039277421126,32.94865339301887
0.32,31.222212598991007,131.01039897947376,4.68216432480395,4.718667719113184,0.0007464384342556,35.7316568886908,0.0009885845337584,3.133859770838664,421.5593934624264,11.808280530415894,4.946054328851105,69.95582953472353,1.14278227255889e-05,120.00001568218067,85.36654007972253,1.274,1.026068246703101,0.0,0.0,0.0,0.0347021168382987,3.2392058795580455e-08,-0.0110163301561155,1.3226102501723267e-06,0.0004039614423012,4.718667778018562,37.5686120062341,11.808397780690962,35.8688218659563
0.33,31.222212376029034,131.0103994369436,4.791055524254013,4.72141404831576,0.0007708346814671,35.42013590291081,0.0010176135371143,3.1111955852784385,418.5156301991632,12.181577273013426,5.104163223586657,69.94951809396906,1.351997394754887e-05,120.00001812674968,90.84831229869296,1.274,1.0260310883392356,0.0,0.0,0.0,0.0357992034445943,3.700677535501642e-08,-0.0121310534481307,1.5051409581878843e-06,0.0004588955105349,4.721414111097893,36.7208578211118,12.181698355442045,35.55651229220977
0.34,31.222212145785647,131.0103999093516,4.903491659547144,4.73024573449122,0.0007962944975467,27.63851074646407,0.0010446307681611,3.0871492806781062,345.4656368807584,12.53557620048282,5.2556261014174765,69.94256797855994,1.5899658158227497e-05,120.000020882338,96.20413272674828,1.274,1.0259901535019136,0.0,0.0,0.0,0.0368395817555172,4.208561016221623e-08,-0.0133180771902383,1.7057647550599631e-06,0.0005184333231541,4.730245801363397,35.94841996438923,12.535701282129995,27.810389570354005
0.35,31.222211909310875,131.01040039453565,5.018822212845608,4.780248518778662,0.0008286678570753,30.332092807652543,0.0010618579815451,3.063967690608957,370.5765700527057,12.774786382148209,5.367579971644358,69.93493776125636,1.8594985713558667e-05,120.00002397748868,99.9096898192772,1.274,1.025950003202184,0.0,0.0,0.0,0.0375426220587071,4.7658312175989686e-08,-0.0145774693288123,1.9252724355785177e-06,0.0005782798420984,4.780248590437683,35.44790728185619,12.774916548990808,30.486451961956565
0.36,31.22221166933814,131.0104008868675,5.135354490370708,4.798132156899578,0.0008554457330409,34.32674769697476,0.0010851169437774,3.0374319611165923,407.8625232777224,13.09301701329486,5.506730645516068,69.92658597246795,2.163521613217148e-05,120.0000274401514,104.94818266210537,1.274,1.0259105142325406,0.0,0.0,0.0,0.0384778908056978,5.3755109608570216e-08,-0.0158991451700967,2.162609490834569e-06,0.0006464142451675,4.798132232978766,34.796094028187134,13.09315138639638,34.46087058603792
0.37,31.222211421355144,131.01040139563804,5.255882891363927,4.797392186816851,0.0008791822061288,32.551601855236584,0.00111162791192,3.0078619428913056,391.1218908297639,13.457513730739372,5.661815946371007,69.91747693543164,2.5047738471809164e-05,120.0000313040604,110.87154396328836,1.274,1.025872170958032,0.0,0.0,0.0,0.0395491312153729,6.040098808671168e-08,-0.0172926678053148,2.420031948898497e-06,0.0007226353721561,4.797392267189059,34.07332166419882,13.457651832357364,32.69027405888565
0.38,31.22221116634284,131.01040191882743,5.379799334000849,4.811698494594017,0.0009057112478668,34.02947987649063,0.0011338447913587,2.9774881690446744,404.81876101445977,13.77554886562956,5.800899861213392,69.90756948297444,2.886339581486796e-05,120.00003560072224,116.17243393848278,1.274,1.02583050512925,0.0,0.0,0.0,0.0404838339452728,6.762496638941508e-08,-0.0187646375218858,2.69955777313946e-06,0.0008026686661094,4.8116985796350695,33.46655348088405,13.775691134419684,34.15949264475229
0.39,31.222210906095896,131.01040245274032,5.505993307722699,4.813508003664984,0.000929862892873,29.00025983045028,0.0011579891265804,2.9442136901860865,357.6406249338268,14.124492165837273,5.950648592462506,69.8968186645841,3.311602501056718e-05,120.00004036395212,122.13093644173792,1.274,1.02579027384009,0.0,0.0,0.0,0.0415093739609825,7.545934774906889e-08,-0.020311592409804,3.0013532510753577e-06,0.0008908380763632,4.813508093268025,32.821616487639595,14.124638228358922,29.149330452482886
0.4,31.222210638473225,131.0104030017851,5.635788650457906,4.841647069358873,0.0009592124397379,27.71178845184976,0.0011749448424961,2.91135549588368,345.4656368807565,14.390874239274588,6.07193451174791,69.8851815212744,3.783947407715338e-05,120.00004563180136,126.77947425345651,1.274,1.0257493418632293,0.0,0.0,0.0,0.0422922854866381,8.39343718693383e-08,-0.021938519432511,3.3271332720311508e-06,0.0009803271643914,4.841647164150728,32.348088166612904,14.391024912012275,27.864299944624147
0.41,31.22221036681104,131.01040355909262,5.767123077463226,4.86553909860892,0.0009876699832274,31.306062598221665,0.0011918093836199,2.876450850006428,378.9468707766882,14.663028799871563,6.195223154320929,69.87261222561014,4.307011032901644e-05,120.0000514391194,131.6183642808765,1.274,1.025708445186429,0.0,0.0,0.0,0.0430921644173401,9.308325447883581e-08,-0.0236371933433427,3.6760977501392174e-06,0.0010761942383903,4.865539198612839,31.87689439156756,14.663183942709727,31.437931330109585
0.42,31.22221008906472,131.01040412887247,5.901259531771367,4.867510642114694,0.0010118258958528,35.308283402190774,0.0012128114559048,2.8374461227958245,416.23282400171047,14.9952917972178,6.33928625560071,69.85906967380902,4.884273094936628e-05,120.00005782486392,137.64909586091787,1.274,1.0256701057426505,0.0,0.0,0.0,0.0440686959134695,1.0293499639582845e-07,-0.0254093547296826,4.049238334851429e-06,0.0011830797791891,4.867510747027452,31.315270489291198,14.995450734457847,35.422111438762386
0.43,31.222209804115888,131.01040471342728,6.038886819939341,4.854590670645608,0.0010330089741511,31.00586934514032,0.0012363751872706,2.794478603999558,375.90313951343126,15.369430568701889,6.497852263156962,69.8445117629242,5.519340856908871e-05,120.00006482835984,144.60167924299955,1.274,1.0256308158337524,0.0,0.0,0.0,0.0451682983415116,1.135186446762958e-07,-0.0272634397889413,4.449073329427772e-06,0.0013010625065656,4.854590780289497,30.70250814963406,15.369592833372094,31.13154422839874
0.44,31.22220951192321,131.01040531284193,6.180028459770617,4.866912332640401,0.0010595850174406,28.57707721036899,0.0012525768202179,2.752165534925872,353.07501253892326,15.659290812546615,6.627318538707029,69.82889155423543,6.216182865383864e-05,120.00007249162944,150.1053167542629,1.274,1.025586171750536,0.0,0.0,0.0,0.0460202245100907,1.2486676023179565e-07,-0.0292060158163984,4.8779154055816594e-06,0.001420032405556,4.866912447705031,30.24619499837236,15.659457251771938,28.709297424144207
0.45,31.222209215425703,131.01040592106523,6.322872201489905,4.881836476567178,0.0010866574689855,33.31904824532484,0.0012669045761511,2.7082028218433374,397.2093853562887,15.934249290371609,6.751662050993672,69.81215834018458,6.97909417564726e-05,120.00008085697964,155.42080512416243,1.274,1.0255397023523487,0.0,0.0,0.0,0.0468283602442113,1.3701614206272197e-07,-0.0312276295846745,5.334643585560923e-06,0.0015449645531859,4.8818365972149325,29.82567893138932,15.934419982127675,33.428929688274074
0.46,31.22220891307435,131.0104065412864,6.468371919199588,4.869610441729251,0.0011078049156487,38.95909776354321,0.0012868374716666,2.6582856015412624,449.7140588976424,16.292139278621757,6.904766425053949,69.79426683863348,7.812149592850748e-05,120.00008996920153,162.4785746623087,1.274,1.02549635315424,0.0,0.0,0.0,0.0478802236363867,1.499987870203256e-07,-0.0333272350234362,5.819761874615242e-06,0.0016858511402973,4.869610567434908,29.29014635640275,16.292313292210977,39.04968351401366
0.47,31.22220860266524,131.01040717804253,6.6178810515614845,4.838450928223533,0.0011247917292402,26.253747818137555,0.0013104398935566,2.6026193242279367,331.0078106302504,16.710658191447514,7.078951441335346,69.77517236812905,8.719457259907165e-05,120.0000998741591,170.9309671061642,1.274,1.025453319323251,0.0,0.0,0.0,0.0491102725711187,1.6384464803343264e-07,-0.0355167087264168,6.3368207228363735e-06,0.0018427306558807,4.838451058652396,28.68386015667837,16.710834873319172,26.382435512333956
0.48,31.222208284201663,131.0104078313267,6.771393590864176,4.869339340099417,0.0011561785713505,25.860860976019296,0.0013165328518772,2.5543454292827983,327.20312230115803,16.911139899671,7.177575416403102,69.75482343794755,9.70562828082882e-05,120.00011062072316,175.0543877818846,1.274,1.0254092882449153,0.0,0.0,0.0,0.0496995461609974,1.7858865391586845e-07,-0.0378054080201581,6.88909442277235e-06,0.0019849793891693,4.869339477030596,28.40887970825325,16.911321511776286,25.986704537635287
0.49,31.22220796480208,131.01040848648364,6.924537656029012,4.881367714530694,0.0011829003785372,32.565703383222065,0.0013261973190012,2.5011623511055703,389.6000096981238,17.169005224738054,7.296160258358563,69.73316318155707,0.0001077573203115,120.000122255028,180.4309832312717,1.274,1.025367445590036,0.0,0.0,0.0,0.05045746454003,1.942747077649401e-07,-0.0401641298712614,7.47069711110948e-06,0.002140948887153,4.881367857509675,28.058569663954906,17.169191034294997,32.66161128464712
0.5,31.222207637929923,131.01040915697027,7.081324512896956,4.862566137860805,0.001202418260511,33.47759680712428,0.0013425340759632,2.4399894027711366,397.970310422106,17.52898693231981,7.450304424940405,69.71015149227495,0.0001193385310595,120.0001348274002,188.0736471953394,1.274,1.0253278572281015,0.0,0.0,0.0,0.0515154948878309,2.109295159784217e-07,-0.0426011733481599,8.084173008518589e-06,0.0023184335011768,4.862566286171007,27.57768313050809,17.529175807738486,33.56639745442473
0.51,31.22220730314019,131.01040984370235,7.24202048914867,4.8479762258125,0.001223054804074,25.49162310288008,0.0013562860883156,2.3767006597692686,323.39843497208153,17.86914397471067,7.597652147346554,69.68574349602717,0.0001318441288964,120.00014838524436,195.4407439266201,1.274,1.025286455263166,0.0,0.0,0.0,0.0525152689856776,2.2858192086249162e-07,-0.0451315948093539,8.734206149830708e-06,0.002503767471626,4.847976379721193,27.13799345359824,17.86933609171003,25.602178740977283
0.52,31.222206962738102,131.01041054193402,7.405210501673173,4.865306299521403,0.0012516517170965,30.733671928447727,0.0013599291289974,2.317711624364424,372.098451184342,18.08534843773428,7.701914987606457,69.65988568649581,0.0001453248538387,120.00016298000436,200.19561780583155,1.274,1.0252426840672306,0.0,0.0,0.0,0.0531507657929359,2.4726951523704535e-07,-0.0477531686556663,9.421346966092632e-06,0.0026812161964639,4.865306460134566,26.8699055233151,18.085545046726228,30.820940596104087
0.53,31.222206619320115,131.01041124632013,7.569307468221277,4.848802699234936,0.0012715119568563,32.301199055744725,0.0013711327835325,2.2490252325653923,386.55624643486095,18.41963113311156,7.8474319110539055,69.6325258319474,0.0001598315062727,120.0001786629144,207.6614205945027,1.274,1.0251993415311351,0.0,0.0,0.0,0.0541332845214831,2.67031759303889e-07,-0.0504479325599339,1.0141887756417996e-05,0.0028848299490111,4.848802865552398,26.45837260670532,18.419830861742675,32.37940050117613
0.54,31.22220626697288,131.01041196903336,7.737918664599091,4.831496690588052,0.0012913635058467,28.31291960103712,0.0013809098107221,2.177242866245296,349.2703242098436,18.75116898748492,7.992112829440902,69.60362200959217,0.0001754082864028,120.00019548734956,215.20067397992847,1.274,1.0251561018460285,0.0,0.0,0.0,0.0551077428911958,2.878941684235108e-07,-0.0532336286085667,1.090122304443916e-05,0.003098869611663,4.831496862756785,26.061835558272342,18.751371834390056,28.396510432451375
0.55,31.222205908994248,131.01041270328463,7.909026079894722,12.755903477510111,14.794421726616704,30.4011232242592,-0.9138835564803836,1.6094188870041668,365.2500005919912,21.25288039252061,8.113323699629928,69.57312211246325,0.0001921068626005,120.00021350480982,276.4492350024227,1.274,1.025112921033824,0.0,6.26600891486463,0.0,0.0624601340772573,3.0989272306468813e-07,-0.0561100530405476,1.1700476995263424e-05,0.0037020324998483,19.440775871503323,39.111542026911415,23.551045040360247,30.457408057896902
0.56,31.222205546564343,131.01041344664463,8.081909946161325,19.279561153928217,-0.0334379367732209,28.41209735324234,-0.2093923539466396,0.833826608117184,346.22656194657776,22.73535797167646,8.245531141149062,69.54097415464405,0.0002099796112633,120.00023276987916,316.35607603809626,1.274,1.0250709539098009,0.0,6.288869463612746,300.0001285565649,0.0668171208086861,3.329899590246196e-07,-0.0650818414309746,0.0110861030447479,0.0045934201298941,19.279589048063645,28.613656615276955,22.73010555314872,28.425101371506415
0.57,31.22220517944269,131.01041420523154,8.25837496244494,19.103627511298853,-0.0275065293480719,28.1230497762699,-0.2110877270808725,0.4851280447439279,343.1828296833045,23.01360862070275,8.357859928632145,69.50368479041882,0.0172040712215395,120.01837335924364,324.141527235312,1.274,1.0250279191823897,0.0,6.3115514120281855,300.0001285565649,0.0676350084510208,3.657663752669896e-07,-0.0811876261826997,0.0110509915208407,0.0058001836912528,19.103646574731656,28.333331895984816,23.00928790534244,28.12802580997955
0.58,31.22220480623234,131.0104149705444,8.436796412093203,18.92431025159125,-0.03299676822708,37.08044413945934,-0.2120611978790661,0.1230509476406629,426.12500585731766,23.297942420220767,8.474728214359068,69.45716563703235,0.0340661119450134,120.03637789419572,332.19487094738656,1.274,1.024981594484354,0.0,6.3342758069878045,300.0001285565649,0.0684707787507307,4.052825244245609e-07,-0.0975519413549835,0.0110204838174937,0.0070552632843355,18.92433796467922,28.04183241078432,23.29275930027456,37.08125468571588
0.59,31.2222044281931,131.01041574824563,8.61793770968221,18.633273720958325,-0.0382004089866012,30.081422943700595,-0.2143529169149511,-0.2750134848962924,360.68438819710633,23.71066789392581,8.639245502470862,69.40126860342286,0.0507809918000701,120.05423125685894,344.06287085261107,1.274,1.0249386802161349,0.0,6.356852319459137,300.0001285565649,0.0696838881156998,4.516409749876453e-07,-0.1141787521889149,0.0109841974994552,0.008403907568304,18.63331148828412,27.60710162421452,23.704667388158544,30.083443717561014
0.6,31.222204040845128,131.0104165446195,8.804028695509148,18.454385558917966,-0.0434887935866906,26.76562731888179,-0.2148683366128584,-0.663347616677698,329.4859594986072,23.981476120220016,8.751180585875222,69.33584333865825,0.0673178805141636,120.07190151576891,351.96080007960273,1.274,1.024891335813742,0.0,6.37937493930517,300.0001285565649,0.070479921295011,5.049355939041423e-07,-0.1311586353705532,0.0109417202462731,0.0097637629682482,18.454435016387627,27.33196449014591,23.97464491715367,26.77470829413277
0.61,31.22220365152631,131.01041734497971,8.99070036652072,18.280434449827982,-0.048708584751173,31.39135920806891,-0.2150691452573155,-1.0603343163217875,372.0984511843332,24.23831258315828,8.85804077922687,69.26068758256915,0.0836455132215579,120.08935622005072,359.53357449780793,1.274,1.0248423929069768,0.0,6.402107901928568,300.0001285565649,0.0712348961385589,5.653125105021857e-07,-0.1483746545132122,0.0108931395157189,0.0111634580509099,18.28049712521488,27.07076646701328,24.23066145747882,31.409998352907056
0.62,31.222203256680707,131.0104181566281,9.18008396497012,18.03638614520993,-0.0536746203038291,39.04689028012466,-0.2160160545337105,-1.4875393145827012,442.86563930529206,24.576506622882263,8.995496238416118,69.17566610478558,0.099733461188624,120.1065637676006,369.62989848231217,1.274,1.0247996097896497,0.0,6.42451492957992,300.0001285565649,0.0722289817435327,6.328641609314017e-07,-0.1658079707936273,0.0108383384486246,0.0126489448701656,18.036463354709657,26.722429687270715,24.56807543447392,39.07581191346303
0.63,31.22220285437309,131.01041898351855,9.373316363847032,17.723172729769175,-0.0583429967751299,22.205551566109424,-0.2177359114235119,-1.9522116847974271,286.11251274707456,25.00198426662448,9.165863173253658,69.08065447369297,0.11555192761946,120.12349315810788,382.53192659518174,1.274,1.024756158874558,0.0,6.446844364636895,300.0001285565649,0.0734795969773109,7.076702079198168e-07,-0.1835103768371736,0.0107769601787489,0.0142415018525784,17.723265676775892,26.28737186378903,24.99281977170538,22.292264571921077
0.64,31.22220244370113,131.0104198274817,9.570906228376494,17.608265907212804,-0.0635084526722126,21.83333111003136,-0.2162140801886348,-2.360428012376976,282.3078244179702,25.15051549080983,9.232872727925592,68.97549858890856,0.1310713334871417,120.14011353993637,387.0831569846122,1.274,1.024708534665538,0.0,6.469237785873208,300.0001285565649,0.0739162876737294,7.898313175187049e-07,-0.2015380257646674,0.010708562116966,0.0157331736813729,17.608376807574476,26.130720287070623,25.1405396084348,21.961619163676183
0.65,31.2222020348416,131.01042066766655,9.76683223990275,17.430506986522595,-0.0684200291120246,38.51008705194607,-0.2153459575029341,-2.7953450619992184,436.7781447787504,25.373895224431752,9.328269964157997,68.86001216264495,0.1462622260826213,120.15639409191492,393.98220494736574,1.274,1.0246641738210605,0.0,6.491744138973968,300.0001285565649,0.074572955970917,8.795023896513268e-07,-0.2196678514748314,0.010633807918752,0.0173004707263837,17.43063710227008,25.895556770840614,25.363147833945224,38.61200762257152
0.66,31.222201618647464,131.01042152280166,9.966478926198135,17.07683164688171,-0.0726072468174547,32.80200618825824,-0.2168664606993118,-3.3138577169039207,383.5125151715984,25.837470335386225,9.514910841324175,68.73413675940611,0.1610981282975267,120.1723070928362,408.5018034116807,1.274,1.0246195561629028,0.0,6.51368187615147,300.0001285565649,0.0759355574042358,9.767190368553954e-07,-0.2379461336430487,0.0105523786469156,0.0190820308207937,17.07698140404303,25.427372979141573,25.826065218778822,32.96968750237394
0.67,31.222201190930043,131.01042240142417,10.172235479616369,16.830656870121032,-0.0770956936099786,22.662622390161022,-0.2164200597951324,-3.8003638450493216,289.15624401033847,26.13984787638164,9.641177589429963,68.59778742410916,0.1755533893390473,120.18782557920191,418.11093608800536,1.274,1.024572383541697,0.0,6.535663593697918,300.0001285565649,0.0768244143370472,1.0815183548677353e-06,-0.2565421291291684,0.0104632920172152,0.0208136918016856,16.83082833593025,25.114491060480024,26.1277377168026,22.98007956026409
0.68,31.222200761715303,131.01042328302614,10.378247040622668,16.65600718441644,-0.0818187873334838,28.271992667824925,-0.214519272217889,-4.257932654889387,340.89999248584934,26.3241972620706,9.723010707376364,68.45078220416214,0.1896016576584,120.20292169028885,424.02073758552734,1.274,1.0245245285832842,0.0,6.557930299196255,300.0001285565649,0.0773663927683968,1.194050410458789e-06,-0.2753189495896494,0.010366949881856,0.0224941723297639,16.6562024482307,24.907850136935085,26.31134520137797,28.59163476300844
0.69,31.22220032952209,131.010424170641,10.585385049457631,16.388663984046204,-0.0860602282686215,34.78148073573501,-0.2137584292297271,-4.768729199148841,401.0140726853658,26.63751260381888,9.854801778949112,68.29301760596253,0.2032193215975114,120.21757037968833,434.165711778446,1.274,1.024479631064582,0.0,6.579847561816983,300.0001285565649,0.0782874044677935,1.3144083407507677e-06,-0.2941740204428311,0.0102637062582228,0.0243202549472338,16.388883746199564,24.581070459814864,26.62399429985726,35.107518753269744
0.7,31.222199888563527,131.010425076066,10.796927186524112,16.07350947490138,-0.0899733252721155,29.22115951858101,-0.2134331069345336,-5.317879170586234,349.270324209851,27.017701227820844,10.013213957494523,68.12444891887282,0.2163855465124767,120.2317494378275,446.6384967146712,1.274,1.0244351749185203,0.0,6.601540833832629,300.00012855656485,0.0794049648379863,1.4426121744781705e-06,-0.3131889845719845,0.0101529363190046,0.0262612981585111,16.073754650099204,24.19559018177213,27.003568256744657,29.70187799070032
0.71,31.22219944035036,131.01042599619782,11.011953946456073,15.821293958165736,-0.0941219929881379,24.067770003988187,-0.2117202317656725,-5.837560057551449,301.3312640634036,27.286856957861566,10.129587624851077,67.94498464504686,0.2290800332226523,120.24543706141016,455.57242025122366,1.274,1.0243880468141104,0.0,6.623342716767193,300.0001285565649,0.0801962074841441,1.5787228854971428e-06,-0.3323966066669032,0.0100342074753077,0.028148965925981,15.82156677269563,23.90571890268016,27.272072316425547,24.766499265074437
0.72,31.222198989126458,131.01042692238087,11.228056778412888,15.589508765207109,-0.098320625788839,29.42438756576109,-0.2092997038024634,-6.346210682177582,350.7922053414578,27.508541000206726,10.228257163999393,67.75451451291785,0.2412835471710671,120.25861242110896,462.9952094172175,1.274,1.024337302174265,0.0,6.645106527468364,300.0001285565649,0.0808479350878867,1.7228445178422424e-06,-0.3516971305943494,0.009907902878945,0.0300247720597399,15.589811119626784,23.65277265467784,27.49309684000279,30.101707260697232
0.73,31.22219853340999,131.01042785763187,11.446057136701192,15.290290622056853,-0.1020535514183191,37.15945179258557,-0.2076386790128817,-6.90649866811146,422.3203185282354,27.83249965485007,10.367920684470144,67.55298541963613,0.2529798956268562,120.27125779733753,473.95457178402864,1.274,1.024292465384646,0.0,6.666642018549122,300.0001285565649,0.0818002546778587,1.8750327139380835e-06,-0.371038684968814,0.0097741763632458,0.0320483481625108,15.290623068108768,23.31296784302776,27.81646912895597,37.7963979130173
0.74,31.222198069417125,131.01042880963757,11.667996419160112,14.937408510805728,-0.1053552031349046,23.357610163512632,-0.2065129167481061,-7.5182380857368125,294.4828134710563,28.242904188080704,10.542970149630104,67.34037398787943,0.2641554226663956,120.28335802974784,488.0246309363421,1.274,1.0242470321640116,0.0,6.688033710139978,300.00012855656485,0.0830066493749382,2.0352940657623786e-06,-0.3904768215844771,0.0096324382243358,0.0342239081754125,14.93777159133444,22.90476910166564,28.226355040797312,24.538632888758006
0.75,31.22219759688173,131.01042977891967,11.893947038137004,14.707694492249194,-0.1093885911267458,27.22559458031772,-0.2028582930409396,-8.030997054971401,330.24688556441737,28.416487757261944,10.625089369075472,67.11662500717156,0.2747973331531771,120.29489869643074,494.0312377089379,1.274,1.0241984712898409,0.0,6.709463764113923,300.0001285565649,0.0835170290152482,2.2036583488474453e-06,-0.4100528445917224,0.0094821091323873,0.0361597812163575,14.708092301663122,22.6809838241584,28.39930504798696,28.386106908765072
0.76,31.222197125105136,131.01043074657036,12.118864809956404,14.404188076251264,-0.1128524378625773,29.27815250145609,-0.2000990570164068,-8.607413863652289,349.2703242098581,28.713213313719567,10.757410771697504,66.88165958464144,0.2848937702734785,120.30586618643692,504.3915794138092,1.274,1.0241522053390697,0.0,6.730910178854806,300.0001285565649,0.0843893297079579,2.3802472566657145e-06,-0.4295760930673336,0.0093244253580229,0.0382761358673532,14.404620799026535,22.359602333826743,28.695486505695012,30.517828018247496
0.77,31.2221966435882,131.01043173391457,12.348360971922224,14.087674179976132,-0.1161418305772214,27.377209784385585,-0.197151560737202,-9.19776327883858,331.76876669606884,29.02129202362028,10.895735437033949,66.63550810225028,0.2944377991075063,120.3162520555861,515.2620394780631,1.274,1.0241065975906936,0.0,6.751936767254772,300.0001285565649,0.0852950067093744,2.5650209430158927e-06,-0.449113785651876,0.0091586482935173,0.040445456762866,14.08814323461393,22.028350876040065,29.00304852002813,28.88164354135184
0.78,31.222196156533336,131.01043273240091,12.580122630686237,13.7832296950582,-0.1194452397169978,22.508323589388823,-0.1935783122511703,-9.776052588383465,286.8734378128874,29.292410893755328,11.02033669962758,66.37816240020119,0.3034230230447037,120.32604823374987,524.9225512460137,1.274,1.0240588105546735,0.0,6.773069507767715,300.0001285565649,0.0860920635309428,2.757993494320507e-06,-0.4686502113456046,0.0089846633121605,0.0425981642823211,13.783737218497686,21.723157747374124,29.27364849296559,24.54044228571381
0.79,31.22219566453761,131.010433740813,12.813809952020124,13.500542797622572,-0.12286231034286,31.87181127637453,-0.1891994731382901,-10.325320830715173,373.6203323159581,29.50234266160145,11.1210386930335,66.10962332597377,0.311844917401852,120.33524849569584,532.4615544664841,1.274,1.0240083170932772,0.0,6.794091081424446,300.00012855656485,0.0867092935572608,2.9591865167972462e-06,-0.488137034538211,0.0088026635902949,0.0446864098778032,13.501091458555386,21.459297816282152,29.48304350981302,33.50314016229928
0.8,31.222195168718688,131.01043475688013,13.048822013493805,13.135362447768216,-0.1254980854771494,32.25513332784649,-0.1858849390663298,-10.96839698641332,377.42502064505805,29.87300574013601,11.289836766962862,65.82991941656111,0.3197013985563371,120.34384908392452,545.9128199105104,1.274,1.0239625010683884,0.0,6.814937874819636,300.0001285565649,0.0877989291161815,3.168611232829576e-06,-0.5075098241352995,0.0086130441636488,0.0470425416185027,13.135951412305914,21.081857805854124,29.85329256273012,34.06954522237251
0.81,31.222194662055127,131.01043579481836,13.288672159282005,12.782845319489455,-0.1281539328343277,21.02109137428483,-0.1818954675657465,-11.59702869312028,273.9374926939922,30.204469188008623,11.444177975218835,65.53911613623085,0.3269931118605717,120.35184904445534,558.0818017435704,1.274,1.0239149950770308,0.0,6.83558465656678,300.0001285565649,0.0887733644383335,3.386178586525523e-06,-0.5268509323423898,0.008414735665507,0.0493760517475419,12.783477011076382,20.7323148721161,30.184338832097488,24.008549373841976
0.82,31.22219415029659,131.01043684296744,13.530379537842206,12.495485305497766,-0.1313583978786915,26.91238342804856,-0.1762810600453016,-12.13011367933155,328.725004432774,30.37068058509504,11.530125464821388,65.23723174002849,0.3337204299160446,120.3592469220784,564.2277125306691,1.274,1.0238644186635044,0.0,6.85634687142867,300.0001285565649,0.0892621165216471,3.6118979806174328e-06,-0.5461062463193614,0.0082079792171325,0.0514610906494107,12.49616475625094,20.491275376438995,30.350046874282658,29.52028310609402
0.83,31.22219363718412,131.0104378937566,13.772095381461824,12.14032190561695,-0.1338301054295826,34.1135785265089,-0.1714923846114287,-12.74878621924587,395.6875032246518,30.678629178071606,11.677922904543015,64.92431548593233,0.3398860122007715,120.36604358777753,575.7145208098848,1.274,1.0238188483711983,0.0,6.876963454395421,300.0001285565649,0.0901674505712635,3.84580750966713e-06,-0.5651435752866675,0.0079939704156222,0.0537937699890321,12.141048456460354,20.156299439146625,30.65760721338473,36.418363494071265
0.84,31.222193113579475,131.010438965668,14.01825001067478,11.7483763814724,-0.1358249843187625,21.033524843911,-0.1669302472921855,-13.420458586011026,275.45937482564227,31.064245582346647,11.86139649756932,64.60049238687228,0.3454964108469039,120.3722440399301,590.26446542491,1.274,1.0237739661568126,0.0,6.897281326374445,300.0001285565649,0.0913010679440155,4.087770517174658e-06,-0.5840266965528161,0.0077717451719126,0.0562886044195297,11.749150469162249,19.773650509051933,31.04291026368423,24.950866552601322
0.85,31.222192581385404,131.0104400548352,14.267799810205307,11.438756847831725,-0.1386411153666842,22.867111216190075,-0.1603916409534392,-13.947122284447838,292.9609323393965,31.223783277233103,11.948201070798218,64.26585089097583,0.3505578568310261,120.37785274732828,596.3286250696376,1.274,1.0237227741398531,0.0,6.917674528789494,300.0001285565649,0.0917702243030736,4.337695017914117e-06,-0.6027728535881876,0.0075407516667556,0.0583923255239676,11.439585811046014,19.530833794800436,31.20200560300901,26.78530792933759
0.86,31.22219204989536,131.01044114247205,14.51631527103106,11.086596342989068,-0.1409149617882538,28.56687715782249,-0.1542359801646748,-14.529452438483151,346.2265619465616,31.47527207175456,12.076829567739168,63.92046954883018,0.3550770335406491,120.38287450665048,605.9589857105975,1.274,1.023674789281455,0.0,6.938023478377295,300.0001285565649,0.092509637649393,4.595633219084693e-06,-0.6212165511505303,0.0073027771305,0.0606622771302275,11.087480645009952,19.231187760904945,31.453137223632694,32.04988685549204
0.87,31.222191509055992,131.010442248891,14.768501595735952,10.700735076337487,-0.1427018130633176,26.50547934181589,-0.1482679993374914,-15.161333549923276,327.9640783669946,31.80261362223295,12.241368828999008,63.56452175705351,0.3590650286043484,120.38731887720908,618.6134411894059,1.274,1.0236288969245204,0.0,6.957996368748617,300.0001285565649,0.0934720000781591,4.861422328064648e-06,-0.6393856573986382,0.0070572211630758,0.0630843136918251,10.701675460539825,18.88769098026387,31.78019809702884,30.535691470000895
0.88,31.22219096008297,131.0104433716212,15.0236735567398,10.329578242334955,-0.1445839310986536,22.78640654533809,-0.1415862032697937,-15.751402503015155,294.4828134710421,32.07294124558964,12.382435095774058,63.19816491903849,0.3625329266695075,120.39119527593428,629.1593585858432,1.274,1.0235805388426191,0.0,6.9779786499996845,300.0001285565649,0.0942667993673239,5.1349109944911694e-06,-0.6572927794725365,0.0068035832871322,0.0654007437503937,10.33057908350994,18.57893853905603,32.05023007890498,27.70102977714682
0.89,31.222190406363463,131.01044450381886,15.280239789702904,9.966632048741396,-0.14650184231574,24.91826014751896,-0.1343311019949026,-16.30472523055864,315.02813424808807,32.29983804931205,12.50559984443084,62.82154920661356,0.3654919558780241,120.39451315313848,638.0769735262558,1.274,1.0235293752791452,0.0,6.997913510907396,300.0001285565649,0.0949339551886869,5.416019351687987e-06,-0.6748746637358796,0.0065424361743104,0.0676235249548029,9.96769784189848,18.295603802569524,32.276825618809895,29.778881753155375
0.9,31.22218984735957,131.01044564656755,15.538417689008268,9.581289552228917,-0.1480329094498435,27.45337824108245,-0.1270806173701868,-16.887871826952473,339.3781423542166,32.57780143258991,12.65428138256254,62.43486103199632,0.3679551290432308,120.39728385009718,649.0903588009077,1.274,1.0234837388140003,0.0,7.017677625400061,300.0001285565649,0.0957512092063538,5.704634333581757e-06,-0.6920778528954222,0.0062742825771851,0.0699423615197154,9.582422375220682,17.985822823190496,32.55454850341915,32.232039047736734
0.91,31.222189280236368,131.01044680557987,15.79938831191832,9.18238476910228,-0.1492747984571201,20.65035380235392,-0.119659089531009,-17.485442065097285,277.7421810230785,32.88418529923794,12.818591341416669,62.03831743189723,0.3699369125115458,120.39952025288282,661.3401712752781,1.274,1.023436404813438,0.0,7.037290687358781,300.0001285565649,0.0966520034818041,6.000562409852864e-06,-0.7088980560800483,0.0059988613176917,0.0723141949410496,9.183587638418809,17.663883916738378,32.86073729525466,27.059048665316634
0.92,31.22218870550868,131.01044797980958,16.062841782832034,8.81044278878031,-0.1508499758206791,24.576272997563105,-0.1113385993426786,-17.98914674751364,315.0281342480675,33.07892643064118,12.932373437439768,61.63213788967399,0.3714518963822449,120.40123530666185,669.1793859918022,1.274,1.0233859136578225,0.0,7.056843430850259,300.0001285565649,0.0972246685463467,6.30361475255144e-06,-0.7253169136813176,0.0057160930273643,0.0744253535271307,8.811723906742788,17.40283477054685,33.05523099922486,30.456772505274316
0.93,31.22218812799064,131.01044915954807,16.32669586741653,8.407303110786057,-0.1518409706887554,29.23631577991109,-0.103210947136172,-18.552998877155527,359.16250706547066,33.366971581635234,13.092737449814896,61.21655239343079,0.3725149924674356,120.40244224873976,680.867053518538,1.274,1.0233407575091376,0.0,7.07631224720659,300.0001285565649,0.0980715748766317,6.613685336107166e-06,-0.7412484300644249,0.0054271507263647,0.0767204723715015,8.40866431526463,17.09733139655499,33.34312048565212,34.62638560719298
0.94,31.22218754033941,131.01045035959203,16.59397526930988,7.986973697132368,-0.152434371251845,20.83360938594848,-0.0949867663673224,-19.147151413039,283.06875048378083,33.70637550261276,13.28071130880226,60.79184021556888,0.3731430713102579,120.40315651023975,694.7710248673411,1.274,1.0232914783978162,0.0,7.095545865097216,300.0001285565649,0.0990694432587265,6.930489679267112e-06,-0.7567052803917627,0.0051314317844787,0.079114914190855,7.988418765397258,16.77151655872564,33.68243119581576,28.29596631617141
0.95,31.22218694391193,131.01045157719818,16.86400252603484,7.598555002792049,-0.1535084597477215,27.13586309673821,-0.0858119490771464,-19.611893919762124,342.421873617488,33.89978938812154,13.399682064422011,60.35827334559466,0.3733522842293091,120.40339266563248,702.7491453476982,1.274,1.0232418269359267,0.0,7.114767468128661,300.0001285565649,0.0996382269969035,7.253766746417677e-06,-0.7716756360370128,0.0048286862956089,0.0811409462555959,7.600096358757781,16.521107067411464,33.87567636449947,33.48117101917921
0.96,31.22218634544424,131.01045279879455,17.134026896617193,7.173928775197958,-0.1538011652132405,26.4020450085256,-0.076922632659988,-20.1724559253215,337.09533515678265,34.23027123678796,13.588842580155928,59.91613053484276,0.3731585438926576,120.40316498760448,716.4992569238856,1.274,1.0231951201821403,0.0,7.133926632099003,300.00012855656485,0.1006098854459988,7.583398865074378e-06,-0.7860634407957721,0.0045204963193256,0.0834574201046283,7.175568627420242,16.211391129727197,34.206112235264214,33.22652367887236
0.97,31.222185734217742,131.0104540459675,17.40825386342989,6.7551716498758045,-0.1540996949568136,16.23429460105726,-0.0675554822048486,-20.68528279385012,245.0218871929888,34.52043882447932,13.76076685623842,59.46574559250973,0.3725797797289082,120.4024900899695,728.6789789927435,1.274,1.0231476260761452,0.0,7.152830367095431,300.0001285565649,0.1014630622706005,7.919001158857998e-06,-0.7998919830650231,0.0042058707242621,0.0856432679899189,6.756920941038769,15.927140326906024,34.49623293018239,26.29520506097347
0.98,31.222185117225816,131.01045530462693,17.683837333106986,6.362269503124211,-0.1548638026591095,24.17579778148705,-0.0574464926427758,-21.0574290226938,319.593746642963,34.664844368276164,13.860780870487131,59.00743894834252,0.3716324803006995,120.4013829231914,734.7686873571594,1.274,1.0230935628253934,0.0,7.171769108347214,300.0001285565649,0.1018878183255159,8.260334228779834e-06,-0.8131094341908554,0.0038854679953673,0.0874203093645104,6.364146240754229,15.714216499735045,34.6405184486583,32.060689567079784
0.99,31.222184498324424,131.01045656701044,17.95930737452661,5.932726218407413,-0.1546969487502019,26.39990577078988,-0.0476532798833238,-21.55316544775389,341.66094855170127,34.979970169755006,14.050824823152414,58.54156072570192,0.3703337353343411,120.39985916748432,748.1686571497268,1.274,1.0230490803133316,0.0,7.190554185200914,300.0001285565649,0.1028143639036584,8.607230204574506e-06,-0.8256327856269519,0.0035609636341835,0.0895713169129736,5.934735540850207,15.433305123097336,34.95567045939223,34.08073115940913
1.0,31.222183865743148,131.01045785681012,18.23902272013424,5.502278444171174,-0.1543720158549415,23.24097844040657,-0.0375485380832477,-22.026005972210687,314.2672081822764,35.290802878021935,14.241883979213911,58.06850862707716,0.3687022204663614,120.39793643285412,761.5037588970829,1.274,1.022999484445133,0.0,7.209091154525417,300.0001285565649,0.1037283017609791,8.95919843436045e-06,-0.8374896140377559,0.0032310915452422,0.0916625417812749,5.504436891566234,15.16334500358218,35.26655420781334,32.02014097170742
1.01,31.222183226149447,131.0104591605997,18.52038426841772,5.0793493655921536,-0.1541123895104765,24.21599377900288,-0.0270431439137037,-22.42864163615376,324.92031610370094,35.54561461266306,14.406214388318736,57.58866451907775,0.3667546645931306,120.39563010614266,772.5192208568432,1.274,1.0229507481225095,0.0,7.227673064950466,300.00012855656485,0.1044775874652017,9.315907008784078e-06,-0.8486433320417638,0.0028962296438692,0.0935514283101547,5.081680662383289,14.926008492893216,35.521406724317515,33.00695459565073
1.02,31.222182580222235,131.01046047701283,18.80311967909557,4.64959832786022,-0.153534438940853,19.63810249367658,-0.0163728670734042,-22.83583522089596,284.59063161543185,35.832804558018495,14.59057070152152,57.102431237270366,0.3645077599120056,120.39295561610028,785.0314328160711,1.274,1.0229039803623294,0.0,7.246127416038984,300.0001285565649,0.1053220476460214,9.67705725754343e-06,-0.8590440544292258,0.0025572810688017,0.0954604847355784,4.652127004470352,14.685162439045287,35.80868745360896,30.118610656184572
1.03,31.222181924605657,131.01046181280103,19.088361424530223,4.228056388978778,-0.1530759279057881,15.388491652928169,-0.0053690328225538,-23.154807361231818,247.3046933904342,36.048836672871325,14.739138945356173,56.61024019949394,0.3619786135235879,120.3899289888386,794.5039401400006,1.274,1.022853416101322,0.0,7.264439287334115,300.0001285565649,0.1059573639450732,1.0042235741893135e-05,-0.8686679456431775,0.0022143241636638,0.0971092389674051,4.230821494620701,14.482697542285756,36.024791590948944,27.801992880268646
1.04,31.22218126409565,131.01046315831255,19.37436857714337,3.809360796637956,-0.1525925049682463,25.881601263951968,0.005825070853088,-23.411420336402088,345.4656368807608,36.22627139482707,14.868749344263808,56.11253646015463,0.3591837814724583,120.38656570647872,802.3223489733692,1.274,1.0228049544826707,0.0,7.2826833475042685,300.0001285565649,0.1064792366234741,1.0411123073537424e-05,-0.8774669366594353,0.0018684481138833,0.0985729985682706,3.812411288504388,14.305334649868948,36.20230224853199,34.899167899612614
1.05,31.222180597803,131.0104645153367,19.6614221241778,3.369645717085897,-0.1511750300062171,14.24815715645027,0.0170025836573286,-23.801296246310336,240.4562587980608,36.58400610676368,15.101268811072789,55.60979261875061,0.3561402125345363,120.38288186848408,818.2239080766373,1.274,1.022755494436122,0.0,7.30074525929803,300.0001285565649,0.1075310682121879,1.0783345657631788e-05,-0.8854064989731834,0.0015204580000697,0.1004443616832652,3.373031247025002,14.070866283139235,36.56025961613265,27.740078847173137
1.06,31.22217991636792,131.01046590270377,19.952562672723747,2.952619016463897,-0.150496172391549,21.430748304774347,0.0285075688564567,-23.95956181946181,308.1796836557233,36.71739607426889,15.21075485555964,55.10250106905062,0.3528648293786372,120.37889371976507,824.1784371719126,1.274,1.0227013895379469,0.0,7.318648244272025,300.0001285565649,0.1079234947953074,1.1158253687459576e-05,-0.892492551455746,0.0011690538838994,0.1016145568204852,2.9564485622836494,13.932205677132655,36.693756217973096,32.145581160786044
1.07,31.222179236962265,131.010467285865,20.24205748983479,2.5203251461937426,-0.1489502507479616,25.62651936812512,0.0400425859066448,-24.23827112552994,348.5093681440431,37.018617917986624,15.4179611868983,54.59115076338402,0.3493725519157141,120.37461521957788,837.7333880023887,1.274,1.0226540159946436,0.0,7.336585551370079,300.0001285565649,0.1088092320317553,1.1535670464183084e-05,-0.8986593892922128,0.0008168600839716,0.1031531973346127,2.524719926690684,13.744228724462747,36.99522089366564,35.27341613011527
1.08,31.222178541813594,131.0104687005774,20.535653351228927,2.0875252754885367,-0.147113128317996,15.892812824485686,0.0517605051141787,-24.511881671774542,261.0015785751465,37.348875161377165,15.645531375752988,54.0762683574513,0.3456798625218927,120.3700624568292,852.7234974312406,1.274,1.0226061614050743,0.0,7.354205494248825,300.0001285565649,0.1097803244857498,1.191491648854298e-05,-0.9039069442999492,0.0004627446765507,0.1046782323023384,2.092700282202262,13.55975166892884,37.32576671060951,29.21329357869638
1.09,31.222177837346525,131.01047013391508,20.831149670021723,1.6668220792747377,-0.1457425416363467,14.125552952635896,0.0635340580892383,-24.60169474376844,246.54375332456465,37.514495460285424,15.779972729477704,53.55838050048804,0.3418013647121559,120.36524939855757,860.2785033794371,1.274,1.0225512795791307,0.0,7.3718629601696835,300.0001285565649,0.110267503346398,1.2295468356028727e-05,-0.9082080082411738,0.0001069344793294,0.1056397200044858,1.6731798289133184,13.446680658365988,37.4916023000672,28.368621169521468
1.1,31.22217713099767,131.0104715709174,21.12622112015667,1.2453631970078485,-0.1440909226625165,32.107105742504494,0.0753295242106743,-24.678614287168056,413.1890617384087,37.70429486471226,15.930723607257187,53.03802942646837,0.3377510459204339,120.36018945291605,868.9808161400857,1.274,1.0224981043155532,0.0,7.389424341438867,300.0001285565649,0.110825755546838,1.2677043808436924e-05,-0.9115233153018624,-0.0002484993010533,0.1065587459808198,1.2536699791891184,13.338312400568247,37.68166113936593,40.495751836858126
1.11,31.222176415376623,131.01047302645424,21.42311571657933,0.8155135010381049,-0.1412068754073249,22.206399427436576,0.0875350339019507,-24.976696793162343,324.1593910379213,38.17449607429682,16.252566859762492,52.51577988805289,0.3335437049407683,120.35489728212094,890.7642603966871,1.274,1.0224548851875197,0.0,7.406755512949059,300.0001285565649,0.1122082128610051,1.3059097880806331e-05,-0.9138360956818644,-0.0006032690167468,0.1081582701490428,0.8276474524310353,13.149390954171364,38.15231537262986,33.42105953752187
1.12,31.22217567842762,131.01047452478457,21.72528641589601,0.3973456225919933,-0.139037688962509,5.5089161198680205,0.0995724175743855,-25.021074599792573,172.7328179403806,38.40833107593182,16.435672936942478,51.99220625413778,0.3291934134150164,120.34938689976056,901.6841311105128,1.274,1.0223979224661404,0.0,7.42399327939117,300.0001285565649,0.1128959207716667,1.3440705051447138e-05,-0.915128910876365,-0.000959436365723,0.1089715728248728,0.4209687789302665,13.054714456567366,38.38649110825585,25.620543429257477
1.13,31.222174942119537,131.01047602170615,22.0261706151263,-0.0153769337418424,-0.1374034969899454,26.59524071202728,0.1111785453972845,-24.845587579793623,367.5328077894322,38.44321198766497,16.498634556338097,51.46789282382292,0.324711830699526,120.34366948407757,903.2965161069465,1.274,1.0223460397860296,0.0,7.441336358475379,300.0001285565649,0.1129988320000372,1.382165410554203e-05,-0.9153714978295648,-0.0013142368073104,0.1090962964852154,0.1382612404935084,13.038870213553835,38.42162871751682,36.39536249832972
1.14,31.222174205280776,131.01047751957594,22.32620452940303,-0.4281993727781318,-0.1341663779464469,12.472087411563766,0.1235698392269923,-24.99819476574464,239.6953177322812,38.8795333417988,16.812507219924452,50.943441272320506,0.3201118305857032,120.33775802716812,923.89065377077,1.274,1.0223022138470996,0.0,7.458409921192614,300.0001285565649,0.1142817289149035,1.4201695340888184e-05,-0.9145565482210628,-0.0016652857415374,0.1102331066774819,0.4487259572251255,12.906287522360149,38.85845855569295,27.937035910292213
1.15,31.22217344161294,131.01047907132116,22.63271488123281,-0.8363689065182287,-0.1318591946415698,12.070554204774211,0.1352190595314466,-24.823359755249967,237.4125115347709,39.00021379200168,16.93255110609623,50.41945750536261,0.3154069986283623,120.3316667570112,929.6076223571392,1.274,1.0222426194541194,0.0,7.475246907798377,300.0001285565649,0.1146368511444757,1.4579658869962956e-05,-0.9126492248496336,-0.0020156475662809,0.110341410440562,0.8466986240877495,12.889346922940575,38.97950141642527,27.602821459825744
1.16,31.22217268520632,131.01048060833617,22.936085428224366,-1.2398743556198717,-0.1291498191350928,39.511407278992365,0.1468990313740109,-24.669457049663407,490.043774385954,39.1872293696489,17.096224857364138,49.896567278782406,0.3106079124056648,120.32540625719297,938.517042330906,1.274,1.02219674531104,0.0,7.492256693618273,300.00012855656485,0.1151869572570764,1.4955454617926803e-05,-0.9096558075123232,-0.0023619082797246,0.1105036579096451,1.2465815215261378,12.864298305271136,39.166942580677805,46.580628974038305
