Time,Latitude,Longitude,Altitude,Angle of Attack,Angle of Sideslip,X-Acceleration,Y-Acceleration,Z-Acceleration,Thrust,True Velocity,Ground Velocity,Pitch,Roll,Yaw,Dynamic Pressure,cp,cg,parachute_deploy_gain,Wind Speed,Wind Direction,Mach,omega_x,omega_y,omega_z,Cmq,Angle of Attack(total),Angle of Attack(gust),True Velocity(gust),Acceleration
0.0,31.222216000000007,131.010392,3.000000004412624,0.0,0.0,0.0,0.0,0.0,2.2828121974499247,0.0,0.0,69.99999999623412,0.0,119.9999999935444,0.0,1.274,1.0271675151847728,0.0,0.0,0.0,0.0,0.0,0.0,0.0,-0.0,0.0,90.0,0.0,0.0
0.01,31.22221599999084,131.01039200000497,3.000002745347096,0.0,0.0,0.0,0.0,0.0,34.242186961749226,3.465174813755316e-14,2.8705476994166025e-14,69.9999999962611,-2.1713911667908447e-11,119.99999999352175,7.352495975525499e-28,1.274,1.0271659134330349,0.0,0.0,0.0,1.0183245502395064e-16,-3.3305335486039093e-18,7.169286865560398e-18,5.624298769768554e-18,-7.715917190115602e-34,0.0,89.99999999999979,3.465174813755316e-14,0.0
0.02,31.222215999994315,131.0103920000094,3.0000030495639742,0.0,0.0,0.0,0.0,0.0,25.871876237766216,3.8197434737535036e-11,2.4171837235633357e-11,69.99999999628672,-1.1921727947863515e-11,119.99999999353136,8.93414285188691e-22,1.274,1.027164492361118,0.0,0.0,0.0,1.1225230367947217e-13,-6.657678965418802e-18,1.4338573731120796e-17,1.1241821275959074e-17,-1.7010872994127372e-30,0.0,89.99999999975682,3.8197434737535036e-11,0.0
0.03,31.222215999994315,131.0103920000094,3.0000030495639742,0.0,0.0,9.81877837424427,-2.5122800045972096e-05,3.3498614629347925,180.34219359854663,1.2659015405517447e-10,1.1364406173918436e-10,69.99999999631459,-1.6431898037347223e-11,119.99999999352724,9.812605835254651e-21,1.274,1.0271551940870716,0.0,0.0,0.0,3.720154642239108e-13,-9.991600645811728e-18,2.150108433310316e-17,1.6859343782149594e-17,-8.453698244545225e-30,0.0,89.99999999919412,1.2659015405517447e-10,10.374487003414373
0.04,31.222215999994315,131.0103920000094,3.0000030495639742,18.83801224594347,-0.0001111777826462,48.68248476615645,-1.016330065874988e-05,3.3497854396877287,548.635972453808,0.1556173050466994,0.0975908358443652,69.99999999633813,-2.0932768807056278e-11,119.99999999352085,0.0148286043323172,1.274,1.027133720825283,0.0,0.0,0.0,0.0004573186944143,-1.3322134194415637e-17,-1.04744143520903e-11,1.336824254131964e-11,5.0626055458604615e-15,18.83801224625964,89.06236267790787,0.1555998412814392,48.79759610369246
0.05,31.22221599164764,131.01039201704114,3.002326315126219,5.772385609593056,-4.395076213712875e-06,71.20344550265034,4.905512691849684e-05,3.349217396035405,761.6984298824663,0.8326471944351852,0.3620326097059287,70.00000001316391,-1.0866255162484559e-10,120.00000000231074,0.4245281043148827,1.274,1.027093426565204,0.0,0.0,0.0,0.0024469331205246,-5.0245994431125096e-18,-7.32924164976824e-07,2.217344936947165e-11,1.895424184525467e-09,5.772385609594774,84.74112356985832,0.8326465040582279,71.28217104309611
0.06,31.22221596664444,131.01039206837547,3.015081730143309,4.056581213689704,3.169093567502233e-05,53.16249142470188,0.0001203825427859,3.3481235983850643,590.4875390737236,1.657216205300742,0.6755452977614796,69.99999964391398,-3.9285905645317736e-10,120.0000000287861,1.6816755551786196,1.274,1.027050317124926,0.0,0.0,0.0,0.0048701272653724,3.095757869075056e-13,-7.483541766772344e-06,3.074135420506017e-11,3.8518749565858254e-08,4.056581213813337,79.59316473687034,1.657221183301277,53.26781792157489
0.07,31.22221592883117,131.0103921460222,3.034593611434361,4.115662018628709,6.450869598349036e-05,81.18203554989698,0.0001593212642178,3.347059402768047,855.2937749779172,2.099899704220947,0.8579771146174259,69.99999543281565,-8.233801910783518e-10,120.00000006883089,2.700101932075157,1.274,1.027003201295312,0.0,0.0,0.0,0.006171060252819,3.4704292086287e-12,-2.6327204536316785e-05,1.9541142932033486e-10,1.7170712165327165e-07,4.115662019133419,76.90111966094352,2.099909837223217,81.2510043180746
0.08,31.22221588914193,131.01039222747755,3.0542761843835606,3.459696193892355,8.037433511260004e-05,16.298214211652088,0.0002413456836072,3.344878926597744,241.2171988638792,3.051964775152957,1.2149999716613011,69.99998042886442,-1.0128995578004475e-09,120.00000011111383,5.703497661025892,1.274,1.0269597189470347,0.0,0.0,0.0,0.0089689344021769,1.458982438104473e-11,-5.702803872814215e-05,7.043261397829576e-10,5.405702492731987e-07,3.459696194824858,71.30331929508368,3.051977400323993,16.63790856991177
0.09,31.2222158241468,131.01039236098703,3.0886872184095737,4.313676956300389,0.0001337561018991,50.35975918308536,0.0002293282821279,3.344215841840564,563.0937377043203,2.893161298572128,1.191209213966114,69.99994788602814,-7.098432023887522e-10,120.00000018106356,5.125380275808925,1.274,1.026918932011013,0.0,0.0,0.0,0.0085022553945842,3.8672912027154325e-11,-0.0001115933708951,2.016054215232918e-09,1.0027525988343615e-06,4.313676958370176,72.2316578138625,2.893182308931483,50.47067588835877
0.1,31.2222157788302,131.01039245392113,3.109877853389092,4.035124630954496,0.0001457499816535,47.804664812504015,0.0002878217657545,3.341734392237128,538.7437595981891,3.5677148583138303,1.4531247507621967,69.99988403958329,1.9248461973355822e-09,120.0000002323013,7.7939962029572305,1.274,1.0268846934974103,0.0,0.0,0.0,0.0104845969583028,8.579678749070606e-11,-0.0001726817043215,3.984565639703107e-09,1.913455350430327e-06,4.0351246335824245,68.43243098813296,3.567737752667411,47.92132267234452
0.11,31.222215703308,131.01039260899836,3.148841432727305,4.043401107254707,0.0001752764476999,37.67622367577205,0.0003286462930162,3.3392563999062723,442.86563930529127,4.034183355956686,1.6436552022667772,69.99978525353545,7.302513231814865e-09,120.00000031883242,9.96528118825134,1.274,1.026848594915519,0.0,0.0,0.0,0.0118554331868328,1.5870341853361987e-10,-0.0002596204409236,7.232030302688121e-09,3.252930323390323e-06,4.04340111104746,65.92012987243639,4.034210888316708,37.82391391539392
0.12,31.222215627491828,131.01039276462643,3.186995101203875,4.17874459224363,0.0002066711490009,41.15991989399172,0.0003576945202315,3.336766085769504,475.58594813540793,4.361857560629481,1.7865750500940407,69.99963665601238,1.781774420198147e-08,120.00000041104812,11.649831899889556,1.274,1.0268114448194128,0.0,0.0,0.0,0.0128183893919737,2.682972478760441e-10,-0.0003710216542429,1.2215991071490164e-08,5.026311388647148e-06,4.178744597345269,64.21681651392016,4.361890024457652,41.29495143136631
0.13,31.22221554594398,131.01039293200228,3.2277173449026786,4.202734874672792,0.0002327160860324,45.44886120763352,0.0003953741266062,3.333578629398489,515.9156326236897,4.792165672014363,1.9646716520715424,69.99942424225341,3.613383418913551e-08,120.00000051758742,14.061726603124043,1.274,1.026779572895131,0.0,0.0,0.0,0.0140829618979635,4.248908088871395e-10,-0.0005056103199642,1.908859219307828e-08,7.5253154423526356e-06,4.202734881104192,62.048594618540655,4.792202226971676,45.570952718869485
0.14,31.222215454191247,131.01039312033683,3.2737880595608355,4.184830647080848,0.000257138757548,42.32232525579263,0.0004369426767266,3.329727443445437,486.2390860568421,5.269261304374574,2.158791628597544,69.99913473613935,6.515851355725497e-08,120.00000064630268,17.000925061330125,1.274,1.0267449573927567,0.0,0.0,0.0,0.0154850332441425,6.382432869666793e-10,-0.0006690086306358,2.8426433029675884e-08,1.0948547100483978e-05,4.184830654966803,59.74181173116622,5.269301695636157,42.45310707234106
0.15,31.222215353826755,131.0103933263496,3.3242182719560263,4.21963947489699,0.0002846467688673,40.886944113003565,0.0004726792395108,3.325585650885676,472.5421858721398,5.6781946837482895,2.329510773545807,69.99875162806286,1.0876776246115984e-07,120.00000079954532,19.742017654108928,1.274,1.0267115958081523,0.0,0.0,0.0,0.0166867950518804,9.204756288136623e-10,-0.000865746478554,4.08948221429571e-08,1.526771148078443e-05,4.219639484480408,57.84996018384879,5.678239395958187,41.02196629910223
0.16,31.222215247130432,131.01039354534575,3.3775922280208457,4.253495568077899,0.0003118339050386,32.26872905470846,0.0005078415214353,3.32090791922544,391.1218908297597,6.081244877834229,2.4981889727471702,69.99825581174558,1.7187028096464329e-07,120.0000009800088,22.644030778355887,1.274,1.026675762255412,0.0,0.0,0.0,0.0178712695992133,1.2856146928958252e-09,-0.0010961187242953,5.6923362293832417e-08,2.0702404729358337e-05,4.253495579487569,56.06022383757386,6.081293860589489,32.43916312841722
0.17,31.22221513260033,131.01039378041813,3.4348437275053194,4.364838523348639,0.0003448792023946,40.840448242802736,0.0005326487904353,3.3162727284953744,471.78125980632416,6.362544479165355,2.6250789114832647,69.99762801982864,2.5997588617291615e-07,120.00000119506798,24.78723182122683,1.274,1.0266409836796937,0.0,0.0,0.0,0.0186979513961862,1.747791994374917e-09,-0.0013624931601664,7.706724512977917e-08,2.6923621797558364e-05,4.364838536947241,54.85936171416122,6.362598652663785,40.97486885600156
0.18,31.222215014088988,131.01039402363364,3.4935801365785646,4.353948305387995,0.0003681615230806,33.992183768165326,0.0005718025428208,3.310131992647221,407.1015672119096,6.81502088160835,2.810667639293692,69.99684761766231,3.794979223522764e-07,120.00000144728236,28.437950785509614,1.274,1.0266048342046536,0.0,0.0,0.0,0.020027681385988,2.3221419748804155e-09,-0.0016616990447559,1.0147209890543081e-07,3.517105786247627e-05,4.353948320923495,52.99157233768714,6.815078712285162,34.152972512863755
0.19,31.22221488419521,131.01039429023237,3.558399965607869,4.432620772533925,0.0003996774584738,38.45149959021069,0.0005986099513107,3.304145139297767,448.95313283182486,7.1223367465208405,2.946425726785696,69.99589577323147,5.440084577183829e-07,120.00000176148238,31.060341085698347,1.274,1.026566130444714,0.0,0.0,0.0,0.0209308229359413,3.022391489754689e-09,-0.0020041563310821,1.3135864879722746e-07,4.433199397898183e-05,4.432620790516937,51.77883352025967,7.122399527709208,38.59320142454953
0.2,31.222214751373183,131.01039456280608,3.624052454705669,4.443889400961181,0.0004246617145652,35.23432408779927,0.0006337972852267,3.2968110145188256,418.5156301991588,7.530482904611057,3.1167566004785483,69.99474776398331,7.478025600151903e-07,120.00000211715036,34.72195181863731,1.274,1.026529240027363,0.0,0.0,0.0,0.0221302820454282,3.866698391504749e-09,-0.0023849544920781,1.668144671071589e-07,5.57780533277244e-05,4.443889421210987,50.22448880200342,7.530549610317194,35.38822625098952
0.21,31.222214608673173,131.01039485566503,3.6948551453492566,4.493351735844891,0.0004538195602194,33.79371564104691,0.0006629296043866,3.2891790438445727,404.8187610144608,7.868284042829251,3.2629204975089228,69.99338155599101,1.0150082652278477e-06,120.00000255293388,37.906665490338085,1.274,1.0264923657015164,0.0,0.0,0.0,0.0231230169900677,4.871073773182836e-09,-0.0028117605859743,2.089322918608601e-07,6.870935089180403e-05,4.493351758715364,48.992529909481824,7.868355328639073,33.95340801819282
0.22,31.22221446109996,131.01039515850383,3.767700382407304,4.5412639153933885,0.000482649303782,41.008966751568416,0.0006914639179131,3.2808061382386606,472.5421858721387,8.20057841132235,3.4071691679735228,69.9917708347139,1.3454961520984431e-06,120.00000305929996,41.175744234065135,1.274,1.0264494137127138,0.0,0.0,0.0,0.0240995709751246,6.054779813287368e-09,-0.0032829112061357,2.580881224843564e-07,8.3609968899004e-05,4.54126394098788,47.82515604752711,8.2006542256977,41.13999323561041
0.23,31.22221430675399,131.0103954752338,3.843768625625224,4.52371495179584,0.0005047555656171,33.98493478127787,0.0007294889663961,3.2705214710765107,406.340642146096,8.647938096586296,3.5908865300848416,69.98989017772566,1.7539876018835507e-06,120.00000365514876,45.79040229326471,1.274,1.0264133390858623,0.0,0.0,0.0,0.0254142776666487,7.436335125872812e-09,-0.0038001790077148,3.1489825108822685e-07,0.0001020628978177,4.523714979897577,46.31461705147579,8.648017383405135,34.14194053232237
0.24,31.222214142622448,131.0103958120587,3.92493179063287,4.57837522350066,0.0005351929930195,35.051650311058864,0.0007555049947555,3.26053011385611,416.2328240017099,8.954297884844461,3.72617527247482,69.98771316795013,2.25257161141768e-06,120.0000043564586,49.09180568115741,1.274,1.0263750048312463,0.0,0.0,0.0,0.0263146218848643,9.034877387788232e-09,-0.0043732521010013,3.809642748985157e-07,0.00012161410144,4.578375254714954,45.32798984252032,8.954381952763216,35.20297212911011
0.25,31.22221397517227,131.0103961556623,4.0071748888306855,4.6034117733065,0.0005618935542827,36.03738579534623,0.000785606492708,3.249069743648399,425.3640807915084,9.311611941121669,3.8789349536029696,69.98520781816889,2.8559738498748624e-06,120.00000517181904,53.08749562138344,1.274,1.0263373768840591,0.0,0.0,0.0,0.0273647110956883,1.0873791100894836e-08,-0.0049950711786164,4.5609738277273444e-07,0.0001444478241125,4.603411807525074,44.2165428352526,9.311700203154778,36.183554686886296
0.26,31.22221379934012,131.01039651647062,4.09364247475714,4.621386912291471,0.0005881033207375,39.29107511182762,0.0008162761165496,3.236407051295005,455.80158342417656,9.67833954512075,4.034902068846398,69.98234620927953,3.5784678110229355e-06,120.00000612171208,57.350948423913096,1.274,1.0263006300381676,0.0,0.0,0.0,0.0284424679130479,1.2973286442992724e-08,-0.0056712051373577,5.414206381221602e-07,0.0001704578711045,4.621386949630312,43.12063533194282,9.678431924174348,39.42414126789902
0.27,31.222213616776543,131.01039689108487,4.183310605341074,4.617158109135719,0.0006115457810536,35.90419462403674,0.0008503454714941,3.221982799915672,423.8421996598744,10.088790784535757,4.205862468567124,69.97909721779352,4.436165972465058e-06,120.000007221354,62.31798301949865,1.274,1.026260090595354,0.0,0.0,0.0,0.0296487219805601,1.5355910600537293e-08,-0.0064045199323113,6.379142666348734e-07,0.0002006609239367,4.617158149547818,41.94410287616451,10.08888684592241,36.048472443180565
0.28,31.22221342607797,131.0103972823952,4.277051150896916,4.642105655370123,0.0006389739579882,41.51133203546672,0.0008785747638736,3.2071101123224945,476.3468732012228,10.432377224420517,4.35383399240675,69.97542808435722,5.446665372087172e-06,120.00000849080963,66.63429581008447,1.274,1.0262212716723291,0.0,0.0,0.0,0.0306584788590473,1.8045308789081613e-08,-0.0072006835403936,7.469524967369969e-07,0.0002332868227611,4.642105699250441,41.0023231023774,10.432477594215127,41.63503624837164
0.29,31.22221323001776,131.01039768469093,4.373143569786686,4.62134615173668,0.0006600657405645,33.17552944492765,0.0009148746278066,3.1894209319791806,397.9703104221098,10.876662296046485,4.536381530986506,69.9713027936179,6.629751536885327e-06,120.00000994797426,72.43000748232016,1.274,1.026183007522519,0.0,0.0,0.0,0.0319641703260467,2.1067646517035105e-08,-0.0080566154554079,8.688043379161898e-07,0.000272130659453,4.621346198772975,39.83162628795024,10.876765978930557,33.32848872465723
0.3,31.22221302403368,131.01039810736614,4.4744193758467325,4.664362353358112,0.0006905183788532,31.08096762732793,0.0009381960428197,3.172549142946348,378.1859457108735,11.168362145070317,4.66647911311536,69.96668711012893,8.005507138509574e-06,120.00001161892672,76.36634300732833,1.274,1.0261430389738484,0.0,0.0,0.0,0.0328214509167604,2.4447409007156216e-08,-0.0089829108229115,1.0056222251461646e-06,0.0003115527202986,4.664362404357781,39.09908960432563,11.168470611443622,31.242464973103964
0.31,31.22221281503337,131.01039853619727,4.576593712520673,4.700143580504286,0.0007196683316923,32.79732593144512,0.0009620705970519,3.154230688182399,394.1656220930229,11.470279728974068,4.800072153432283,69.96154070456518,9.597499105113692e-06,120.00001352112182,80.55022837857167,1.274,1.0261054058068628,0.0,0.0,0.0,0.0337087616009043,2.8214060606649844e-08,-0.0099686353219717,1.1565909895184251e-06,0.0003550834484269,4.700143635477137,38.36463422765983,11.47039277421126,32.94865339301887
0.32,31.222212598991007,131.01039897947376,4.68216432480395,4.718667719113184,0.0007464384342556,35.7316568886908,0.0009885845337584,3.133859770838664,421.5593934624264,11.808280530415894,4.946054328851105,69.95582953472353,1.14278227255889e-05,120.00001568218067,85.36654007972253,1.274,1.026068246703101,0.0,0.0,0.0,0.0347021168382987,3.2392058795580455e-08,-0.0110163301561155,1.3226102501723267e-06,0.0004039614423012,4.718667778018562,37.5686120062341,11.808397780690962,35.8688218659563
0.33,31.222212376029034,131.0103994369436,4.791055524254013,4.72141404831576,0.0007708346814671,35.42013590291081,0.0010176135371143,3.1111955852784385,418.5156301991632,12.181577273013426,5.104163223586657,69.94951809396906,1.351997394754887e-05,120.00001812674968,90.84831229869296,1.274,1.0260310883392356,0.0,0.0,0.0,0.0357992034445943,3.700677535501642e-08,-0.0121310534481307,1.5051409581878843e-06,0.0004588955105349,4.721414111097893,36.7208578211118,12.181698355442045,35.55651229220977
0.34,31.222212145785647,131.0103999093516,4.903491659547144,4.73024573449122,0.0007962944975467,27.63851074646407,0.0010446307681611,3.0871492806781062,345.4656368807584,12.53557620048282,5.2556261014174765,69.94256797855994,1.5899658158227497e-05,120.000020882338,96.20413272674828,1.274,1.0259901535019136,0.0,0.0,0.0,0.0368395817555172,4.208561016221623e-08,-0.0133180771902383,1.7057647550599631e-06,0.0005184333231541,4.730245801363397,35.94841996438923,12.535701282129995,27.810389570354005
0.35,31.222211909310875,131.01040039453565,5.018822212845608,4.780248518778662,0.0008286678570753,30.332092807652543,0.0010618579815451,3.063967690608957,370.5765700527057,12.774786382148209,5.367579971644358,69.93493776125636,1.8594985713558667e-05,120.00002397748868,99.9096898192772,1.274,1.025950003202184,0.0,0.0,0.0,0.0375426220587071,4.7658312175989686e-08,-0.0145774693288123,1.9252724355785177e-06,0.0005782798420984,4.780248590437683,35.44790728185619,12.774916548990808,30.486451961956565
0.36,31.22221166933814,131.0104008868675,5.135354490370708,4.798132156899578,0.0008554457330409,34.32674769697476,0.0010851169437774,3.0374319611165923,407.8625232777224,13.09301701329486,5.506730645516068,69.92658597246795,2.163521613217148e-05,120.0000274401514,104.94818266210537,1.274,1.0259105142325406,0.0,0.0,0.0,0.0384778908056978,5.3755109608570216e-08,-0.0158991451700967,2.162609490834569e-06,0.0006464142451675,4.798132232978766,34.796094028187134,13.09315138639638,34.46087058603792
0.37,31.222211421355144,131.01040139563804,5.255882891363927,4.797392186816851,0.0008791822061288,32.551601855236584,0.00111162791192,3.0078619428913056,391.1218908297639,13.457513730739372,5.661815946371007,69.91747693543164,2.5047738471809164e-05,120.0000313040604,110.87154396328836,1.274,1.025872170958032,0.0,0.0,0.0,0.0395491312153729,6.040098808671168e-08,-0.0172926678053148,2.420031948898497e-06,0.0007226353721561,4.797392267189059,34.07332166419882,13.457651832357364,32.69027405888565
0.38,31.22221116634284,131.01040191882743,5.379799334000849,4.811698494594017,0.0009057112478668,34.02947987649063,0.0011338447913587,2.9774881690446744,404.81876101445977,13.77554886562956,5.800899861213392,69.90756948297444,2.886339581486796e-05,120.00003560072224,116.17243393848278,1.274,1.02583050512925,0.0,0.0,0.0,0.0404838339452728,6.762496638941508e-08,-0.0187646375218858,2.69955777313946e-06,0.0008026686661094,4.8116985796350695,33.46655348088405,13.775691134419684,34.15949264475229
0.39,31.222210906095896,131.01040245274032,5.505993307722699,4.813508003664984,0.000929862892873,29.00025983045028,0.0011579891265804,2.9442136901860865,357.6406249338268,14.124492165837273,5.950648592462506,69.8968186645841,3.311602501056718e-05,120.00004036395212,122.13093644173792,1.274,1.02579027384009,0.0,0.0,0.0,0.0415093739609825,7.545934774906889e-08,-0.020311592409804,3.0013532510753577e-06,0.0008908380763632,4.813508093268025,32.821616487639595,14.124638228358922,29.149330452482886
0.4,31.222210638473225,131.0104030017851,5.635788650457906,4.841647069358873,0.0009592124397379,27.71178845184976,0.0011749448424961,2.91135549588368,345.4656368807565,14.390874239274588,6.07193451174791,69.8851815212744,3.783947407715338e-05,120.00004563180136,126.77947425345651,1.274,1.0257493418632293,0.0,0.0,0.0,0.0422922854866381,8.39343718693383e-08,-0.021938519432511,3.3271332720311508e-06,0.0009803271643914,4.841647164150728,32.348088166612904,14.391024912012275,27.864299944624147
0.41,31.22221036681104,131.01040355909262,5.767123077463226,4.86553909860892,0.0009876699832274,31.306062598221665,0.0011918093836199,2.876450850006428,378.9468707766882,14.663028799871563,6.195223154320929,69.87261222561014,4.307011032901644e-05,120.0000514391194,131.6183642808765,1.274,1.025708445186429,0.0,0.0,0.0,0.0430921644173401,9.308325447883581e-08,-0.0236371933433427,3.6760977501392174e-06,0.0010761942383903,4.865539198612839,31.87689439156756,14.663183942709727,31.437931330109585
0.42,31.22221008906472,131.01040412887247,5.901259531771367,4.867510642114694,0.0010118258958528,35.308283402190774,0.0012128114559048,2.8374461227958245,416.23282400171047,14.9952917972178,6.33928625560071,69.85906967380902,4.884273094936628e-05,120.00005782486392,137.64909586091787,1.274,1.0256701057426505,0.0,0.0,0.0,0.0440686959134695,1.0293499639582845e-07,-0.0254093547296826,4.049238334851429e-06,0.0011830797791891,4.867510747027452,31.315270489291198,14.995450734457847,35.422111438762386
0.43,31.222209804115888,131.01040471342728,6.038886819939341,4.854590670645608,0.0010330089741511,31.00586934514032,0.0012363751872706,2.794478603999558,375.90313951343126,15.369430568701889,6.497852263156962,69.8445117629242,5.519340856908871e-05,120.00006482835984,144.60167924299955,1.274,1.0256308158337524,0.0,0.0,0.0,0.0451682983415116,1.135186446762958e-07,-0.0272634397889413,4.449073329427772e-06,0.0013010625065656,4.854590780289497,30.70250814963406,15.369592833372094,31.13154422839874
0.44,31.22220951192321,131.01040531284193,6.180028459770617,4.866912332640401,0.0010595850174406,28.57707721036899,0.0012525768202179,2.752165534925872,353.07501253892326,15.659290812546615,6.627318538707029,69.82889155423543,6.216182865383864e-05,120.00007249162944,150.1053167542629,1.274,1.025586171750536,0.0,0.0,0.0,0.0460202245100907,1.2486676023179565e-07,-0.0292060158163984,4.8779154055816594e-06,0.001420032405556,4.866912447705031,30.24619499837236,15.659457251771938,28.709297424144207
0.45,31.222209215425703,131.01040592106523,6.322872201489905,4.881836476567178,0.0010866574689855,33.31904824532484,0.0012669045761511,2.7082028218433374,397.2093853562887,15.934249290371609,6.751662050993672,69.81215834018458,6.97909417564726e-05,120.00008085697964,155.42080512416243,1.274,1.0255397023523487,0.0,0.0,0.0,0.0468283602442113,1.3701614206272197e-07,-0.0312276295846745,5.334643585560923e-06,0.0015449645531859,4.8818365972149325,29.82567893138932,15.934419982127675,33.428929688274074
0.46,31.22220891307435,131.0104065412864,6.468371919199588,4.869610441729251,0.0011078049156487,38.95909776354321,0.0012868374716666,2.6582856015412624,449.7140588976424,16.292139278621757,6.904766425053949,69.79426683863348,7.812149592850748e-05,120.00008996920153,162.4785746623087,1.274,1.02549635315424,0.0,0.0,0.0,0.0478802236363867,1.499987870203256e-07,-0.0333272350234362,5.819761874615242e-06,0.0016858511402973,4.869610567434908,29.29014635640275,16.292313292210977,39.04968351401366
0.47,31.22220860266524,131.01040717804253,6.6178810515614845,4.838450928223533,0.0011247917292402,26.253747818137555,0.0013104398935566,2.6026193242279367,331.0078106302504,16.710658191447514,7.078951441335346,69.77517236812905,8.719457259907165e-05,120.0000998741591,170.9309671061642,1.274,1.025453319323251,0.0,0.0,0.0,0.0491102725711187,1.6384464803343264e-07,-0.0355167087264168,6.3368207228363735e-06,0.0018427306558807,4.838451058652396,28.68386015667837,16.710834873319172,26.382435512333956
0.48,31.222208284201663,131.0104078313267,6.771393590864176,4.869339340099417,0.0011561785713505,25.860860976019296,0.0013165328518772,2.5543454292827983,327.20312230115803,16.911139899671,7.177575416403102,69.75482343794755,9.70562828082882e-05,120.00011062072316,175.0543877818846,1.274,1.0254092882449153,0.0,0.0,0.0,0.0496995461609974,1.7858865391586845e-07,-0.0378054080201581,6.88909442277235e-06,0.0019849793891693,4.869339477030596,28.40887970825325,16.911321511776286,25.986704537635287
0.49,31.22220796480208,131.01040848648364,6.924537656029012,4.881367714530694,0.0011829003785372,32.565703383222065,0.0013261973190012,2.5011623511055703,389.6000096981238,17.169005224738054,7.296160258358563,69.73316318155707,0.0001077573203115,120.000122255028,180.4309832312717,1.274,1.025367445590036,0.0,0.0,0.0,0.05045746454003,1.942747077649401e-07,-0.0401641298712614,7.47069711110948e-06,0.002140948887153,4.881367857509675,28.058569663954906,17.169191034294997,32.66161128464712
0.5,31.222207637929923,131.01040915697027,7.081324512896956,4.862566137860805,0.001202418260511,33.47759680712428,0.0013425340759632,2.4399894027711366,397.970310422106,17.52898693231981,7.450304424940405,69.71015149227495,0.0001193385310595,120.0001348274002,188.0736471953394,1.274,1.0253278572281015,0.0,0.0,0.0,0.0515154948878309,2.109295159784217e-07,-0.0426011733481599,8.084173008518589e-06,0.0023184335011768,4.862566286171007,27.57768313050809,17.529175807738486,33.56639745442473
0.51,31.22220730314019,131.01040984370235,7.24202048914867,4.8479762258125,0.001223054804074,25.49162310288008,0.0013562860883156,2.3767006597692686,323.39843497208153,17.86914397471067,7.597652147346554,69.68574349602717,0.0001318441288964,120.00014838524436,195.4407439266201,1.274,1.025286455263166,0.0,0.0,0.0,0.0525152689856776,2.2858192086249162e-07,-0.0451315948093539,8.734206149830708e-06,0.002503767471626,4.847976379721193,27.13799345359824,17.86933609171003,25.602178740977283
0.52,31.222206962738102,131.01041054193402,7.405210501673173,4.865306299521403,0.0012516517170965,30.733671928447727,0.0013599291289974,2.317711624364424,372.098451184342,18.08534843773428,7.701914987606457,69.65988568649581,0.0001453248538387,120.00016298000436,200.19561780583155,1.274,1.0252426840672306,0.0,0.0,0.0,0.0531507657929359,2.4726951523704535e-07,-0.0477531686556663,9.421346966092632e-06,0.0026812161964639,4.865306460134566,26.8699055233151,18.085545046726228,30.820940596104087
0.53,31.222206619320115,131.01041124632013,7.569307468221277,4.848802699234936,0.0012715119568563,32.301199055744725,0.0013711327835325,2.2490252325653923,386.55624643486095,18.41963113311156,7.8474319110539055,69.6325258319474,0.0001598315062727,120.0001786629144,207.6614205945027,1.274,1.0251993415311351,0.0,0.0,0.0,0.0541332845214831,2.67031759303889e-07,-0.0504479325599339,1.0141887756417996e-05,0.0028848299490111,4.848802865552398,26.45837260670532,18.419830861742675,32.37940050117613
0.54,31.22220626697288,131.01041196903336,7.737918664599091,4.831496690588052,0.0012913635058467,28.31291960103712,0.0013809098107221,2.177242866245296,349.2703242098436,18.75116898748492,7.992112829440902,69.60362200959217,0.0001754082864028,120.00019548734956,215.20067397992847,1.274,1.0251561018460285,0.0,0.0,0.0,0.0551077428911958,2.878941684235108e-07,-0.0532336286085667,1.090122304443916e-05,0.003098869611663,4.831496862756785,26.061835558272342,18.751371834390056,28.396510432451375
0.55,31.222205908994248,131.01041270328463,7.909026079894722,14.193861641631903,17.30827178555825,30.54741720668075,-1.1206419029467845,1.502983954635326,365.2500005919912,21.8890205352718,8.113323699629928,69.57312211246325,0.0001921068626005,120.00021350480982,293.246240929438,1.274,1.025112921033824,0.0,7.519210697837553,0.0,0.0643296876565522,3.0989272306468813e-07,-0.0561100530405476,1.1700476995263424e-05,0.0038128415497007,22.245252871972426,41.161555875709446,24.566634922506456,30.604893351252613
0.56,31.222205546564343,131.01041344664463,8.081909946161325,21.626831380897503,-0.0398036082872221,28.558234856518386,-0.2569252807454501,0.5595121026538731,346.22656194657776,23.56074852834872,8.24480645417527,69.54097415464405,0.0002099796112633,120.00023276987916,339.74318564413727,1.274,1.0250709539098009,0.0,7.546643356335294,300.0001285565649,0.0692428675511929,3.3296850471894137e-07,-0.0663687823322451,0.0135876122741358,0.0048543096271805,21.626866253292945,29.69777396436572,23.55449619268256,28.564870777109494
0.57,31.222205179969823,131.01041420541662,8.258425056245468,21.427349814840404,-0.0329457716303152,28.27412892799177,-0.2589987838826386,0.1483202518526398,343.1828296833045,23.83970090621625,8.354626991128033,69.50294694945941,0.0210379424507234,120.02246589255763,347.8298350016914,1.274,1.0250279191823897,0.0,7.573861694433826,300.0001285565649,0.0700628223825107,3.676099747190044e-07,-0.0854897128597926,0.0135427639359971,0.0063267669918557,21.427373950882988,29.414397961558297,23.8345257967954,28.275704162829676
0.58,31.222204806981203,131.01041497024335,8.436908969005799,21.224030809498377,-0.0396020735857709,37.236463841397736,-0.2601505212584268,-0.2785380213328267,426.12500585731766,24.125099808508807,8.469628785240287,69.45396146945856,0.0416963119893454,120.04452422280728,356.20172664913207,1.274,1.024981594484354,0.0,7.601138657571382,300.0001285565649,0.0709017278706753,4.102594404257784e-07,-0.1049056831672951,0.0135036321789696,0.0078564775048833,21.224066050779616,29.11811997662614,24.11887912983192,37.238414320896645
0.59,31.222204429394687,131.01041574754836,8.618133779017741,20.89930578377829,-0.045927794759617,30.24200624783251,-0.262911108372805,-0.7461312633807295,360.68438819710633,24.53709261752673,8.632279064023018,69.39384872488148,0.0621615484793948,120.06638410966116,368.4651601264487,1.274,1.0249386802161349,0.0,7.628239718987047,300.0001285565649,0.0721126890256987,4.610339229968591e-07,-0.1246216006984477,0.0134570266963778,0.0094922377270927,20.899353990368823,28.67604427804702,24.529878297168704,30.252351578134228
0.6,31.22220404255842,131.0104165433064,8.804331756277987,20.69459463392513,-0.0523460793287626,26.930555740724383,-0.2634831941203392,-1.203843371081496,329.4859594986072,24.809259699196232,8.742328676412091,69.3224369318139,0.0823902671972485,120.08800066503666,376.67783979343767,1.274,1.024891335813742,0.0,7.655278859322246,300.0001285565649,0.0729127209767806,5.200412725058481e-07,-0.1447410640055348,0.0134024367360884,0.0111467941282671,20.69465793312873,28.392384695551687,24.801037197426925,26.958736891033002
0.61,31.22220365383443,131.01041734287557,8.991133074540787,20.49433748057113,-0.0586821173935031,31.560210986477887,-0.2636600540673466,-1.6718014720651675,372.0984511843332,25.067744569971968,8.847321593061034,69.23949494231826,0.1023387092854469,120.10932851943508,384.56095900759885,1.274,1.0248423929069768,0.0,7.682573358031443,300.0001285565649,0.0736725456221495,5.874478137516835e-07,-0.1651287553704871,0.0133399644643764,0.012849155717582,20.49441787968481,28.120981007210112,25.05852680613848,31.605558914487016
0.62,31.222203259662724,131.01041815356217,9.180668815968524,20.217498624960616,-0.0647233515934423,39.21903152240821,-0.264741814755015,-2.1742507319710027,442.86563930529206,25.40650938150005,8.98296639486343,69.14486917561271,0.1219644300997768,120.13032362872336,395.017893559171,1.274,1.0247996097896497,0.0,7.709479404665847,300.0001285565649,0.0746683140346035,6.633591115908333e-07,-0.1857623683249613,0.0132694619226671,0.0146497920639947,20.217597889900585,27.76005335941862,25.39634266336822,39.28014623228387
0.63,31.222202858102296,131.01041897932544,9.374075564217945,19.86502994770485,-0.0704181943564066,22.380256248365804,-0.2667598049747387,-2.719629315245424,286.11251274707456,25.831530091637283,9.151614264772023,69.03841884189252,0.1412261019315382,120.15094302588108,408.33721689906577,1.274,1.024756158874558,0.0,7.73629558964152,300.0001285565649,0.07591759183815,7.478670203177148e-07,-0.2067006023092496,0.0131904866016787,0.0165734349594232,19.865149716071567,27.309956139695927,25.820468830318525,22.546472321594106
0.64,31.222202448243888,131.01041982200448,9.571861550033018,19.72586573996554,-0.0766803966902668,22.010089459551807,-0.2647936531476728,-3.201531916397649,282.3078244179702,25.983227846982416,9.216777625108218,68.91996953057463,0.1600830283511806,120.17114428479027,413.1394396632484,1.274,1.024708534665538,0.0,7.763190335720567,300.0001285565649,0.0763635944412399,8.410878059180618e-07,-0.2280071012198031,0.0131024897007633,0.0183888208220177,19.726008843762944,27.13824572324568,25.971182922032234,22.243290231167098
0.65,31.22220204028697,131.01042066072208,9.768006724279257,19.517934682037044,-0.0826455913375425,38.68797554535894,-0.2636177997416159,-3.7138624768658417,436.7781447787504,26.208904100132383,9.310444664544184,68.78931035688576,0.1784950657105036,120.19088540993648,420.3392998114569,1.274,1.0246641738210605,0.0,7.790222772186717,300.0001285565649,0.0770270177327598,9.431971985880668e-07,-0.2494246462305095,0.0130062855717199,0.020290486171045,19.51810283491861,26.88581353695408,26.195922165504264,38.866717389557145
0.66,31.22220162505763,131.0104215142408,9.967893993213822,19.119069976955085,-0.0877700519745199,32.97980436920983,-0.2653543946506545,-4.321645644027837,383.5125151715984,26.67188888156324,9.495710213565136,68.64637785998313,0.19642634967831,120.21012883946572,435.31284614515954,1.274,1.0246195561629028,0.0,7.816575102523891,300.0001285565649,0.0783878899632066,1.0542367883131227e-06,-0.271005578904835,0.0129014796295538,0.0224350940793479,19.11926390555828,26.39696491128781,26.65810199943098,33.26281001747533
0.67,31.222201198339462,131.0104223911365,10.17391063539508,18.835449458565,-0.0932367439445367,22.83936391505112,-0.2646689383553896,-4.893265514765256,289.15624401033847,26.975719985239728,9.62050131912161,68.49107859008788,0.2138425523785373,120.22883845937616,445.2782019840827,1.274,1.024572383541697,0.0,7.842982122593327,300.0001285565649,0.0792810248227664,1.1742515141227164e-06,-0.2929429978620753,0.0127868595267669,0.0245269454701721,18.83567184789658,26.06265786194822,26.96107439821244,23.359166104316746
0.68,31.222200770195908,131.0104232708516,10.380204059941867,18.628258821500708,-0.0989695018259955,28.44657687998341,-0.2621908747452985,-5.43187997777719,340.89999248584934,27.162978019494897,9.70075573369204,68.32320844392537,0.2307089326795969,120.24697749011584,451.4727131373797,1.274,1.0245245285832842,0.0,7.869731223712836,300.0001285565649,0.0798315576992241,1.303412576035318e-06,-0.3150786357831677,0.0126629189642432,0.0265628723033299,18.628512396262195,25.833645568295456,27.14743193423245,28.961729926518256
0.69,31.22220033914088,131.01042415642635,10.587645348170012,18.32005134429101,-0.1041388146804292,34.952437180813845,-0.261093322452514,-6.031410519366445,401.0140726853658,27.477809631308023,9.831329247787744,68.14265402867689,0.2469947948651392,120.26451328994976,461.9897202322407,1.274,1.024479631064582,0.0,7.896064890590144,300.0001285565649,0.0807570317598233,1.441826081545012e-06,-0.337293806402243,0.0125300940361772,0.0287647445586485,18.320337170019787,25.48197893307312,27.46145155355695,35.46997247609436
0.7,31.222199899343504,131.01042505972413,10.799508976268152,17.959338083166987,-0.1089209509754873,29.38693419567522,-0.2605122110334981,-6.674948303185184,349.270324209851,27.85890775303051,9.988839135583182,67.94936996719963,0.2626735417098999,120.281417391507,474.883878742754,1.274,1.0244351749185203,0.0,7.92213157106635,300.0001285565649,0.0818772713612105,1.589516396429867e-06,-0.3596807785262576,0.0123876143174748,0.0310987207196556,17.95965748695771,25.06954371428392,27.841798500365407,30.136600718781107
0.71,31.222199452311447,131.01042597764908,11.01487492784558,17.66577296764065,-0.1139698653939981,24.22686047644844,-0.2582198564957176,-7.284606960946234,301.3312640634036,28.13024371196649,10.104170653963555,67.74325800910943,0.2777197886725933,120.29766237313312,484.169317175367,1.274,1.0243880468141104,0.0,7.948325841909862,300.0001285565649,0.0826749280479355,1.7465541607414747e-06,-0.3822755906941797,0.0122349464129954,0.0333735411477411,17.666128875296824,24.75168760822929,28.11234137917961,25.2996629348111
0.72,31.22219900231869,131.0104269015007,11.23133664333818,17.39342746113109,-0.119070206645001,29.57512797053724,-0.25504816571876,-7.881386911838215,350.7922053414578,28.354652902304554,10.201785631661368,67.52419925600707,0.2921100420881765,120.31322258585256,491.91483217803193,1.274,1.024337302174265,0.0,7.974479204923421,300.0001285565649,0.0833346712969263,1.9130575561110614e-06,-0.4049625797869486,0.0120725646803677,0.0356354649965993,17.39382241884276,24.469361124249417,28.3359494114444,30.608324091570015
0.73,31.22219854786765,131.01042783432067,11.449714269702396,17.047451998998557,-0.1236218232300511,37.29989120693904,-0.2527862668915725,-8.53730640886095,422.3203185282354,28.68043983905452,10.34092865510277,67.29214109180332,0.3058252188333763,120.32807687757666,503.2731421031508,1.274,1.024292465384646,0.0,8.00035993402918,300.0001285565649,0.0842923707535215,2.089089538501244e-06,-0.4276809400235732,0.0119006615748288,0.0380662237793246,17.04788691786138,24.09814191183932,28.66102138353675,38.265276500568966
0.74,31.222198085123,131.01042878388043,11.672044964661728,16.642767905290416,-0.1276633829888073,23.485650198265425,-0.251157239386471,-9.252188619392106,294.4828134710563,29.09203289044132,10.516045330965108,67.04706574417672,0.3188499672284165,120.34220785577564,517.8106842480681,1.274,1.0242470321640116,0.0,8.026069228452332,300.0001285565649,0.0855022652046374,2.27465778897617e-06,-0.4504924577891611,0.0117185118880882,0.0406711464975902,16.643243689804585,23.656705428167776,29.07197958972772,25.243649487405538
0.75,31.2221976137984,131.01042975073764,11.898399132342208,16.37015634687097,-0.1325498545054313,27.339368986017348,-0.2464301569869642,-9.85261711099566,330.24688556441737,29.26895381673529,10.597348360730669,66.78892003549775,0.3311704983502014,120.3555995314386,524.1164926917832,1.274,1.0241984712898409,0.0,8.051819154269417,300.0001285565649,0.0860224602287008,2.469795841229387e-06,-0.4734423709345038,0.0115254030214893,0.0430021037725926,16.370678287286573,23.39898758856579,29.24813295284996,29.061587849113895
0.76,31.222197143313632,131.01043071579068,12.123741749217972,16.01718026748611,-0.1367640227969382,29.37534751212483,-0.242774626102325,-10.525920464761263,349.2703242098581,29.56809918704013,10.729656604065644,66.51762485135004,0.3427746620484397,120.36823739042656,534.8732052636526,1.274,1.0241522053390697,0.0,8.077594478578227,300.0001285565649,0.0869018796733387,2.674639140048783e-06,-0.4963112375541478,0.0113228688407544,0.0455390008738401,16.017748852885685,23.04191920218146,29.546616364975826,31.20520762000563
0.77,31.22219666301588,131.01043170062044,12.353671392962427,15.64939681621514,-0.1407659706471223,27.455470210778987,-0.2388701696556446,-11.214703169134456,331.76876669606884,29.87857020455833,10.868275509175064,66.23322683826505,0.3536569567736224,120.38011388128724,546.1526715912395,1.274,1.0241065975906936,0.0,8.10286729702214,300.0001285565649,0.087814594769792,2.889140507684781e-06,-0.5191738066457738,0.0111100015817723,0.0481358868997538,15.650014075214004,22.673558988473488,29.85645875983948,29.65854801949546
0.78,31.222196177152945,131.01043269660303,12.585878309761853,15.293871332029571,-0.1447752182249905,22.565265895716685,-0.2341855525340869,-11.888879134454072,286.8734378128874,30.15249172871682,10.99318280400774,65.93572978504335,0.3638129141234667,120.3912222751802,556.200237417641,1.274,1.0240588105546735,0.0,8.128267322295251,300.0001285565649,0.0886198958326394,3.113312728029364e-06,-0.5420099190183435,0.0108866669994285,0.0507127487234123,15.294540202351437,22.33005616478213,30.12975051481642,25.506695491401224
0.79,31.22219568632516,131.0104337025178,12.82002257688854,14.960981705785324,-0.1489081261886585,31.905013879677146,-0.2285046114781556,-12.528747596820686,373.6203323159581,30.36573199297129,11.093986293984498,65.62514903377951,0.3732407483509483,120.40155848959884,564.0823358230709,1.274,1.0240083170932772,0.0,8.153534098903654,300.0001285565649,0.0892468569093372,3.347175777335396e-06,-0.5647623873290517,0.0106531119226443,0.0532140684886407,14.961705817568422,22.0266560177886,30.342341585538257,34.277567611554616
0.8,31.222195191664863,131.0104347160701,13.055504167627246,14.53867026622374,-0.1521175073390313,32.26179637701692,-0.2240906911628637,-13.276059801282846,377.42502064505805,30.7387285780206,11.264367795054888,65.30153268401367,0.3819420145189801,120.4111218179962,578.0121534556822,1.274,1.0239625010683884,0.0,8.178582762494758,300.0001285565649,0.0903433580966954,3.590736589249262e-06,-0.5873557202927121,0.010409834775458,0.0560214346091655,14.53944889125082,21.608597932595423,30.71483404391485,34.887354241289295
0.81,31.222194685994065,131.01043575174904,13.295822118262512,14.129303809744528,-0.1553399553296646,20.998505724338585,-0.2188361484425901,-14.005659835985512,273.9374926939922,31.072900179947915,11.42031045295242,64.96497209536071,0.3899219045884183,120.4199152861034,590.6343852365477,1.274,1.0239149950770308,0.0,8.203399561647732,300.0001285565649,0.0913257603428636,3.843887712402538e-06,-0.6098807866423349,0.0101555221928593,0.0588008822413594,14.130140321513757,21.217397287293373,31.048499466717505,25.241704367104123
0.82,31.22219417516581,131.01043679771794,13.53800400569134,13.789153847712017,-0.1591944945460103,26.85801342051401,-0.2115986143723775,-14.623725240393284,328.725004432774,31.242895720799016,11.506639520085606,64.61550653674742,0.3971854465800352,120.42794146100034,597.1007341435712,1.274,1.0238644186635044,0.0,8.228353558788738,300.0001285565649,0.0918256418517564,4.106631328661544e-06,-0.6322734334222112,0.0098904845527021,0.0612919182309244,13.79005495038553,20.93341971200474,31.2178895402453,30.58187369630302
0.83,31.22219366300843,131.010437846253,13.78020873605554,13.375626606621516,-0.1621797669027572,34.024474704043854,-0.205334994563089,-15.339455119179284,395.6875032246518,31.55392467804116,11.656432245454836,64.25321202808792,0.4037406573275894,120.43520595018175,609.0342465294768,1.274,1.0238188483711983,0.0,8.253132363350286,300.0001285565649,0.092740036970356,4.379000313407245e-06,-0.6543814399138161,0.0096162155596879,0.0640650627779245,13.376591861958104,20.55501339326564,31.528449573846377,37.32299458376066
0.84,31.22219314014892,131.01043891625224,14.026844312137936,12.922129728005574,-0.1645945747980098,20.90666572490916,-0.1993175467134497,-16.115019185313002,275.45937482564227,31.942334428326188,11.84308753481238,63.87825181418199,0.4096004564338165,120.44171956809248,624.1054331732017,1.274,1.0237739661568126,0.0,8.27755304775272,300.0001285565649,0.0938818720378883,4.660828121159089e-06,-0.6762740538532191,0.0093315356021046,0.0670217849486767,12.92316010802478,20.128542771948062,31.91648000853653,26.397390828650575
0.85,31.222192608511016,131.01044000381634,14.276867907041776,12.556017309625943,-0.1679609423604944,22.69992302260076,-0.1909040954063842,-16.721465831977632,292.9609323393965,32.10584241804688,11.930873002683606,63.490749438213456,0.4147773922998237,120.44749248942486,630.4960505828808,1.274,1.0237227741398531,0.0,8.302057542280185,300.0001285565649,0.0943627053591436,4.951996704105538e-06,-0.6979674172593028,0.0090357773777629,0.0695241044570291,12.55712262045243,19.84028002293992,32.07945921270389,28.19450955728151
0.86,31.222192077641825,131.01044108970763,14.525873989685143,12.14383419116522,-0.1706792088845298,28.35643424507212,-0.1829288466352927,-17.3906335247365,346.2265619465616,32.36096768365548,12.06181909032391,63.09081917350161,0.4192845765485379,120.45253529269188,640.5408697554149,1.274,1.023674789281455,0.0,8.326505161959652,300.0001285565649,0.0951128146068013,5.252549480627492e-06,-0.719272101308876,0.0087311724089489,0.0722138524577338,12.145015550494858,19.495150794683727,32.33415749586987,33.2649208694342
0.87,31.22219153719321,131.0104421947673,14.778538462027102,11.695192846243824,-0.1728136024707784,26.248809225222715,-0.1751529744018753,-18.115250997973696,327.9640783669946,32.69170901473227,12.230002665257992,62.67868384487865,0.4231404716142821,120.45686437199258,653.6850565501592,1.274,1.0236288969245204,0.0,8.350508289817208,300.0001285565649,0.0960851774611499,5.562284005782466e-06,-0.7402163582340665,0.0084169956166472,0.0750743471431709,11.696451783690645,19.10635059871948,32.66456355869239,31.893463014012227
0.88,31.22219098839032,131.0104433165118,15.03417564119342,11.26169450877512,-0.1750469817821177,22.48074194663961,-0.1665010023732065,-18.78959265477252,294.4828134710421,32.96576344134033,12.374320812735224,62.25455006050136,0.4263634319750679,120.46049583595948,664.6743527535028,1.274,1.0235805388426191,0.0,8.374520458745536,300.0001285565649,0.0968909384624811,5.881008287557916e-06,-0.7608107825390713,0.0080926481086188,0.0778080257406924,11.263037291989493,18.75177239912078,32.93826716851505,29.29949271211832
0.89,31.222190434717145,131.01044444792427,15.29120316488683,10.836378434986756,-0.1773093086019632,24.56092153709177,-0.1571452369739319,-19.41941843880272,315.02813424808807,33.19661273738619,12.500435957163852,61.81861834696459,0.4289718672511328,120.46344570703296,673.9993377130804,1.274,1.0235293752791452,0.0,8.398473518822557,300.0001285565649,0.0975697194222737,6.208609067405596e-06,-0.7809810288572073,0.0077588615130556,0.0804281604185477,10.837811606758857,18.422248040855536,33.16876110077504,31.310978488031843
0.9,31.22218987561192,131.0104455901326,15.549835333706962,10.386855442270711,-0.1791039218845658,27.04162190328608,-0.1477718986725606,-20.081471008120584,339.3781423542166,33.47844173155036,12.65318233097506,61.37113182122372,0.430986199714329,120.46573216044018,685.474982602649,1.274,1.0234837388140003,0.0,8.422220372337428,300.0001285565649,0.0983983433544092,6.544933110187364e-06,-0.8006639075545177,0.0074162823945919,0.083153125735352,10.388382550365472,18.066938053828423,33.450308199107525,33.68288333180974
0.91,31.22218930812528,131.01044674906063,15.811239988731495,9.922607715386988,-0.1805450812827949,20.18151970833192,-0.1381710803970994,-20.757759919628043,277.7421810230785,33.78869905641553,12.822411975664208,60.91236979610039,0.4324284174720663,120.46737505845324,698.2214348849809,1.274,1.023436404813438,0.0,8.445784403748558,300.0001285565649,0.099310530755961,6.88973304214019e-06,-0.8198508930334177,0.00706461329278,0.0859327151268024,9.924233666490917,17.700203379169558,33.76033914829874,28.951639433133387
0.92,31.222188732771937,131.0104479236653,16.075105865575047,9.486337122154168,-0.1823636262880656,24.04810983919785,-0.1274922252994961,-21.3232019766988,315.0281342480675,33.98765258467858,12.93957741192514,60.4426164540572,0.4333204464990571,120.4683941206314,706.4502300342907,1.274,1.0233859136578225,0.0,8.469273353487036,300.0001285565649,0.0998955852268487,7.242763895495154e-06,-0.8385176062581025,0.0067037836444226,0.0884045341285847,9.48807377958817,17.39373784450241,33.959007021612884,32.14042289150421
0.93,31.222188154541573,131.01044910391678,16.33936932246824,9.01693092826924,-0.1834815687835897,28.64648529508436,-0.1170170913020662,-21.955377104945388,359.16250706547066,34.27978084376442,13.105329151607728,59.96216992749307,0.4336843743783874,120.4688091940876,718.6282430884833,1.274,1.0233407575091376,0.0,8.492658856248644,300.0001285565649,0.1007545010873446,7.603872740772464e-06,-0.8565651311079665,0.0063352751316605,0.0910811676362751,9.018782094097558,17.044781501726586,34.25095967559712,36.092567054471225
0.94,31.22218756579084,131.01045030516772,16.607020162579754,8.529297482927204,-0.1841178397673203,20.17985669551018,-0.1064020622793996,-22.619570647882952,283.06875048378083,34.623244420809925,13.300102157476177,59.47138503101936,0.4335443736588404,120.46864251822856,733.0820200038884,1.274,1.0232914783978162,0.0,8.515761098987971,300.0001285565649,0.1017643102320357,7.972700432613342e-06,-0.8740032286849319,0.0059583764502009,0.0938641597198512,8.531269785339182,16.67733280612164,34.59432330794447,30.313081564643873
0.95,31.222186967907447,131.01045152462183,16.87738246741412,8.07466380355768,-0.1853036759508003,26.41645549653028,-0.0946664304250563,-23.131632938819543,342.421873617488,34.821020439509006,13.423400132605511,58.97061096357549,0.4329235033958755,120.4679150468377,741.4617572926081,1.274,1.0232418269359267,0.0,8.538844920568103,300.0001285565649,0.102345923830854,8.348911080743593e-06,-0.890814342680922,0.0055728135167559,0.0962135892534074,8.076775678720988,16.384675275461248,34.79191305689939,35.11282565031609
0.96,31.22218636790562,131.01045274819228,17.14773734049158,7.5822321340419805,-0.185556706710446,25.614989628189253,-0.0832344663212351,-23.75095407038495,337.09533515678265,35.155744383177726,13.620072872435845,58.46020696477996,0.431844282093838,120.46664711740084,755.7655431664833,1.274,1.0231951201821403,0.0,8.56184419890903,300.00012855656485,0.1033300594629022,8.732330274277369e-06,-0.9068895249175452,0.005180576793991,0.098888804969383,7.584489053173326,16.036340239900827,35.12659725479748,34.931968751877726
0.97,31.22218575458898,131.01045399835635,17.422231754872048,7.0957648568595015,-0.1858012393594066,15.378093984489505,-0.0712315082635013,-24.311963442963943,245.0218871929888,35.450242375578426,13.79910707932222,57.94059471418274,0.430331319879998,120.46486158209956,768.4603426285014,1.274,1.0231476260761452,0.0,8.584533122155417,300.00012855656485,0.104195973151966,9.122475562543926e-06,-0.9222495637632104,0.0047804770521782,0.1014034341556802,7.098184579867728,15.71483363366808,35.421056836301204,28.767384569605507
0.98,31.22218513524158,131.0104552604855,17.69805287536752,6.635687970611531,-0.1865763933063873,23.24962340710468,-0.0583782499337626,-24.70784705528104,319.593746642963,35.59916402984885,13.90331107064628,57.41218394245804,0.428407255170288,120.46257904190144,774.909771176534,1.274,1.0230935628253934,0.0,8.607267005717766,300.0001285565649,0.1046340119247375,9.519027689450388e-06,-0.936833715377607,0.004373366924494,0.1034369730469952,6.638298713923054,15.464545971623842,35.56985673031726,33.92677560127716
0.99,31.222184513897545,131.010456526484,17.97375275338037,6.138113747638898,-0.1862435072398525,25.40262011432448,-0.0458555881698556,-25.24238422135417,341.66094855170127,35.91872092880709,14.101861402206971,56.87541917859156,0.4260951494716979,120.45982069394763,788.863322347137,1.274,1.0230490803133316,0.0,8.629813710986879,300.0001285565649,0.1055735905014736,9.921747767559356e-06,-0.9505489520951088,0.0039613557463172,0.1058905836773881,6.140927798209718,15.151639779661364,35.88946591861981,35.81163459807607
1.0,31.22218387821587,131.01045782111663,18.253615608488094,5.639761814444624,-0.1857095246042011,22.172005865630386,-0.0329610859087192,-25.746865006639087,314.2672081822764,36.23401996828451,14.301806222345414,56.330798267556254,0.4234196089134776,120.4566097300698,802.7520138574457,1.274,1.022999484445133,0.0,8.652061760018801,300.0001285565649,0.1065006650356605,1.033002499415854e-05,-0.9634198950531802,0.0035429235439017,0.1082635960310416,5.642808688495855,14.852519495496288,36.20484883545163,33.97793384255183
1.01,31.22218323516268,131.01045913040008,18.535078218875704,5.149130925977383,-0.1852360307545365,23.075223009502565,-0.019610278960347,-26.16698368787664,324.92031610370094,36.493374875631496,14.47404125661778,55.77880491092103,0.4204027023543305,120.45296645806371,814.2629641364566,1.274,1.0229507481225095,0.0,8.674356973885809,300.0001285565649,0.1072633133276295,1.0743426840699124e-05,-0.975402687109712,0.0031185828264074,0.1103917338453701,5.152452741711269,14.588228078072104,36.46427811864891,34.88806868863509
1.02,31.222182585445207,131.01046045291562,18.81787102396612,4.6518956401955975,-0.1843735128470639,18.42562665615429,-0.0060592007690449,-26.588475758647338,284.59063161543185,36.7851268733112,14.667542791800434,55.21994794275085,0.4170661855647031,120.44891098214306,827.3120423737648,1.274,1.0229039803623294,0.0,8.696495396066732,300.0001285565649,0.1081211916809936,1.1161557072677186e-05,-0.9864402458338132,0.0026894944627694,0.1125303899661103,4.655539916249834,14.324506044577465,36.75616559961994,32.34889175155889
1.03,31.222181925526275,131.01046179575962,19.103100078946945,4.162986936990795,-0.1836345489929614,14.10507616799539,0.00785124203098,-26.905031227884106,247.3046933904342,37.00574306821716,14.82373628231748,54.65476890061648,0.4134320168263574,120.4444638544445,837.2423547187753,1.274,1.022853416101322,0.0,8.718459476921247,300.0001285565649,0.1087699909434451,1.1583886203895892e-05,-0.9965026533772642,0.002255804773356,0.1143569263880429,4.167028020489691,14.101641409854896,36.976897870098085,30.37818198510852
1.04,31.22218126043819,131.01046314883516,19.38905543075442,3.6770653665854818,-0.1828498552868962,24.528461400130155,0.0219546266800804,-27.146481227061816,345.4656368807608,37.18777688755311,14.960220562452363,54.0838264415802,0.4095212596127943,120.43964475430268,845.4762993089394,1.274,1.0228049544826707,0.0,8.740336947156182,300.0001285565649,0.1093053907693612,1.200999107153898e-05,-1.005536087858668,0.0018189048710525,0.1159580320500554,3.681602621920912,13.907209329534531,37.15905494820279,36.586573270457116
1.05,31.222180589240008,131.01046451403076,19.676009799458217,3.171598225138254,-0.1809576575915038,12.826367128827265,0.0360951947879123,-27.53623198999065,240.4562587980608,37.550137666473965,15.205167943821849,53.50771006190149,0.4053551583990446,120.4344738429217,862.009599231304,1.274,1.022755494436122,0.0,8.762000534879865,300.0001285565649,0.1103708289258992,1.2439385883835496e-05,-1.013501616019442,0.001379835342575,0.1180122165418745,3.1767510954935085,13.663446213388786,37.52171295134463,30.3769825491791
1.06,31.222179902053654,131.0104659111652,19.96692549102976,2.687970940492196,-0.179911555487472,19.94278073411001,0.0505044734937705,-27.65755218994202,308.1796836557233,37.68811654134833,15.320883921613996,52.92703157498539,0.4009546639240592,120.42897121951124,868.3319251420437,1.274,1.0227013895379469,0.0,8.783469283162358,300.0001285565649,0.1107767528059951,1.2871265892532868e-05,-1.0203984853296633,0.0009370547727208,0.1192485462092867,2.693980733907662,13.515745652720138,37.65985614673843,34.097760150045026
1.07,31.222179216975285,131.01046730393227,20.256204620413705,2.1910713991353856,-0.1778379989513568,24.07440428049454,0.0649989309874984,-27.912334471938607,348.5093681440431,37.99397716653688,15.5397126772046,52.342403174063605,0.3963382361010417,120.42315414764673,882.4586174536654,1.274,1.0226540159946436,0.0,8.80496352492584,300.0001285565649,0.1116761340586053,1.3305368169798056e-05,-1.0261597635166904,0.0004938375615116,0.1208917115290239,2.198273143086814,13.326673317606224,37.9660424838387,36.86027105156846
1.08,31.222178515248626,131.01046872996628,20.549444452268485,1.694893801940291,-0.1754099195612346,14.279273955703792,0.0796987453306666,-28.15701491496955,261.0015785751465,38.32884934010952,15.780270109213392,51.754475458652976,0.3915258397105774,120.41704213309468,898.0575432369678,1.274,1.0226061614050743,0.0,8.82607819916565,300.0001285565649,0.1126608004752619,1.3740853485269813e-05,-1.0307786192480477,4.88538993010334e-05,0.1225027219430063,1.703943855989994,13.14649617294332,38.30129605741782,31.57089649525122
1.09,31.22217780363655,131.01047017570005,20.844491591587047,1.2100290753709344,-0.1735087066127313,12.45428556521289,0.0943476809547245,-28.188670624855,246.54375332456465,38.49905678336193,15.922817493825429,51.16390289594671,0.3865351213441838,120.41065207265542,906.025609704838,1.274,1.0225512795791307,0.0,8.847228371541313,300.0001285565649,0.1131614715786142,1.4177059494740457e-05,-1.0342227052377246,-0.0003975560637915,0.1234543523621869,1.2224038443202956,13.039544014103088,38.471802141117415,30.81751583144454
1.1,31.222177089994965,131.010471625371,21.13908640985584,0.7256288052325902,-0.1712647367225083,30.38191138497325,0.1089947423683535,-28.20205232650176,413.1890617384087,38.693440006293855,16.08272969168688,50.57135848193951,0.3813828379559299,120.40400006592276,915.1719278353172,1.274,1.0224981043155532,0.0,8.868257443836262,300.0001285565649,0.1137332062920793,1.461360148947172e-05,-1.036454573459678,-0.0008428024230373,0.1243419213021857,0.7455650238719309,12.942711469212233,38.66653784442002,41.45392833839725
1.11,31.222176366507213,131.0104730946671,21.43540750074301,0.2378479652489429,-0.1675767678103746,20.4308019795073,0.1242464987249407,-28.461884450575017,324.1593910379213,39.16824108223664,16.423525522409086,49.97753668914776,0.3760864265172798,120.3971034755102,937.7428983489305,1.274,1.0224548851875197,0.0,8.889009313714133,300.0001285565649,0.115129193422663,1.504979580490203e-05,-1.037455019015926,-0.0012864752204269,0.1259856103002922,0.2909526875162972,12.775228973181106,39.14191822263216,35.03586695368289
1.12,31.222175620402023,131.010474609227,21.736783797047995,-0.2401546140607434,-0.1647027058186722,3.6881225822844375,0.1391238514213523,-28.43015085126852,172.7328179403806,39.40661255031252,16.617988981557122,49.38314300240457,0.3706623211297031,120.38997878048848,949.1640517952048,1.274,1.0223979224661404,0.0,8.909643394346874,300.0001285565649,0.1158302446612496,1.5484520869229437e-05,-1.0371926002893117,-0.0017310149018562,0.1267166085246933,0.2912062174764976,12.702494379061696,39.380741145412,28.668712581032914
1.13,31.22217487492029,131.0104761224048,22.03686312813772,-0.7145720280817494,-0.1624309301167712,24.734955951172623,0.1533185104269542,-28.146823530698928,367.5328077894322,39.446029604862304,16.685578536260024,48.78890085903223,0.3651241569623162,120.38263915351386,951.0364207231388,1.274,1.0223460397860296,0.0,8.93038990344708,300.0001285565649,0.115946498217638,1.591747366715573e-05,-1.0356447987231785,-0.0021729926493372,0.1266504200190347,0.73279985155088,12.709867877456103,39.420515048200414,37.47112524785446
1.14,31.222174128828296,131.01047763667447,22.33607465082273,-1.1809142317216188,-0.1582951317252703,10.57696446896324,0.1686391606989074,-28.229949221310783,239.6953177322812,39.88684034866254,17.018606085600602,48.195546635409,0.3594867074371987,120.37509968891295,972.382970934054,1.274,1.0223022138470996,0.0,8.950813810779957,300.0001285565649,0.1172426002038018,1.6348313475180553e-05,-1.0328148284627072,-0.0026094570087399,0.1277121239912373,1.1914748101118748,12.611333502585309,39.861975439148125,30.146818233140582
1.15,31.222173354259127,131.01047920799448,22.64146420305288,-1.6464320827712888,-0.1552170196946303,10.147477224028355,0.1828275124574611,-27.94076212323295,237.4125115347709,40.01197987808926,17.146791537057958,47.6038149111469,0.3537653215345129,120.36737674022264,978.4652785224334,1.274,1.0222426194541194,0.0,8.970954172423868,300.0001285565649,0.1176108382024163,1.6775646901069873e-05,-1.0286460226052407,-0.0030440472594485,0.1275919520794014,1.6537304177817105,12.627448990572669,39.987598475472325,29.726939094675974
1.16,31.22217258732218,131.01048076386172,22.94377205687041,-2.104396951760711,-0.1516620089008138,37.56665763228764,0.1970350764014929,-27.67225603244489,490.043774385954,40.203458999449765,17.321232870385188,47.014472620616175,0.3479719771020564,120.35948252730827,987.8239813676824,1.274,1.02219674531104,0.0,8.991283772180125,300.0001285565649,0.1181740732768673,1.7199316975662063e-05,-1.0231635035882876,-0.0034725738310367,0.1275155471981222,2.1098524952436506,12.6400582933919,40.179636014619966,46.65882920099935
