Time,Latitude,Longitude,Altitude,Angle of Attack,Angle of Sideslip,X-Acceleration,Y-Acceleration,Z-Acceleration,Thrust,True Velocity,Ground Velocity,Pitch,Roll,Yaw,Dynamic Pressure,cp,parachute_deploy_gain,Wind Speed,Mach,omega_x,omega_y,omega_z,Cmq,Angle of Attack(total),Angle of Attack(gust),True Velocity(gust),Acceleration
0.0,31.222186000000004,131.010384,3.000000003643237,0.0,0.0,0.0,0.0,0.0,2.2828121974499247,0.0,0.0,69.99999999623421,0.0,113.69999999388332,0.0,15.288,0.0,0.0,0.0,0.0,0.0,0.0,-0.0,0.0,90.0,0.0,0.0
0.01,31.22218600000153,131.01038399999584,2.99999882256592,0.0,0.0,0.0,0.0,0.0,34.24218696174923,7.502283530665459e-11,7.190531319924593e-11,69.99999999623329,-4.83564628150269e-13,113.69999999388072,3.446445726795683e-21,15.288,0.0,0.0,2.204725565824978e-13,-3.659182332138578e-19,7.589415207398531e-19,4.811147140404426e-19,-1.5108918610345807e-31,0.0,89.9999999995224,7.502283530665459e-11,0.0
0.02,31.22218600000288,131.01038399999217,2.999997775701936,0.0,0.0,0.0,0.0,0.0,25.871876237766408,1.5320717031631675e-10,1.4674636035870463e-10,69.99999999623222,-9.67129256300373e-13,113.69999999387804,1.4372842949972735e-20,15.288,0.0,0.0,4.5023593667086093e-13,-7.284483346386986e-19,1.5178830414797062e-18,9.757819552369542e-19,-6.170906918166791e-31,0.0,89.99999999902465,1.5320717031631675e-10,0.0
0.03,31.22218599928065,131.01038400193067,3.000201659671132,18.81500467334555,-0.00012974450181,11.96616230539064,-1.8916256735984712e-05,3.349833086198469,180.34219359854663,0.0882870268161719,0.0553390044312322,69.99999999799445,-4.212591857125379e-12,113.69999999488518,0.0047728553458352,15.288,0.0,0.0,0.0002594525584132,3.2187251995663407e-17,-7.20264389268894e-10,1.2365134327422308e-11,1.6874092354518158e-13,18.815004673776716,89.46786891739345,0.0882666465974854,12.426199017587786
0.04,31.22218599548236,131.0103840121632,3.001799604587872,9.46752327608497,-4.6177622759613696e-05,55.21900012092241,3.931876292165237e-06,3.349616504302861,548.6359724538078,0.3767519978512604,0.1853356633749705,70.00000000507204,-2.4624598767003407e-11,113.70000000019972,0.086915163246288,15.288,0.0,0.0,0.0011071759353184,1.6174128009138757e-15,-1.3693172015529268e-08,2.7753303060112748e-11,1.3689612277852356e-11,9.467523276196548,87.63554493451223,0.3767447442872393,55.32050167054111
0.05,31.222185984749512,131.01038404118162,3.00777936418888,5.376730308971262,-2.257790939128127e-06,80.28807156553681,5.266841443842784e-05,3.348887800834877,761.6984298824644,1.018787885905993,0.4366201147110198,70.00000000894464,-1.1355399380652658e-10,113.70000001523856,0.635552918586145,15.288,0.0,0.0,0.0029939522895272,1.6418815498809788e-14,-9.32122351075408e-08,4.303264669380585e-11,2.5199270302492604e-10,5.3767303089717045,83.57022052969386,1.0187875312530217,80.35788377762394
0.06,31.22218596447235,131.01038409608267,3.0201664202003013,4.296730121134882,2.4863835723705905e-05,60.21296515808257,0.0001057204249726,3.347700952379021,590.4875390737208,1.721098934225416,0.7081674028809783,69.99999995523842,-3.0560354507026086e-10,113.70000004366592,1.8138247671743823,15.288,0.0,0.0,0.0050578622752421,8.328976953118383e-14,-3.2824985336199985e-07,5.923438275930214e-11,1.4991363363716091e-09,4.296730121206683,79.20467073327266,1.7211028398275985,60.305955550063224
0.07,31.22218593493329,131.01038417609837,3.038741944736831,3.8204913578752526,4.8016684030909405e-05,91.4060317508128,0.0001597686613101,3.346072557365335,855.2937749779139,2.4375792548422868,0.9844712334613328,69.99999973536046,-5.939103491363046e-10,113.7000000850886,3.6383156301599167,15.288,0.0,0.0,0.007163413150771,2.709313825263564e-13,-7.906546256197275e-07,7.920022733617308e-11,5.114174483651565e-09,3.820491358176508,74.87999294483174,2.437586797285377,91.46725557277466
0.08,31.222185894468456,131.01038428575305,3.0647976109320942,3.588632851766762,7.220043782492885e-05,19.18449428359557,0.0002119618497595,3.3440615022685813,241.2171988638848,3.1292508166901074,1.2522236515868983,69.99999919480445,-9.914748373602156e-10,113.7000001418522,5.996012698481753,15.288,0.0,0.0,0.0091960591623389,6.80386533246681e-13,-1.5973238302190878e-06,1.0839624626357699e-10,1.3263625118823921e-08,3.58863285249208,70.86684630658345,3.1292621579083604,19.473766155861934
0.09,31.22218584634549,131.01038441616095,3.0957981580345013,3.551302481506045,9.685468678862004e-05,57.102946699906326,0.0002554087225869,3.341892818148368,563.0937377043176,3.701810007254615,1.479132491047967,69.99999812344194,-1.4359264356978275e-09,113.7000002093888,8.390904013834115,15.288,0.0,0.0,0.010878666406854,1.440096519545733e-12,-2.748643691533636e-06,1.5214952332699618e-10,2.6999776649034504e-08,3.5513024828250237,67.68737872952666,3.701825221153239,57.20065357568538
0.1,31.222185790329306,131.01038456796124,3.1319266121977414,3.608446747536112,0.0001234669721807,54.26147302645416,0.0002914860332524,3.3396271157106168,538.7437595981919,4.174070299823608,1.6716491241860567,69.9999963052332,-1.902380107712657e-09,113.70000028805804,10.668380938744466,15.288,0.0,0.0,0.0122665227999911,2.687800116751415e-12,-4.315796035622946e-06,2.1749089204950437e-10,4.7802076800548326e-08,3.608446749645647,65.17160335282355,4.174089693970246,54.36414778470795
0.11,31.222185727066616,131.0103847393952,3.172681775073216,3.633547373470009,0.0001485939126744,42.987553988990406,0.0003293995000288,3.337005588796181,442.8656393052949,4.672024955140527,1.8729475711242067,69.99999349387662,-2.3433348587116544e-09,113.70000037699285,13.365573690709628,15.288,0.0,0.0,0.0137298902182575,4.5789425819531184e-12,-6.340230783164189e-06,3.1157625832417107e-10,7.860218435507205e-08,3.6335473765043056,62.62546922225161,4.672048296217748,43.116880735560244
0.12,31.22218565692512,131.0103849294629,3.2177790417108385,3.650108937861461,0.0001727442530266,46.86777100765684,0.000367618259785,3.334068179146888,475.58594813540446,5.17479364099247,2.0758708919414386,69.99998941286465,-2.702771525550512e-09,113.70000047573096,16.396890189902592,15.288,0.0,0.0,0.0152074069417046,7.288473386564583e-12,-8.86736416607888e-06,4.42271554299792e-10,1.217615295152289e-07,3.6501089419435786,60.16906436414164,5.174820775596283,46.986210423745625
0.13,31.222185580265183,131.0103851371844,3.2669395832841857,3.7280113734654137,0.0001995014041665,51.64515456841877,0.0003986198234033,3.3311573548369657,515.9156326236895,5.579364582999854,2.2451120211463422,69.99998375846928,-2.9114380666036422e-09,113.70000058383452,19.060875702782603,15.288,0.0,0.0,0.0163963474924215,1.100846422415094e-11,-1.1941028436408576e-05,6.179653149059831e-10,1.7678562106638216e-07,3.728011378795934,58.279338776943774,5.579395920607139,51.75247433579817
0.14,31.22218549718016,131.01038536230575,3.320091807147376,3.768719651034081,0.0002242721760019,48.1660778383537,0.0004326225136175,3.32784677779744,486.2390860568404,6.025734265159953,2.428648685938864,69.99997621008868,-2.890941335368725e-09,113.70000070125378,22.232643351545065,15.288,0.0,0.0,0.0177081261985351,1.5941871344608664e-11,-1.560901486259027e-05,8.477542742712431e-10,2.495765160917323e-07,3.7687196576976176,56.27980129251342,6.025769493750979,48.280903250602165
0.15,31.22218540777004,131.01038560455507,3.377159065217065,3.821894709649632,0.000249725644238,46.56959330999435,0.0004643042952466,3.324387732286376,472.54218587214,6.441023336496372,2.6014999612196745,69.99996641132823,-2.546763407193136e-09,113.70000082794672,25.402620271850456,15.288,0.0,0.0,0.0189285691155931,2.2314099732464315e-11,-1.992367942778425e-05,1.1417519574710292e-09,3.4051816697623295e-07,3.821894717796148,54.501255563441134,6.441062563308839,46.68809885900716
0.16,31.22218531193176,131.01038586421257,3.4382223512025254,3.8463320955387794,0.0002733212404609,36.974247749122085,0.0004987816203583,3.3205066466509234,391.1218908297564,6.895451966878468,2.7877331692857847,69.99995397923414,-1.77088415515292e-09,113.70000096417354,29.113317717489338,15.288,0.0,0.0,0.0202640360420561,3.0367358387834494e-11,-2.4945905791363795e-05,1.5114297685186711e-09,4.5643121540033697e-07,3.846332105235269,52.641145594326446,6.895494900078523,37.12304892183151
0.17,31.222185210004127,131.010386140357,3.503019838429153,3.8860314262554336,0.000297865039677,46.520531453299206,0.0005306403365217,3.31650761597812,471.78125980632376,7.314788342774694,2.9619016331667103,69.99993849340957,-4.3039914767238207e-10,113.70000110959404,32.761746921137856,15.288,0.0,0.0,0.0214963781445172,4.0366633128431416e-11,-3.0713078585132897e-05,1.96747427715988e-09,5.961228045584824e-07,3.886031437653654,51.00464968745696,7.314835131305714,46.63860064094784
0.18,31.22218510147516,131.01038643438045,3.571950002194137,3.9107265153396016,0.0003214293682635,38.895647526122765,0.0005639254295027,3.312149448254175,407.10156721191447,7.754626295791602,3.1430587898572058,69.9999195084231,1.6149322372810674e-09,113.70000126508234,36.81988229018681,15.288,0.0,0.0,0.0227889722876034,5.2593391349219385e-11,-3.731786027786564e-05,2.525509173087448e-09,7.6786585232224e-07,3.9107265285284982,49.36615848311875,7.754676785798701,39.036415444581515
0.19,31.222184986476247,131.0103867459258,3.644912152926752,3.920599115663931,0.0003437679584038,43.86258669386953,0.0005989384366483,3.307389681300437,448.9531328318269,8.219206165926856,3.332657190859447,69.99989653019398,4.538529095696477e-09,113.70000143063515,41.36350714675367,15.288,0.0,0.0,0.02415428010977,6.735860419174937e-11,-4.481243905342629e-05,3.199401151670645e-09,9.773118416308382e-07,3.92059913071168,47.71893898797248,8.21926016487149,43.987104227715655
0.2,31.222184864792144,131.01038707557822,3.722074668489528,3.943376465171875,0.000367328732016,40.28070981710589,0.0006315894240138,3.30251450988504,418.51563019916136,8.65238089736321,3.511445117640573,69.99986902534273,8.534090245934178e-09,113.7000016067622,45.83799876721736,15.288,0.0,0.0,0.025427299120469,8.499785987217288e-11,-5.328041996372527e-05,4.006766070954748e-09,1.2232205148646746e-06,3.9433764822533854,46.2587826635041,8.652438597225508,40.41586552155969
0.21,31.22218473678744,131.01038742234647,3.803156063113743,3.9664546506877016,0.000390962054969,38.67679184347145,0.0006636984664108,3.297405915846789,404.8187610144644,9.079179692250786,3.688002035198235,69.99983642883521,1.3827831253856693e-08,113.70000179318536,50.47126980736161,15.288,0.0,0.0,0.0266815841422463,1.0586558589671407e-10,-6.275155280099118e-05,4.961340042512481e-09,1.5117124669161171e-06,3.9664546699249135,44.88773728276958,9.079241104426773,38.817098210937615
0.22,31.2221846022986,131.01038778667507,3.8882846911135607,3.956175711337521,0.0004112685792646,46.713636108302936,0.0007011135033803,3.291572407481395,472.5421858721365,9.580256326712124,3.889976788904857,69.99979815126248,2.0662823443484168e-08,113.70000199039316,56.195522894218605,15.288,0.0,0.0,0.0281541581291438,1.3033127211465288e-10,-7.330053770532661e-05,6.0817207473359025e-09,1.8632831045819008e-06,3.956175732680424,43.35679625546934,9.580320928629488,46.8294591882524
0.23,31.222184460898035,131.01038816972698,3.977794004014759,3.9879066397329104,0.0004360962274406,38.89105719050748,0.0007308686121188,3.286096544282012,406.3406421461021,9.977039034039262,4.056142701351626,69.99975353557706,2.9316661139418326e-08,113.70000219928508,60.9462612310605,15.288,0.0,0.0,0.0293202403623685,1.5880617816859538e-10,-8.505067486192354e-05,7.393319440773217e-09,2.2514912291167663e-06,3.987906663538912,42.20670487756048,9.97710753587448,39.0296395118868
0.24,31.222184313516166,131.01038856897196,4.070963590490852,4.003523997322975,0.000459165577055,40.0792299321398,0.0007630441688766,3.280134925833028,416.2328240017114,10.408422364424831,4.234121060914368,69.99970190737699,4.010976417051318e-08,113.70000241888,66.32994780718496,15.288,0.0,0.0,0.030588009649109,1.91711512587616e-10,-9.795845222523724e-05,8.904557280909524e-09,2.7052895870113487e-06,4.003524023611085,41.011349410369874,10.408494489985014,40.21323112692186
0.25,31.22218416001652,131.01038898478134,4.167901030441617,4.0261356185860135,0.0004830526730531,41.17760020658354,0.0007934613160587,3.2740610008587527,425.36408079150686,10.816813039390448,4.4041629376391525,69.99964258149416,5.3372865854010094e-08,113.70000264972064,71.63651430352668,15.288,0.0,0.0,0.0317882126436337,2.2947426169209347e-10,-0.0001121037688082,1.0637152702866709e-08,3.217380562698304e-06,4.026135647516394,39.93186687113378,10.816888917126896,41.30755663120434
0.26,31.222184000702686,131.0103894163294,4.26837241014618,4.053359329950934,0.000507503069958,44.80261175215926,0.0008224724146494,3.2678597736729302,455.8015834241788,11.207047269494833,4.567925492611352,69.99957484039399,6.947299261165984e-08,113.70000289176392,76.89781807056055,15.288,0.0,0.0,0.0329350617559806,2.7254099134167665e-10,-0.0001275114371842,1.260720913253598e-08,3.7915697709142366e-06,4.053359361668992,38.945390435244384,11.207126987890645,44.921630958721536
0.27,31.22218383516388,131.01038986473338,4.372698316214008,4.0614460923241,0.0005296455772492,41.029837477288126,0.0008548809954683,3.2610328932384265,423.84219965987256,11.645685385842508,4.748226940060522,69.99949794024376,8.879821051920497e-08,113.70000314600205,83.0342688744587,15.288,0.0,0.0,0.0342241635563461,3.2137296827284217e-10,-0.0001442952656441,1.4842505534226832e-08,4.458527942364847e-06,4.061446126801262,37.8838346421185,11.645768582375233,41.15922617924542
0.28,31.222183663504484,131.01039032970942,4.48079961904222,4.081133040992532,0.0005533279247169,47.27661484082626,0.0008845140695959,3.254218495915602,476.3468732012221,12.047344998676092,4.915789434712848,69.99941106884992,1.1178948978424788e-07,113.70000341275257,88.85982357848233,15.288,0.0,0.0,0.0354045979054623,3.764736350660473e-10,-0.0001625146963723,1.7365685655384934e-08,5.194620655212288e-06,4.081133078439725,36.956255322213885,12.047431915223257,47.38848224631549
0.29,31.22218348566054,131.0103908114315,4.592727908358551,4.1001100265020245,0.0005770279952742,37.989969791857405,0.0009138463939581,3.247164755122801,397.97031042211177,12.446314684600782,5.082367374004485,69.99931338876085,1.3891902435864665e-07,113.70000369260468,94.8417675268915,15.288,0.0,0.0,0.0365771315767517,4.3836067907166327e-10,-0.0001822432988888,2.0202163500922312e-08,6.018074062137429e-06,4.100110067036654,36.07377590258778,12.446405323946324,38.12849176886316
0.3,31.222183301933686,131.01039130907952,4.708251093558373,4.112858061667493,0.0005998635114143,35.655053282557844,0.000944131403186,3.2397207148238625,378.1859457108711,12.860033399289696,5.253940723820665,69.99920403105713,1.707002607527005e-07,113.7000039856728,101.2505662360602,15.288,0.0,0.0,0.03779301412572,5.075709863465428e-10,-0.0002035013069687,2.3370674033523645e-08,6.94335970778e-06,4.112858105337573,35.19685285507256,12.860127625629724,35.80193592228613
0.31,31.222183112488807,131.0103918222051,4.827243246502713,4.136140889545823,0.0006242383343011,37.56633644061071,0.0009716215464757,3.232339252743767,394.1656220930212,13.2364445751808,5.4126574282679245,69.99908210036875,2.0768081583188525e-07,113.7000042923011,107.26326115439352,15.288,0.0,0.0,0.0388992619788015,5.846561731689753e-10,-0.0002263323252403,2.6893437641668458e-08,7.948283231812338e-06,4.1361409365698805,34.43286455705216,13.236542630309057,37.70514091683033
0.32,31.22218291741533,131.01039235056504,4.949637017503345,4.1622282001352975,0.0006491019906456,40.83513712643371,0.0009979686925508,3.224840963348891,421.55939346242695,13.59846554462374,5.566374262777002,69.99894668612772,2.504388718903276e-07,113.70000461297312,113.2095365840355,15.288,0.0,0.0,0.0399632243410653,6.701756367872645e-10,-0.00025078340164,3.0793566854276295e-08,9.047716714467492e-06,4.16222825066026,33.72644865222576,13.598567505326,40.96227562489027
0.33,31.222182716732533,131.01039289410716,5.075419569102976,4.187801887681037,0.0006739743721461,40.48743503284469,0.0010239291638211,3.217136801802925,418.5156301991682,13.956637761217308,5.718704299733134,69.99879684673242,2.995902922462564e-07,113.70000494831164,119.25032483364384,15.288,0.0,0.0,0.0410158804634189,7.647061680070125e-10,-0.0002769136723495,3.509664608790402e-08,1.0253455741189656e-05,4.187801941818244,33.053267359159875,13.956743628864118,40.61505097607
0.34,31.222182510255863,131.01039345333336,5.204736257784645,4.19642921746386,0.0006961879027693,31.814592723444047,0.0010535137542081,3.208669900766693,345.46563688075645,14.367047160772364,5.88887983533068,69.99863160305904,3.557915789971256e-07,113.70000529927128,126.36523219087664,15.288,0.0,0.0,0.042222056531773,8.688448410811866e-10,-0.0003048202762282,3.9835373705550826e-08,1.1618525957862828e-05,4.196429275109305,32.30947868183619,14.367156517712404,31.97598901989736
0.35,31.222182298183583,131.0103940277045,5.337435501771672,4.210915783240843,0.0007193441544952,34.813487415034444,0.0010813034848195,3.200164272309822,370.5765700527033,14.754132934586384,6.050986755458457,69.99844991734221,4.1975736284587617e-07,113.70000566632532,133.26448209504355,15.288,0.0,0.0,0.0433596939127697,9.832256819293898e-10,-0.0003345386312107,4.503361101379695e-08,1.309465610343774e-05,4.210915844572415,31.63649055965014,14.75424592890194,34.96026256388454
0.36,31.222182080444604,131.0103946174141,5.4735747500461605,4.22903876037745,0.0007431682866607,39.2632255716727,0.0011077666085529,3.1915717453569297,407.8625232777193,15.124417129017054,6.2072589919251575,69.99825073022951,4.922382611919288e-07,113.70000605036684,140.03566173682628,15.288,0.0,0.0,0.0444479595865755,1.1084921261805627e-09,-0.0003661511460057,5.0723697896912267e-08,1.4691545926915382e-05,4.229038825557203,31.017264542603208,15.124533865618538,39.39272792946638
0.37,31.22218185710795,131.01039522227452,5.613102797925907,4.249164960780052,0.0007674149135003,37.28328237034959,0.001133274451316,3.1828514669894137,391.1218908297666,15.483077353331511,6.359470679857624,69.99803294268581,5.740349991123437e-07,113.70000645214331,146.75405277514704,15.288,0.0,0.0,0.0455020695186381,1.245311285088233e-09,-0.0003997125883071,5.6934243389647934e-08,1.641828325195534e-05,4.2491650299519,30.439178816713017,15.483197898584232,37.418894813348615
0.38,31.2221816281124,131.0103958424523,5.756069531572451,4.260095806433531,0.0007900626414612,38.9278000801764,0.0011607546399008,3.1735466295306622,404.8187610144602,15.87126705947922,6.521735074464384,69.99779542676283,6.659911329739736e-07,113.70000687263192,154.20298254405043,15.288,0.0,0.0,0.0466429667223463,1.3943646956867835e-09,-0.0004353006984059,6.369875435270817e-08,1.8328108041903096e-05,4.260095879559656,29.83470194713067,15.87139116222873,39.05694584372078
0.39,31.22218139339905,131.0103964781077,5.9025231349944285,4.274091258047817,0.0008133283308351,33.320076729592266,0.0011870382950339,3.164143363712209,357.64062493382744,16.24457853509073,6.678818328235205,69.9975369905506,7.690136753559805e-07,113.70000731287368,161.54010621938565,15.288,0.0,0.0,0.0477401448128051,1.5563705124515804e-09,-0.0004730068442167,7.105463478762673e-08,2.0383860516746246e-05,4.274091335289374,29.274934656826048,16.244706292406182,33.46997636540994
0.4,31.22218115316572,131.01039712870306,6.0523126585892895,4.286421841403391,0.0008363022448449,31.88018820767003,0.0012133780841982,3.1544430614236454,345.465636880754,16.62063299903514,6.836764518435374,69.99725641601981,8.840594270905819e-07,113.70000777359816,169.10340080049767,15.288,0.0,0.0,0.0488453895716005,1.7320643186450851e-09,-0.0005128553637434,7.9027539265021e-08,2.2612406375611563e-05,4.286421922834417,28.730746964325096,16.620764365084565,32.03586915718869
0.41,31.22218090752676,131.01039779392735,6.205351877049411,4.30025870409831,0.0008595777771371,35.882550741685804,0.0012389121673015,3.1445895889870297,378.94687077668647,16.987310563534386,6.99141560549392,69.9969524610574,1.0121301778427253e-06,113.70000825570062,176.64448930727934,15.288,0.0,0.0,0.0499230826371405,1.922193031274436e-09,-0.0005548883906878,8.764667734700782e-08,2.5005077415911235e-05,4.300258789847355,28.21875643368965,16.987445585695873,36.020076248499606
0.42,31.222180656535848,131.0103984736348,6.36160173428776,4.322008670726048,0.0008844838439129,40.34064925656127,0.001261804338223,3.134918999355981,416.2328240017114,17.318628721060172,7.133856886815013,69.99662385300175,1.154276942054023e-06,113.70000876021427,183.59942989625057,15.288,0.0,0.0,0.0508968652507098,2.1275184665783874e-09,-0.0005991661829955,9.694534598491077e-08,2.752657757470936e-05,4.322008761057615,27.772396468009568,17.318767655457478,40.462275036947325
0.43,31.222180400205527,131.0103991677914,6.521055075967404,4.339436441324956,0.0009085827200945,35.541853595187746,0.0012854696362701,3.124839917627212,375.9031395134336,17.662848429084132,7.280642039343927,69.99626930133451,1.3115939750280808e-06,113.70000928827632,190.96736675963504,15.288,0.0,0.0,0.0519085689713619,2.3488101247838237e-09,-0.0006457514522491,1.0695800287133593e-07,3.0255957891170616e-05,4.339436536261635,27.322335771349252,17.662991148924057,35.67895714766603
0.44,31.22218013836212,131.0103998768696,6.683849332059896,4.342209064313268,0.0009296474314902,32.82948243168077,0.0013129688908547,3.113754688841357,353.0750125389216,18.063580761318697,7.446730341918701,69.99588746395321,1.4852372182848018e-06,113.7000098413532,199.7278270846888,15.288,0.0,0.0,0.0530863610987301,2.586862292117705e-09,-0.0006947575786514,1.1773083546077225e-07,3.329010177793299e-05,4.342209163639375,26.81344244367223,18.06372678999575,32.9768158972058
0.45,31.22217987077456,131.0104006014978,6.850166573233225,4.3420317510315165,0.0009500780330031,38.11022602597878,0.001341042003417,3.1022288449712887,397.2093853562869,18.47486275310604,7.616350301328129,69.99547690348253,1.6764536248320808e-06,113.70001042108892,208.92306716049887,15.288,0.0,0.0,0.0542951637545535,2.842521175226318e-09,-0.0007463379956615,1.2932090054593452e-07,3.657529369088674e-05,4.342031854775571,26.30944884471334,18.47501199101448,38.23628058998621
0.46,31.22217959739673,131.01040134180155,7.020045503401754,4.351169003849846,0.0009725797783515,44.3937050866137,0.0013660055515545,3.09098240974522,449.7140588976434,18.844323061800488,7.771531995684422,69.99503610583268,1.8865779683531e-06,113.70001102895836,217.3591612614144,15.288,0.0,0.0,0.0553810645782081,3.1166808800591503e-09,-0.000800596194505,1.417768495237597e-07,4.001824400409673e-05,4.351169112337076,25.873596578896564,18.844475834274814,44.50118229261506
0.47,31.22217931813738,131.01040209802923,7.193559875579052,4.358630093683735,0.0009947969928181,30.22514089990685,0.0013910994973101,3.079396422776949,331.0078106302534,19.2180591098146,7.9280875671397615,69.99456352718363,2.1170044481277104e-06,113.70001166656292,226.0625808853568,15.288,0.0,0.0,0.0564795377574197,3.4102493884459798e-09,-0.0008576351980594,1.551487523304888e-07,4.3718862242359527e-05,4.35863020698899,25.44665981168229,19.218215372160817,30.381603425148434
0.48,31.22217903348153,131.01040286886197,7.370336324605091,4.365514409145237,0.001016880998596,29.779838936311712,0.001416009414045,3.067527859335786,327.2031223011574,19.5915905767454,8.084483592791102,69.99405758812365,2.369198154608765e-06,113.70001233476164,234.93171707892955,15.288,0.0,0.0,0.057577416115756,3.7241711041759195e-09,-0.0009173883913609,1.6944871263079066e-07,4.767297940601472e-05,4.365514527349481,25.03354780044292,19.59175030803913,29.937410312943754
0.49,31.22217874361868,131.01040365378466,7.5502307795521535,4.3786401372577615,0.0010404145545081,37.2489281064929,0.0014385799934191,3.0558405437943126,389.60000969812296,19.93403005898306,8.23012235628909,69.99351671352461,2.644660619562788e-06,113.700013034871,243.21198709852868,15.288,0.0,0.0,0.0585839249886784,4.059374595909599e-09,-0.0009798792959512,1.8470833984680338e-07,5.180951737438081e-05,4.378640260624215,24.667474291142685,19.934193486919103,37.37406598941686
0.5,31.22217844858332,131.0104044527036,7.733219389747018,-7.954414135467879,13.21239705419478,38.489523315707615,-0.7600685954297093,3.7690710549380495,397.97031042210494,19.36996405050145,8.366120773869401,69.99293932307316,2.9449363413826395e-06,113.70001376847225,229.6385294134264,15.288,0.0,6.262892444746544,0.0569263144517849,4.416673716856832e-09,-0.0010561207172611,2.6601108099191817e-05,5.425960180624858e-05,15.385485997788342,38.346579911821344,21.42701770763939,38.68109364996458
0.51,31.22217814876608,131.01040526599138,7.919244353855905,-7.75062240637962,13.020862813882932,29.578229458607428,-0.7789083234920655,3.775197179251839,323.3984349720841,19.694513586646448,8.519700839064166,69.99236195232035,0.0001728296146673,113.7001949856328,237.39408209980377,15.288,0.0,6.2877459399344335,0.0578802533250428,4.834837572561656e-09,-0.0009511607296355,0.0002082682196024,4.968503940921342e-05,15.11873111167415,37.78790490286338,21.722266072143263,29.828350102288066
0.52,31.222177844199024,131.01040609415293,8.108308762980446,-7.551695014735795,12.828553473911631,35.414312176553786,-0.7983261112013912,3.78157961199572,372.0984511843415,20.02807317389855,8.675806104204712,69.99184514784585,0.0006318246738492,113.70068389093665,245.49905507379745,15.288,0.0,6.312510751214844,0.0588606779369183,5.317795098814062e-09,-0.0008445610667745,0.0003946017285222,4.486305153657403e-05,14.854043899101782,37.22916986294552,22.02638311453408,35.624586676621156
0.53,31.222177534758888,131.0104069375869,8.300524172142387,-7.360608269088656,12.64398535515716,37.15459136615724,-0.8178418491033486,3.7878288761564622,386.5562464348624,20.358424680758148,8.83068575181084,69.99138988127005,0.0013874718071181,113.70148851249944,253.6598956613572,15.288,0.0,6.3371908656217375,0.0598316805826119,5.867444362922573e-09,-0.0007362433663295,0.0005858214550713,3.975356970812213e-05,14.600191957275936,36.69122507713717,22.32845608157595,37.356126304413785
0.54,31.222177220357764,131.01040779657296,8.495967156562688,-7.17630577295492,12.4657322458922,32.69906314997342,-0.8375286156464744,3.793987071167552,349.2703242098436,20.68716475636128,8.984914535403842,69.99099713537758,0.0024475251496055,113.70261710416456,261.9131275203599,15.288,0.0,6.361804252945242,0.0607979537834337,6.4857377846194245e-09,-0.0006261658710626,0.0007820954497175,3.435522396642216e-05,14.355411409373891,36.17046178734064,22.629865760544156,32.92908323904816
0.55,31.222176901281124,131.01040867037477,8.694424619769107,-7.0004271488042304,12.296917051885272,34.62154594168988,-0.8571329788577589,3.799916114496925,365.2500005919907,21.008394632512005,9.136411487342318,69.99066786968278,0.0038197957432486,113.70407797948084,270.1050957833415,15.288,0.0,6.386322156410068,0.0617421614095815,7.174669767600764e-09,-0.0005145029069333,0.0009832149154819,2.866651122723586e-05,14.123195095503812,35.67520735516073,22.92519495395605,34.83999831821468
0.56,31.222176577540043,131.01040955900075,8.895896097521701,-6.833900164605336,12.1395494903938,32.35023688299808,-0.8764514122217079,3.805511856037716,346.2265619465787,21.317553176367607,9.283580534202343,69.99040298439277,0.005511972836408,113.705879322414,278.10791696183475,15.288,0.0,6.4107442051529135,0.0626508985369123,7.936194970032467e-09,-0.0004012654350904,0.0011892551946787,2.2685839047272383e-05,13.905727523421865,35.21089547299205,23.210194192144574,32.58508729389134
0.57,31.222176249216147,131.01041046226686,9.10032636423384,-6.66942600474215,11.981454095775208,31.99301526194669,-0.8963503364655184,3.811238101908201,343.1828296833023,21.63487736582553,9.433561845604904,69.99020334664186,0.0075317518157396,113.70802932297964,286.4435138348905,15.288,0.0,6.435059749931516,0.0635836402721424,8.772281009620131e-09,-0.0002865175388763,0.0014001982940017,1.6439282733497987e-05,13.68888695598734,34.74573374386696,23.503232961441626,32.23169256099147
0.58,31.222175916297896,131.01041138024203,9.307732390189472,-6.502732506983939,11.815149043121911,41.947002337768495,-0.9174587811138356,3.8174150555074906,426.1250058573153,21.97444899899852,9.59130511288232,69.99006980571868,0.0098869091062646,113.71053625716024,295.49998006171944,15.288,0.0,6.459268810407917,0.064581772565712,9.684911110166897e-09,-0.0001702678273407,0.0016161260253319,9.922455369107084e-06,13.464088449859588,34.259978313915695,23.817242720053965,42.13033815964232
0.59,31.22217557839941,131.01041231401487,9.518421868373007,-6.349634518148346,11.668494764851015,34.10750715017298,-0.9375701374978505,3.82288900118954,360.68438819711065,22.2853732977496,9.738908935622248,69.99000327947118,0.0125857382600468,113.71340895138152,303.9152605410784,15.288,0.0,6.483401333093278,0.065495718720798,1.0676149935274665e-08,-5.228668560304616e-05,0.001837560709895,3.0900877037966047e-06,13.263191026407393,33.82698100720805,24.105612672317925,34.3338835857123
0.6,31.222175235739428,131.01041326302965,9.732233547742023,-6.189086742456249,11.50438520627394,30.372182389039928,-0.9597093932373232,3.829220193813762,329.4859594986058,22.636698105946472,9.900649814383408,69.9900046720714,0.0156366557754676,113.71665636158836,313.5666907806811,15.288,0.0,6.507436221524162,0.066528407142752,1.1748156890633984e-08,6.727527983445545e-05,0.0020643343832613,-4.038494117902418e-06,13.04373860308461,33.34891977904125,24.43168450863869,30.62765796604902
0.61,31.22217488828063,131.0104142274272,9.949204890714803,-6.031611751494292,11.341406858611272,35.49443098510104,-0.9824187356948167,3.835642582244281,372.0984511843297,22.994578455962515,10.064616737333164,69.99007489202123,0.0190482916643874,113.72028767082064,323.553141732718,15.288,0.0,6.531380882773151,0.0675803694940151,1.2903116600278052e-08,0.0001884311628703,0.0022965793073697,-1.1489999112624703e-05,12.826967747265249,32.87472705804521,24.76447138157444,35.714589897506464
0.62,31.22217453614561,131.01041520691405,10.169249471683791,-5.896203344636112,11.214737091746152,43.99969342659869,-1.0024765363088246,3.840544333630208,442.86563930529206,23.28689363526236,10.205515592281728,69.99021484899676,0.022829484949409,113.72431228379835,331.82466068361,15.288,0.0,6.555244821819377,0.0684396448461881,1.4143280421019294e-08,0.0003111232699512,0.0025342959776888,-1.921218199880189e-05,12.65267241874933,32.49783694970628,25.037273548497204,44.17836304820609
0.63,31.22217417916418,131.01041620198944,10.392507343977597,-5.759060550478406,11.081331215078212,25.181931824114844,-1.02363412554587,3.845818224600656,286.11251274707894,23.59847529763897,10.353128749525071,69.99042535516905,0.0269887652933874,113.72873927585688,340.7564753180285,15.288,0.0,6.578984763894984,0.0693555508703827,1.5470799719209487e-08,0.0004354102617251,0.0027777131737002,-2.72461994587724e-05,12.471881382037484,32.104342539462195,25.328295277566543,25.494466753278456
0.64,31.222173817917508,131.0104172111112,10.618536295238064,-5.617359881998472,10.935601657040335,24.729365931393083,-1.0465341935580914,3.851762833549804,282.30782441796754,23.942874728260023,10.512175744059856,69.99070720168018,0.0315347608411962,113.73357782548038,350.7675340755473,15.288,0.0,6.602623755603582,0.0703679148606185,1.688796638248913e-08,0.0005609238300222,0.0030262311598012,-3.561181307571677e-05,12.27834577761008,31.679074840747344,25.650224789281417,25.049408178896098
0.65,31.22217345239605,131.01041823434076,10.847351712854376,-5.491493892704863,10.816281611145191,43.29964335599988,-1.0673874536928691,3.856523262544661,436.7781447787475,24.2363913793361,10.653344973403415,69.99106110624743,0.0364759092751599,113.7388369086654,359.4124978468124,15.288,0.0,6.626124980730067,0.071230741795283,1.8396933780124443e-08,0.0006876777709,0.0032799817366765,-4.419338846353801e-05,12.1156569757853,31.3253829896812,25.925335351456653,43.48414886378293
0.66,31.22217308211443,131.01041927303035,11.079337427983498,-5.365893855000088,10.694134762911077,36.90546660154131,-1.08901161026014,3.8614801909481935,383.51251517160017,24.54128922492164,10.798456991316163,69.99148776816654,0.0418207515013489,113.74452561128008,368.50410779062526,15.288,0.0,6.6495238609193565,0.0721270251759072,1.999979784854302e-08,0.0008159301891636,0.0035395937109735,-5.309395285116452e-05,11.950816116429296,30.965365071631144,26.21138346434261,37.12290991597841
0.67,31.22217270726277,131.01042032670023,11.314354393305877,-5.236745949617978,10.56156201542003,25.56533235873461,-1.112278805531444,3.8670361162953855,289.1562440103425,24.876005951446007,10.95394433225526,69.9919879196139,0.0475784425224517,113.75065367391451,378.61610972822575,15.288,0.0,6.672843460426679,0.0731109538832119,2.1698928854308608e-08,0.0009455467292215,0.0038049218734742,-6.236609205634607e-05,11.77533924558778,30.578516094994388,26.525632943717984,25.880057014591955
0.68,31.222172328014608,131.01042139491514,11.552276439999556,-5.112676061226408,10.435489763380591,31.794800720399827,-1.1354185139389592,3.872336676606445,340.8999924858462,25.20193029495648,11.106297827179242,69.99256236100035,0.0537581077016131,113.75723079642616,388.59344854497687,15.288,0.0,6.696009029706564,0.0740690492223706,2.3496677308774408e-08,0.0010764188352887,0.0040758668757856,-7.192668666815215e-05,11.60814674245619,30.21026513975101,26.832085424751646,32.04985989655375
0.69,31.222171944456107,131.01042247747557,11.793044781192911,-4.997796275050425,10.3244307123213,39.035129352694646,-1.1574058065647015,3.876916428407773,401.0140726853634,25.497488799597555,11.24799307197436,69.99321172052362,0.0603687840019544,113.76426659243448,397.752245854838,15.288,0.0,6.719066296423217,0.0749379059777333,2.539537447891513e-08,0.0012084736977254,0.0043524004446019,-8.16957626342737e-05,11.45865463091931,29.883414551602485,27.110484314306824,39.24425299041289
0.7,31.222171556461934,131.01042357475424,12.036764146395532,-4.8851677995667,10.214801319762724,32.81389925563178,-1.17971285434943,3.8814677578222256,349.27032420985284,25.794301763142453,11.390082282033784,69.99393660832423,0.0674194205340372,113.77177057873983,407.05698299521566,15.288,0.0,6.742034266417197,0.0758104568812206,2.7397274507803884e-08,0.0013417610101662,0.0046347514192107,-9.176006209650876e-05,11.311654493014922,29.56153306947951,27.390352613696457,33.0637187674418
0.71,31.22217116409225,131.0104246866209,12.283395739033736,-4.771082559435572,10.099127345610068,27.047107345784426,-1.203235043211942,3.886386093934505,301.33126406340574,26.11111555738234,11.539097765962795,69.9947375982897,0.0749192179622853,113.77975254156956,417.107716742142,15.288,0.0,6.764844812442094,0.0767417984865965,2.95047451748446e-08,0.0014762167366265,0.004922915168923,-0.0001021927345907,11.15881995788062,29.22464073921914,27.689281140041825,27.35137633126945
0.72,31.222170767356744,131.01042581308226,12.532939912267196,-4.6550638261479005,9.976123136428026,33.00959910378273,-1.2282421390899887,3.891779206645504,350.79220534145287,26.45278555056509,11.6967199660034,69.9956153685978,0.0828775685204887,113.78822246179452,428.08477876551336,15.288,0.0,6.787551746258077,0.0777462015729192,3.1720172637288065e-08,0.0016118205395254,0.0052169796003952,-0.0001130373997263,10.998778584762125,28.86903303398545,28.011925424581115,33.26091034740283
0.73,31.22217036626024,131.0104269541592,12.785400998787209,-4.552139925034632,9.87741523242575,41.63426066484136,-1.250728452199641,3.8958620333450313,422.320318528234,26.73602255757476,11.833929719800704,69.99657050406715,0.0913042487702224,113.79719073681969,437.2904900298237,15.288,0.0,6.810168779474383,0.0785788746356996,3.404603657550863e-08,0.0017485660640561,0.0055170634464792,-0.0001239373988324,10.866440702387774,28.58004005891853,28.279889559231904,41.83483863661909
0.74,31.22216996074764,131.0104281100317,13.040829079060854,-4.447960741048899,9.77320057194371,26.23340813269536,-1.274389677320604,3.9002814129678143,294.48281347105944,27.038142280812497,11.97767059729618,69.9976034928541,0.1002087232178446,113.80666743108064,447.2182110203482,15.288,0.0,6.832656161797165,0.0794670527673833,3.648474176321312e-08,0.001886437315188,0.0058232736519906,-0.0001352172525704,10.728815151629911,28.2773678283032,28.565879389127893,26.55236272738399
0.75,31.222169551180407,131.0104292797524,13.298952382188167,-4.343830573253538,9.666154637501666,30.54910120384284,-1.298948405928388,3.904900831771756,330.24688556441487,27.35278898318702,12.125713017784836,69.99871490517782,0.109600540134527,113.816662688205,457.6761133492531,15.288,0.0,6.8550006775046,0.0803920562658092,3.9038846102798096e-08,0.0020251898484304,0.0061352102008199,-0.00014684848533,10.588861449212162,27.968163617782267,28.86395272422072,30.825040175640773
0.76,31.22216913745611,131.01043046362818,13.559857473149368,-4.245303534241369,9.56839708442284,32.84806712550308,-1.3227397393192823,3.9090023218054646,349.27032420986166,27.646045623773126,12.266259487930084,69.99990511268759,0.1194892349839529,113.82718664907216,467.5307454656616,15.288,0.0,6.877239730102016,0.0812542004002046,4.1710738500075286e-08,0.0021648716486076,0.0064531163539192,-0.0001586559655461,10.459871285820594,27.68517830916157,29.14206945989371,33.10627513707048
0.77,31.222168719524504,131.01043166182413,13.823590485623264,-4.1495516719640175,9.474001050761586,30.741597435853848,-1.3465315649210503,3.912922386368352,331.7687666960708,27.93366476949629,12.40479630133436,70.00117461202855,0.1298844487546287,113.83824955438364,477.2972911302045,15.288,0.0,6.89937573074607,0.0820997830800571,4.450284237416928e-08,0.0023054853766926,0.0067771427525036,-0.0001707145440818,10.335289293004864,27.4123910657908,29.41506517236171,31.01886396638612
0.78,31.22216829745562,131.01043287417943,14.09010457140533,-4.052750830228265,9.374540982948991,25.32785950293876,-1.3715388620787434,3.9171640850659935,286.8734378128899,28.24008325458071,12.54981160650232,70.002523716078,0.1407959251709013,113.84986176429628,487.8136693211902,15.288,0.0,6.921359678802429,0.0830006266654535,4.741767981032596e-08,0.0024469491953343,0.0071072509030398,-0.0001831724032466,10.205877277529371,27.12701042955946,29.70607137590073,25.665653319565596
0.79,31.222167871342727,131.0104341004704,14.359334991661548,-3.956292010252205,9.272987205897776,35.80296189187133,-1.3974022746420087,3.9215658879836632,373.6203323159534,28.55746855972413,12.698574287788633,70.0039528243986,0.1522335376549987,113.862033767437,498.82729139011417,15.288,0.0,6.943219109878812,0.0839337109961015,5.0457800072435727e-08,0.0025891808821334,0.0074433985486145,-0.0001959927418191,10.07489916429954,26.836969936362557,30.007715401686333,36.04418805246919
0.8,31.22216744097346,131.01043534129903,14.63145291685518,-3.8670506272957166,9.185258737651532,36.26793864885441,-1.4216388790294123,3.925108931331748,377.42502064505743,28.83682155162964,12.834078551858005,70.00546234059586,0.1642074698598557,113.87477638154772,508.6209235069544,15.288,0.0,6.964983048470674,0.0847550220398233,5.362565342567854e-08,0.0027322974787669,0.0077860142042064,-0.0002088439561574,9.95965320422484,26.585596292040503,30.273466427829657,36.5074089886184
0.81,31.222167006455106,131.0104365964025,14.90638263553804,-3.7761788679528334,9.0910683987771,23.772693001727408,-1.4473788311563067,3.9290761646565273,273.9374926939919,29.14005770933763,12.977816834820432,70.00705249946375,0.1767279036260604,113.88810042959985,519.360349753285,15.288,0.0,6.98664039382541,0.0856465366688765,5.6923901071913546e-08,0.0028761817266762,0.0081349829175067,-0.0002221476911353,9.838046060466915,26.317640275622907,30.562094982784156,24.138630399070507
0.82,31.222166567980096,131.01043786528842,15.183982825724518,-3.685719474746055,8.995099169830956,30.39470094440105,-1.4739486284946888,3.933178108099441,328.72500443277005,29.45331637905166,13.124966450471156,70.00872360533975,0.1898050443828308,113.9020167497236,530.5725807066085,15.288,0.0,7.008172018395735,0.0865675170358468,6.03552335070653e-08,0.0030206868170753,0.0084901108150028,-0.0002358106406495,9.715169377376268,26.045832997689477,30.860466216430574,30.683550317540636
0.83,31.222166125537623,131.01043914801224,15.464268842076844,-3.602880296323228,8.914861216551124,38.491926942558415,-1.4983474301505486,3.936222279886131,395.68750322465047,29.718983569664136,13.255554403310716,70.01047589387893,0.2034492211170186,113.91653631327284,540.1726746465096,15.288,0.0,7.029558918425597,0.087348627205509,6.392223894885639e-08,0.0031658035221427,0.0088515351835799,-0.0002493616799305,9.60991924985577,25.818107456053752,31.11368328751045,38.72166487393543
0.84,31.222165679027583,131.01044044486724,15.747324341902877,-3.5203173833850414,8.832877668480101,23.96154405331897,-1.523466309307019,3.9393671008306255,275.4593748256452,29.99322053965803,13.389059478628065,70.01230952353286,0.217670580024955,113.93166989590796,550.1727845636968,15.288,0.0,7.050838764104448,0.088154933039872,6.76274344176891e-08,0.0033115393865438,0.0092194463633176,-0.0002632406928492,9.503368178413432,25.586640965245195,31.375196457849547,24.330950580892765
0.85,31.22216522874844,131.0104417550732,16.032926017318246,-3.4345772320339383,8.740485446420255,26.079709215105463,-1.5509268011201955,3.9432249729263615,292.96093233939376,30.306192522875687,13.535915620941456,70.0142246032905,0.2324792794376497,113.9474282843104,561.6991220876059,15.288,0.0,7.071994526532965,0.089075095425462,7.147360492479188e-08,0.0034576681023741,0.0095934470864029,-0.0002777171941246,9.386199239004815,25.327630188262525,31.67382583135119,26.42168862646746
0.86,31.22216477453224,131.01044307910607,16.321209832566044,-3.353804142891984,8.657901133171746,32.525581177546506,-1.5771177146773063,3.946395533979465,346.2265619465587,30.589233405003377,13.672341098962969,70.01622120802922,0.2478858817744774,113.96382269740997,572.2241096581907,15.288,0.0,7.093040772767371,0.0899072935422167,7.546327212587006e-08,0.0036042778650558,0.009973930066468,-0.0002921883671835,9.280166608418025,25.096474943019647,31.944043634281208,32.80205434014354
0.87,31.222164316408023,131.01044441691013,16.612159859359142,-3.275984536777244,8.5804011762959,30.31919251519703,-1.6028062102882383,3.949184602404389,327.964078366998,30.857331534840387,13.80353314740044,70.01829946338792,0.2639008901148159,113.98086428095344,582.2822661349333,15.288,0.0,7.113976487788735,0.0906955802056639,7.959909792188659e-08,0.0037513099745995,0.010360925341596,-0.0003067646036798,9.180141187676798,24.88026871452494,32.20010558546493,30.617290565057942
0.88,31.22216385441609,131.01044576839817,16.90575130165321,-3.1973118926321944,8.498297227736545,26.269314311568703,-1.6298308695674724,3.952280538590952,294.4828134710418,31.144750843379786,13.94134502041386,70.02045933895154,0.2805348256486745,113.99856420630984,593.1633462008023,15.288,0.0,7.134792812171839,0.0915406635880367,8.38837927271488e-08,0.0038986822803138,0.0107544030560224,-0.0003217765476144,9.075724043414525,24.65238029808978,32.474771010053445,26.614915827766733
0.89,31.222163388642496,131.01044713336017,17.20192423542124,-3.1179208131382907,8.411804719163518,28.758669816267755,-1.65822024638931,3.9556741006075984,315.028134248087,31.4516179815797,14.085808266824744,70.02270075044281,0.2977983405504855,114.01693378397168,604.8925218002321,15.288,0.0,7.155465710045864,0.0924429165206716,8.832010448318967e-08,0.0040463114449882,0.0111543279349046,-0.0003372419787364,8.967158326215987,24.41337994441402,32.76819959956513,29.076762914342154
0.9,31.222162919016977,131.0104485120058,17.500738929406452,-3.045013444457163,8.340099268601987,31.71010421002742,-1.6840997906977415,3.957949373036567,339.37814235421445,31.706610766980347,14.212271276204664,70.02502370110273,0.3157024093169542,114.03598465866284,614.7229259521118,15.288,0.0,7.176031439135145,0.0931927081258403,9.291069563528226e-08,0.0041942104585458,0.0115609248250639,-0.0003523927022375,8.874895538789215,24.21608398325638,33.01204906094764,32.00050412658131
0.91,31.222162445614103,131.0104499041533,17.802143845144254,-2.9712739606474594,8.263866290253452,24.24561612728821,-1.7113370315054357,3.960522646813277,277.7421810230789,31.981028671832625,14.345379666921117,70.0274280729823,0.3342576518817747,114.05572809745232,625.3916144626975,15.288,0.0,7.196483952454719,0.0939996024296623,9.765832152415481e-08,0.0043422772285188,0.0119741160651452,-0.000367980046607,8.778305082382648,24.007238748197235,33.27461780325593,24.626496207604134
0.92,31.222161968639423,131.01045130927105,18.10598721110811,-2.896862358963044,8.183374974191878,28.76491857974637,-1.7399564411023627,3.963384292825404,315.02813424806214,32.274816692534735,14.48510024818892,70.02991359923823,0.3534748307621775,114.076175525636,636.915900994367,15.288,0.0,7.216813640575702,0.094863438254285,1.0256591224513865e-07,0.0044903374640615,0.012393613810994,-0.0003840116376146,8.677689042383024,23.787516240773765,33.55589228782728,29.08876766672983
0.93,31.222161488006734,131.01045272760743,18.41234081119023,-2.828004140787701,8.116031373767315,34.11681434202601,-1.7661543173131724,3.9651904111763634,359.1625070654728,32.519592930361384,14.60782607120069,70.03248008662656,0.3733647863275795,114.09733844117348,646.5944100641317,15.288,0.0,7.237030993856505,0.0955832248147284,1.076360415641174e-07,0.0046384195576344,0.0128196963788452,-0.0003996722287248,8.591507510258268,23.605101852434316,33.79019704798265,34.391845791084265
0.94,31.22216100360985,131.0104541594609,18.721291122415625,-2.7563941827176364,8.038621134023874,24.89309515856531,-1.7950271839791023,3.9677299974928126,283.0687504837787,32.806714549062725,14.745093706786832,70.0351272173775,0.3939382234810611,114.11922820004018,658.0430968833539,15.288,0.0,7.257135819658198,0.0964274832835729,1.1287133274039405e-07,0.0047865100707703,0.0132525409279505,-0.0004160616362629,8.49512882793128,23.395698994544063,34.065279726563986,25.27115332741298
0.95,31.222160515741745,131.0104556040665,19.03261957730581,-2.6864867277751827,7.963701111170653,32.09269097783365,-1.8238144696132847,3.9700280362966094,342.4218736174873,33.08663058580321,14.879791289306477,70.03785464487547,0.4152062733914037,114.14185661117412,669.3002034887936,15.288,0.0,7.277120099718986,0.0972505710925692,1.1827487229699317e-07,0.0049344055701216,0.0136917663403447,-0.0004325639822397,8.401857124306215,23.194063201384942,34.333541917012546,32.388705377450286
0.96,31.222160024112856,131.0104570622109,19.3465527954708,-2.6197046691411483,7.895615729839362,31.448860555020225,-1.8514440329355024,3.971727355968981,337.09533515678345,33.34059074034136,15.005463140688413,70.04066206191393,0.437180006016863,114.16523540959628,679.593722170684,15.288,0.0,7.29699953409937,0.0979973759281944,1.238490531004085e-07,0.0050822303321272,0.0141379603822946,-0.000448928843612,8.31625499495715,23.01231510150053,34.57690950744699,31.75268954602668
0.97,31.22215952874626,131.0104585338462,19.66307817382295,-2.5529844240102264,7.825475780203488,20.276906108811904,-1.8799894802524688,3.973531463613979,245.02188719299323,33.60511360345445,15.13470055744282,70.04354896808341,0.4598707877330391,114.18937665599816,690.3992488122832,15.288,0.0,7.316772229499638,0.0987752358271419,1.2959675726198857e-07,0.005229912374896,0.0145911447579932,-0.0004656251744018,8.228925639435017,22.82574103006804,34.83051833607977,20.747921199092783
0.98,31.22215902993309,131.01046001821177,19.98197850917384,-2.4840338948686647,7.746166620583587,29.32847158838608,-1.911295541511541,3.976032301492837,319.5937466429581,33.91163400995484,15.27831807269183,70.04651496831877,0.4832899214266676,114.21429232833212,703.029753119125,15.288,0.0,7.336424877416067,0.0996765474319992,1.3552121945788125e-07,0.0053772180770071,0.0150508385860575,-0.0004830918789064,8.13239674413166,22.61442147244547,35.1246957339336,29.658407395210652
0.99,31.222158527528485,131.0104615157065,20.3033695009236,-2.421633729368791,7.684695975860458,32.00935754569955,-1.9385339876357632,3.976986659093072,341.6609485517054,34.14287023200274,15.395922741594028,70.04955946421401,0.5074490354354656,114.23999476286772,712.6280637922863,15.288,0.0,7.3559724464846115,0.100356584564487,1.416250448194479e-07,0.0055242095526538,0.0155174673752394,-0.0004996663883868,8.055038876185629,22.45375517387652,35.346363583229966,32.313670596146395
1.0,31.22215802153327,131.01046302633753,20.627254758467515,-2.357090052540631,7.614332655803274,28.684061115736576,-1.9684726855786352,3.97860798655518,314.2672081822764,34.41500682803791,15.52752706227271,70.05268190715118,0.5323592098457295,114.2664956975656,724.0108528207069,15.288,0.0,7.375409090347331,0.1011568489174207,1.479110764274601e-07,0.0056707956082839,0.0159909991083306,-0.0005169973399038,7.968763102999453,22.26909216429956,35.60754589434099,29.025498588583467
1.01,31.222157512130288,131.01046454963165,20.95349975628513,-2.294043452055808,7.546438616514176,29.97934100341645,-1.998202585879446,3.9799445378522513,324.9203161036979,34.67819633762967,15.655961502492175,70.05588162063901,0.5580320328382232,114.29380741779542,735.1039386485678,15.288,0.0,7.394732121248779,0.1019308233550947,1.5438242536826776e-07,0.0058168294327779,0.0164712108824302,-0.0005343498301579,7.885486753179298,22.092162965450125,35.86016383580905,30.30831006667515
1.02,31.222156999245392,131.01046608579446,21.28216522286763,-2.2326960616066187,7.481830671708253,25.07917461455656,-2.027456454328079,3.9809163089761537,284.59063161540416,34.92811565843441,15.779742954266837,70.05915783223841,0.5844788964351982,114.32194199949552,745.7140927375393,15.288,0.0,7.413946330195146,0.1026658006278502,1.6104180657886322e-07,0.0059622932223908,0.0169583022777937,-0.0005516423789768,7.8060459098024895,21.925286097672497,36.10002171461589,25.473972475463796
1.03,31.222156482948527,131.01046763464856,21.61320197524057,-2.1703330957721865,7.411563152916988,20.54614064302764,-2.0587245879187464,3.982293980380376,247.30469339049705,35.206270678493844,15.913140314558548,70.06250982542302,0.6117111042158085,114.35091141271847,757.614496830174,15.288,0.0,7.4330482989577185,0.1034837809069296,1.678921613231748e-07,0.0061070782462955,0.0174521795925335,-0.0005695198098492,7.721095096165872,21.743313094727217,36.36723223192055,21.029524664103732
1.04,31.22215596330313,131.01046919603544,21.946566141185286,-2.110702187641804,7.348211862673566,32.48086247687171,-2.088472968329901,3.9829811117224345,345.46563688072297,35.45368712214664,16.035876463352416,70.0659367326735,0.639740399327449,114.3807281029624,768.2757732922051,15.288,0.0,7.452040812789924,0.1042114180633872,1.749364560098052e-07,0.0062511040049009,0.017952836835911,-0.0005870289957396,7.643744263449324,21.58159959757145,36.60477991128634,32.79073474500434
1.05,31.222155440027336,131.0104707707035,22.28247518466013,-2.0504733698580506,7.2804944517675185,19.709787551300487,-2.119921860912073,3.983961399536749,240.45625879819983,35.7237559033809,16.16630470579303,70.06943759321446,0.6685783806682442,114.41140436170292,779.9998822616548,15.288,0.0,7.470934387745304,0.1050056475081772,1.821770987744671e-07,0.006394454042308,0.0184608571768724,-0.0006050454401555,7.562234145910439,21.40838662553441,36.86429822504626,20.21983537140625
1.06,31.22215491335843,131.01047235803455,22.62075310423168,-1.98995119991739,7.209272608170221,27.94740210365797,-2.152930302219816,3.98517083429188,308.17968365593924,36.013348186683245,16.303334913244875,70.07301158121763,0.6982371590447787,114.442953010779,792.6714191257987,15.288,0.0,7.489721060051555,0.1058572729891909,1.8961752337951906e-07,0.0065369308026893,0.0189758433090178,-0.0006235204260023,7.4774725488742835,21.22601832127525,37.14279232663283,28.312081869905878
1.07,31.222154383182964,131.0104739583339,22.96148981758129,-1.9330732091869385,7.1487204428014,32.85569623841213,-2.183127825223372,3.9853194496297695,348.5093681440308,36.251816293035496,16.422716168167366,70.07665763713358,0.7287291647561979,114.47538722483172,803.1774870858286,15.288,0.0,7.508411683703281,0.1065586334657128,1.9726049944809802e-07,0.0066785523965378,0.0194981640358406,-0.0006412261008215,7.404158560102482,21.07461397474981,37.37182348627356,33.16844273594512
1.08,31.222153849401447,131.01047557186516,23.30476371118617,-1.8764197165533267,7.086761217027942,22.204375674738767,-2.214165310163186,3.985489344161752,261.00157857466235,36.498485802898855,16.544819651315652,70.08037474364332,0.7600665249119967,114.50871984325312,814.1180071360997,15.288,0.0,7.52700749925861,0.1072841097173603,2.051088863165136e-07,0.0068192838260017,0.0200280257666437,-0.0006591714333611,7.329744929371503,20.92003874907995,37.6088354667862,22.667619028872167
1.09,31.22215331228848,131.01047719791174,23.65037053477192,-1.8178253931105337,7.015081429998455,20.44185515513756,-2.24880406350802,3.9864505824095455,246.54375332474407,36.79708165745489,16.68462719759332,70.0841617472316,0.7922615078675412,114.5429638588682,827.465702532823,15.288,0.0,7.545497586649936,0.1081622279828727,2.131663530471037e-07,0.0069588957746976,0.0205649018823214,-0.0006781473285478,7.24564192210448,20.73858362527213,37.89625703750316,20.947991553981197
1.1,31.22215277192088,131.01047883627686,23.99825582971921,-1.761514454270514,6.949528457927784,40.73784456919896,-2.281957357972888,3.9867395331168174,413.1890617385841,37.06619852962312,16.814213142736186,70.08801744726895,0.8253264980391775,114.5781323849552,839.5853103676412,15.288,0.0,7.563885611819667,0.108953704332296,2.2143601914340817e-07,0.0070972984089312,0.0211087723312175,-0.0006966697405159,7.168238730360399,20.57525260464452,38.1551532389356,40.996016899605465
1.11,31.22215222789904,131.01048048800584,24.348723851075302,-1.7086829367721368,6.895273010825462,29.89359283784084,-2.311691949293752,3.985844143641412,324.1593910376397,37.2763417741992,16.923491110293035,70.09194058577319,0.8592741076138347,114.6142387758226,849.1036076744801,15.288,0.0,7.582189167370384,0.109571840229158,2.2992004892818802e-07,0.0072346345125316,0.0216605571761386,-0.0007141527205077,7.102835912230079,20.444941266522143,38.35683618408196,30.246615776983038
1.12,31.222151680284508,131.01048215293451,24.701730193243502,-1.6516976642485053,6.8219402663147966,11.438867669488609,-2.3484796606032297,3.986643733792625,172.73281794065943,37.59085232136998,17.068419503715802,70.09592980393687,0.8941166909305674,114.65129610904746,863.4630063231054,15.288,0.0,7.600400323644182,0.1104967675761056,2.386218104878722e-07,0.0073707627766283,0.0222200940544155,-0.0007337043512964,7.018124361379763,20.260865656812324,38.65991008343397,12.339221147889637
1.13,31.22215112966767,131.01048382953076,25.05683457935501,-1.5981466817531635,6.75998283835455,35.181035838414054,-2.3817803947780405,3.9862347202060153,367.5328077900705,37.845520171489134,17.192730519411352,70.09998374859484,0.929867659254286,114.68931858371393,875.1722401801528,15.288,0.0,7.618507053935912,0.1112457990753724,2.4754587890497804e-07,0.0075053311651751,0.0227862963080282,-0.0007521353705838,6.945471768371285,20.11000506655394,38.904913963770426,35.486169527821666
1.14,31.222150575387207,131.0104855195096,25.414535792227003,-1.5470621185724962,6.706041177202827,19.59418987135789,-2.4125567489427087,3.984914629445216,239.69531773195544,38.05618179629864,17.30187889909884,70.1041008919941,0.9665392771991806,114.7283191792417,884.911990663009,15.288,0.0,7.6365334051042915,0.1118654843281564,2.5669361171283013e-07,0.0076385938510964,0.0233606313773958,-0.0007697246303384,6.881384302607806,19.982947498352985,39.107160889566,20.140314083590148
1.15,31.22215001792724,131.01048722160937,25.774472188615167,-1.492165196259522,6.633165040276525,19.3121017999102,-2.4508195978114204,3.9853069708262248,237.41251153546767,38.37564200700572,17.448134929764965,70.10827962653512,1.0041438303360348,114.76831089401604,899.7999118177971,15.288,0.0,7.654457569543421,0.1128049902727541,2.660695208403112e-07,0.007770192713872,0.023941990485484,-0.0007895309883332,6.798196723535548,19.802124275335657,39.4152512152764,19.87074392877195
1.16,31.22214945742604,131.01048893547403,26.13654342943609,-1.442799096448309,6.582086194444082,50.131413156937,-2.4812750731026174,3.983414753807605,490.0437743845894,38.57128629103807,17.551922614053325,70.11251833735354,1.0426946173809564,114.80930780255116,908.9662905297888,15.288,0.0,7.672287219873525,0.1133805488641845,2.7567693394367e-07,0.0079000248456072,0.0245303019465663,-0.000806787592238,6.737682245960987,19.684811056299235,39.60292534929832,50.35059983953288
1.17,31.22214889301057,131.0104906633495,26.50140339498929,-1.3918261362181077,6.521380264062596,9.09118544979628,-2.515808008817904,3.982323863472375,153.70937929486794,38.823345640569606,17.67489972429541,70.11681524674871,1.0822038793002209,114.85132285409313,920.8528334259986,15.288,0.0,7.690045919480767,0.1141219488851961,2.855166472725795e-07,0.0080284027120954,0.0251274648860705,-0.000825227167922,6.667623839194067,19.540509951912934,39.84551130918948,10.239035412254488
1.18,31.222148325829565,131.01049240226666,26.868195361268626,-1.3387244610312063,6.447890319201651,24.503586625328875,-2.555991197008454,3.9823689986392257,280.02501822196746,39.15388846731703,17.8245568768788,70.12116854323533,1.122684601968524,114.89436978561965,936.5669078408336,15.288,0.0,7.707695446718347,0.1150940621188635,2.955953002235105e-07,0.008154664247215,0.0257308736401867,-0.0008453121118205,6.584823486260054,19.359757586573323,40.16458421819792,24.9563240751819
1.19,31.2221477553648,131.0104941535589,27.23730873825264,-1.2924029905059653,6.404193435168192,42.61969467471898,-2.584466797739371,3.9792533895876288,428.4078130529292,39.30557654608495,17.913003321952967,70.12557635291148,1.164150163999316,114.93846275225384,943.804302601012,15.288,0.0,7.725264981823555,0.1155404352081354,3.0591417676832376e-07,0.0082790296062804,0.0263420046593325,-0.0008614980831683,6.532766414762572,19.26621236547848,40.30945153141828,42.883007127922255
1.2,31.22214718116636,131.01049591836517,27.609078130828447,-1.2418755819815437,6.3374905999889535,4.610705011826886,-2.62283512492395,3.9782930613594494,117.1843741360236,39.59803421419733,18.049406328673165,70.13003662276114,1.206612590416461,114.98361446803892,957.8673144640146,15.288,0.0,7.7427297571295135,0.1164006155022696,3.1647537789190896e-07,0.0084015551924422,0.0269617070095122,-0.0008807213210694,6.457534135787287,19.106576976047155,40.5914962478584,6.630586737286613
1.21,31.222146604389685,131.0104976937186,27.98264585497992,-1.1922989910293382,6.2725620842578,34.25812566481928,-2.661011490281688,3.9769901121840414,359.92343213200894,39.88198562967259,18.18275837511528,70.13454731083228,1.2500854978590494,115.02983933571116,971.6191393008716,15.288,0.0,7.7600875669348515,0.1172358006901548,3.272858005289496e-07,0.008521631536384,0.0275873946037363,-0.0008996822212033,6.3844285564084,18.95265444143071,40.86531040659223,34.5907011575419
1.22,31.222146024152007,131.01049948186932,28.3586689095393,-1.1470876277501294,6.227854872601287,24.86662008865924,-2.6907068807928622,3.9734254460794873,283.0687504825761,40.03820845495335,18.27242353193952,70.13910622574505,1.29458160620039,115.07715080561572,979.2105880573368,15.288,0.0,7.7773738872731455,0.1176955277502652,3.383453705951726e-07,0.008639597301901,0.0282213405082817,-0.0009156764873813,6.332203411221807,18.858648366661026,41.014552382360776,25.325418218217234
1.23,31.222145440801853,131.01050128190883,28.736887819016648,-1.0984408146002402,6.162074281016371,9.795897732783535,-2.730138919015918,3.9718544446217456,159.79687382222795,40.32983702716508,18.408138207191904,70.14371103245962,1.340112758217159,115.12556139245848,993.4911041233904,15.288,0.0,7.794568695659207,0.118553299404259,3.496587095525843e-07,0.0087551484588976,0.0288625341052688,-0.0009346481019864,6.258839824822804,18.70357106509364,41.29590850280693,10.917366836263245
