Time,Latitude,Longitude,Altitude,Angle of Attack,Angle of Sideslip,X-Acceleration,Y-Acceleration,Z-Acceleration,Thrust,True Velocity,Ground Velocity,Pitch,Roll,Yaw,Dynamic Pressure,cp,parachute_deploy_gain,Wind Speed,Mach,omega_x,omega_y,omega_z,Cmq
0,31.2221860000000042,131.010383999999988,3.00000000364323682,0,0,0,0,0,2.2828121974499247,0,0,69.9999999962342088,0,113.699999993883324,0,15.2880000000000003,0,0,0,0,0,0,-0
0.01,31.2221859999997946,131.010384000000556,3.00000016469923247,0,0,0,0,0,34.2421869617492334,9.11367326775851009e-12,8.66229497295429822e-12,69.9999999962370651,-4.92863947922479589e-13,113.699999993882884,5.08594204168408172e-23,15.2880000000000003,0,0,2.67827100510624443e-14,-3.65918233213857746e-19,7.58941520739853104e-19,4.81114714040442593e-19,-1.83541113936281872e-32
0.02,31.2221859999996028,131.010384000001039,3.00000030885429547,0,0,0,0,0,25.8718762377664078,1.96992978605390895e-11,1.88456988716431921e-11,69.9999999962400494,-1.04152381447771591e-12,113.699999993882386,2.37621641206600858e-22,15.2880000000000003,0,0,5.78911013494094702e-14,-7.28448334638698292e-19,1.51788304147970621e-18,9.75781955236953991e-19,-7.93451985123442364e-32
0.03,31.222185999409362,131.010384001586402,3.00018176030779937,18.6493779029494604,-0.000129237623237530007,10.7928899806483045,-1.97644583900689674e-05,3.34983967390763571,180.342193598546658,0.0785672533977095078,0.0490694047558625918,69.9999999976775626,-4.2497891361524094e-12,113.699999994705607,0.00377978965327356543,15.2880000000000003,0,0,0.000230888677896110966,2.88330015245363835e-17,-7.25223402354589416e-10,1.08188208080271277e-11,1.51197624781400831e-13
0.04,31.2221859959356287,131.010384010943454,3.00162780953569674,9.74253989061216075,-4.88763086122285772e-05,51.6475445943311158,1.54548216767323456e-06,3.34965665682309899,548.635972453807767,0.346420694310776434,0.171860503977579737,70.0000000036447574,-2.28205307288861013e-11,113.699999999565534,0.0734838809649275282,15.2880000000000003,0,0,0.00101804013696402693,1.80009747884589399e-15,-1.58734069119923437e-08,2.61929145365345784e-11,1.45916869803439425e-11
0.05,31.222185985910329,131.010384038045004,3.00715844163023283,5.5769968489095687,-4.21135943534799539e-06,75.3242160169835273,4.73080294831520123e-05,3.34902689347595528,761.698429882464552,0.947854334293939504,0.409211128642743283,70.0000000010935537,-1.04766136577077691e-10,113.700000013612069,0.55013262299765131,15.2880000000000003,0,0,0.00278549703395658196,1.95473045844392346e-14,-1.13584749331540247e-07,4.14067569904437612e-11,2.85688606727574374e-10
0.06,31.222185966868647,131.010384089593572,3.01868664272593046,4.48500474963244322,2.31139019787050305e-05,56.3605563030587007,9.71465785775115924e-05,3.34799244711343214,590.487539073720654,1.60618980149218604,0.665693519146445256,69.9999999197690244,-2.82941102348924619e-10,113.700000040305838,1.57971028663545732,15.2880000000000003,0,0,0.00472017413217633904,1.01936766184118274e-13,-4.07864410983111553e-07,5.76522069423461223e-11,1.73837509686130208e-09
0.07,31.2221859390775336,131.010384164863126,3.03600551209402658,4.00448286551149391,4.63712119495135773e-05,85.8192455386477917,0.000147926970097503541,3.34656708333141317,855.293774977913927,2.27788210706903049,0.926660947343454056,69.9999996219982279,-5.49831570978999292e-10,113.700000079276109,3.1772067926123353,15.2880000000000003,0,0,0.00669410445039518576,3.35900025920073467e-13,-9.92070622953462368e-07,7.83315922772719921e-11,5.99658406989250883e-09
0.08,31.2221859009658012,131.01038426812616,3.06033476575187802,3.77263127792190334,7.06371256062416025e-05,17.6076228145981588,0.000196957592070898702,3.34480227118667583,241.217198863884818,2.92612482887636283,1.17954495655796454,69.9999989088305909,-9.15694670892462832e-10,113.700000132739973,5.24285298735243899,15.2880000000000003,0,0,0.00859912396431777512,8.49635706706491564e-13,-2.01744800413265681e-06,1.10032289818440005e-10,1.56647792516492608e-08
0.09,31.2221858556197738,131.010384390989856,3.0892797608365723,3.74258231141200604,9.5325675231994802e-05,53.4176180048964397,0.000237730218002333866,3.34289666486112669,563.093737704317618,3.46187703891102627,1.39384941462988121,69.9999975134546446,-1.31671842773002699e-09,113.70000019638816,7.33844512707370811,15.2880000000000003,0,0,0.0101735644468633635,1.80613395740032365e-12,-3.4856561047658452e-06,1.59232278560273843e-10,3.20202005890100843e-08
0.1,31.2221858028175774,131.010384534057465,3.12301320909491364,3.81071421019783685,0.000121971080758598364,50.732831688561788,0.000271545837515448313,3.34090447591365036,538.7437595981919,3.9029133825176725,1.57567038389986336,69.999995157830341,-1.72222432289554893e-09,113.700000270567642,9.32732681847184431,15.2880000000000003,0,0,0.0114696609641860067,3.37914451533694905e-12,-5.48904943388414521e-06,2.34452541412924053e-10,5.68476506314615152e-08
0.11,31.2221857431700727,131.010384695667796,3.16106164078641116,3.84323765504598036,0.000147145408783231387,40.0848474374385688,0.000307099758177995722,3.33859717034531034,442.865639305294906,4.36819921201157246,1.76578242121538631,69.9999915253729768,-2.07703942468805025e-09,113.700000354470319,11.6837607126815346,15.2880000000000003,0,0,0.0128370221364947634,5.76365694334259916e-12,-8.08162139954488366e-06,3.4437809457680147e-10,9.36754562129998513e-08
0.12,31.2221856770245907,131.01038487487628,3.20315617196047642,3.86558564807459826,0.000171348089099210797,43.7480799143332604,0.000342946594964391399,3.33600966231316054,475.585948135404465,4.83801864946757032,1.95742650583495204,69.9999862600106582,-2.3147200577597177e-09,113.700000447673773,14.3321420062794882,15.2880000000000003,0,0,0.0142177082532951912,9.17772063248746377e-12,-1.13223702306849879e-05,4.98555567062495836e-10,1.45354343598177095e-07
0.13,31.2221856047215205,131.010385070757366,3.24903338361815308,3.95285669440916232,0.000198169826234992146,48.2585391180499741,0.000371981107240517913,3.33344523512332414,515.915632623689476,5.21512035057569623,2.1172615234944101,69.9999789703044399,-2.35265113573284059e-09,113.700000549782459,16.6533950244453948,15.2880000000000003,0,0,0.0153259223232261182,1.38588880633063252e-11,-1.52681962163171846e-05,7.07166414280215559e-10,2.11287244421402401e-07
0.14,31.2221855263490333,131.010385283071088,3.29862557546706325,3.99981420118284792,0.000223008237377726162,44.9721767850953427,0.000403855591455553264,3.33052592490198407,486.239086056840392,5.63167615200940475,2.29059513099545553,69.9999692426645623,-2.0964169591742506e-09,113.700000660771011,19.4199179783547713,15.2880000000000003,0,0,0.0165500839355928395,2.00553635588333716e-11,-1.99811439493909854e-05,9.81252131659242702e-10,2.9859131057555361e-07
0.15,31.2221854420015994,131.010385511560628,3.35186028506811029,4.05975476911301225,0.000248539990764711958,43.4637160193537753,0.000433543226731567866,3.32747422849243879,472.54218587214001,6.01888316560526437,2.45383766868271946,69.99995661705006,-1.43188768134039915e-09,113.700000780625842,22.182048585914238,15.2880000000000003,0,0,0.0176879988684610287,2.80404916713566325e-11,-2.55291719775422389e-05,1.33309260321839681e-09,4.07727088477750495e-07
0.16,31.2221853515819241,131.010385756490507,3.40881389436676407,4.08854462484130732,0.000272210944932510383,34.4023069357135967,0.000465877824565354701,3.32404684464906053,391.12189082975641,6.44303061809316624,2.62971580822363071,69.9999405987561403,-2.27841984783363582e-10,113.700000909623355,25.4183784408083007,15.2880000000000003,0,0,0.0189344747787753703,3.81042963600432359e-11,-3.19913711614788564e-05,1.77662362644707755e-09,5.46937370926295155e-07
0.17,31.2221852554099399,131.010386016990765,3.46923909377793649,4.13347468842419552,0.00029684158695823977,43.4155809381403728,0.000495744973995866601,3.3205135250562221,471.78125980632376,6.83404379119085981,2.79420112365087148,69.9999206448319882,1.67575894446247236e-09,113.700001047478835,28.5969980778046526,15.2880000000000003,0,0,0.0200835795555658371,5.05622819343119236e-11,-3.94162603380559734e-05,2.32482468580976756e-09,7.14768170397066036e-07
0.18,31.2221851530022434,131.010386294375877,3.53351204963262022,4.16207877285686756,0.000320492787063832857,36.2151660219171347,0.000526966735016640565,3.31665933612355879,407.101567211914528,7.2444022294323478,2.96528531587496236,69.9998961790314524,4.45070668055043651e-09,113.700001195059045,32.1341903991183955,15.2880000000000003,0,0,0.0212895378539265934,6.5741708189353534e-11,-4.79243856484647045e-05,2.99669991322666987e-09,9.21230820748327094e-07
0.19,31.2221850444828668,131.010386588308563,3.60153760019172342,4.17456309251139679,0.000342914278589344943,40.9041800427263027,0.00055982867240863632,3.31244583927210501,448.953132831826849,7.67810673790947895,3.14433961722118216,69.9998665624008964,8.30674092292676784e-09,113.700001352409558,36.0967170721845179,15.2880000000000003,0,0,0.0225641073333706747,8.40032927522686365e-11,-5.75836346763551867e-05,3.80911503044151526e-09,1.17316671380156179e-06
0.2,31.2221849296486234,131.01038689934137,3.67347464118590317,4.20078915399145636,0.000366573034254704516,37.5214898208491761,0.000590466919182690893,3.30812712915434881,418.515630199161365,8.08216006412957277,3.31318683933006453,69.9998311045104487,1.34800080829191884e-08,113.700001520067786,39.9955165273270055,15.2880000000000003,0,0,0.0237515420632470921,1.05728805481567758e-10,-6.85028882131185225e-05,4.78351733027568889e-09,1.4690610466811608e-06
0.21,31.2221848088436893,131.01038722653837,3.74905730552401684,4.22722562033261262,0.000390310433246848657,36.0064697775761644,0.000620601272787201603,3.30359776763142721,404.818761014464428,8.48018829437500621,3.47992805775657654,69.9997890742529592,2.02433263776548733e-08,113.700001697833756,44.0315784885794201,15.2880000000000003,0,0,0.0249212734096428447,1.31320595517854955e-10,-8.07208291683553139e-05,5.93661589182972911e-09,1.81631626331753899e-06
0.22,31.2221846819136672,131.010387570319409,3.82840670130281646,4.2176244726165093,0.000410696285369717819,43.5935627685881499,0.000655758920494764063,3.29841875767922987,472.542185872136486,8.94831461811120121,3.67066782999472752,69.9997397083127737,2.88926538075102191e-08,113.700001886238866,49.0266756129506618,15.2880000000000003,0,0,0.0262970098082033268,1.61186003536399267e-10,-9.43348117723774896e-05,7.29106197993283208e-09,2.23980539128825791e-06
0.23,31.2221845484548304,131.01038793178239,3.91183756115468473,4.25320537954326383,0.0004356497720089569,36.207459360748949,0.000683686922722525747,3.29355466128287455,406.340642146102141,9.31799902525197865,3.82760028360492655,69.9996821549030983,3.9766623706965518e-08,113.70000208621326,53.1608354775167555,15.2880000000000003,0,0,0.0273834518362109196,1.95767624418301473e-10,-0.000109505708778552874,8.87784718088286285e-09,2.70740355927931971e-06
0.24,31.2221844093456014,131.010388308538637,3.99866964940866776,4.27135264557773553,0.00045883378920767232,37.3286080087975947,0.000713911697673520317,3.2882529474867046,416.232824001711379,9.7203332459195213,3.9956861712714935,69.9996155408946805,5.32509871046438109e-08,113.700002296918697,57.8502398901668755,15.2880000000000003,0,0,0.0285658473732890855,2.35534745143307651e-10,-0.00012617657385590063,1.07071802425012536e-08,3.25424194465518317e-06
0.25,31.2221842644570167,131.010388700938847,4.08900446593793809,4.29698686981540234,0.000482848983334858658,38.3649566400252979,0.000742483922667206905,3.28284626589867479,425.364080791506922,10.1009615935159527,4.1562806652626314,69.9995389781877293,6.97479781374676735e-08,113.700002518962805,62.4689963611702623,15.2880000000000003,0,0,0.0296844577155840929,2.80933085873043406e-10,-0.000144451636124542286,1.28055329635332884e-08,3.87142965072796435e-06
0.26,31.2221841140756986,131.010389108203611,4.18262110402873155,4.32755423691547136,0.000507438991606541483,41.7865661614553829,0.000769736419800412888,3.27732087646770287,455.80158342417883,10.4644497354123782,4.31094871887776954,69.9994515368878751,8.97024502886333285e-08,113.700002752408935,67.0452443356678742,15.2880000000000003,0,0,0.0307527002093570291,3.32431765373287754e-10,-0.00016436315770221847,1.51925047864838523e-08,4.56355359993810651e-06
0.27,31.2221839578137299,131.010389531387915,4.27982215321117465,4.33742811840656994,0.000529702335486379188,38.2242911032538473,0.000800211178185602123,3.27123004841987974,423.842199659872563,10.8736118498261902,4.48123226393084195,69.9993522521519935,1.13587393208351198e-07,113.700002998306658,72.3900346549699947,15.2880000000000003,0,0,0.0319551720828357214,3.90484337603431509e-10,-0.000186059811616844751,1.79019946498730075e-08,5.36790267753501075e-06
0.28,31.2221837957695953,131.010389970223883,4.38053283172365671,4.35979025650862262,0.000553527510562852902,44.1207307275094038,0.000828072271385077072,3.26514386100193477,476.346873201222195,11.2478718916014184,4.63949182586423614,69.9992400702920463,1.41938296327408329e-07,113.700003257081931,77.4582454645660761,15.2880000000000003,0,0,0.0330550782151640757,4.55595825375374429e-10,-0.000209619220926101062,2.09616181379585756e-08,6.25569396794615011e-06
0.29,31.2221836278828384,131.010390424876022,4.48480177698289584,4.38135974025744623,0.00057737648726709299,35.3536197607625553,0.000855659611391794222,3.2588361863853601,397.970310422111766,11.6195889013503368,4.79682445966682813,69.9991139044831527,1.7532937395312496e-07,113.700003529427192,82.6616578528940948,15.2880000000000003,0,0,0.0341475147840558241,5.28268525040872464e-10,-0.000235137545717689308,2.44023887909330158e-08,7.24907222782668121e-06
0.3,31.2221834544381096,131.010390894570321,4.59240982688131272,4.39617507281761988,0.000600356665334356751,33.1490797613948018,0.000884158719714270942,3.25217107922164672,378.185945710871067,12.0052186882677852,4.95887519756831807,69.998972627127344,2.14383684192303281e-07,113.700003815596887,88.2385269149682756,15.2880000000000003,0,0,0.0352808420099011907,6.09029939588318471e-10,-0.000262641159892275291,2.82471356422800846e-08,8.36561857411674722e-06
0.31,31.2221832755909574,131.01039137888381,4.7032380575360353,4.42235615181669761,0.000624899913490765827,34.9528590290802086,0.000910025197609511073,3.24555398289468222,394.16562209302117,12.3556398803864607,5.10879227158949156,69.9988150759387651,2.59766173767152649e-07,113.700004116072961,93.4639131761651498,15.2880000000000003,0,0,0.0363107024397255479,6.98403788157463991e-10,-0.000292187019282257228,3.25229566712151178e-08,9.57826248689966157e-06
0.32,31.2221830914257232,131.010391877587324,4.81722282885169673,4.45155794779377789,0.000649944303128982049,38.0379859115142835,0.000934821026682707218,3.23882361682650144,421.559393462426954,12.6924793110791878,5.25399282922068878,69.9986400687318024,3.12179641788393281e-07,113.700004431478234,98.6283237403037703,15.2880000000000003,0,0,0.0373006526995305274,7.96905013945712519e-10,-0.000323836613651358495,3.72580440687311147e-08,1.09050644159405278e-05
0.33,31.22218290196043,131.01039239063175,4.9343519698327194,4.48019701204722054,0.000675004219851668761,37.7093551175013246,0.000959261610436717115,3.23189933669563656,418.515630199168186,13.0256844327599097,5.39788776638052958,69.9984463826819052,3.72372687880250348e-07,113.700004762578004,103.87354288045799,15.2880000000000003,0,0,0.0382799263433428877,9.05047894999210997e-10,-0.000357667290238851605,4.24836225249657193e-08,1.23603484615852587e-05
0.34,31.222182707020778,131.010392918491164,5.05476263450916541,4.49049305198152204,0.000697378143373914754,29.5227085089536203,0.000987142430045659337,3.22427911658814059,345.465636880756449,13.4081741031825317,5.55863100914667463,69.9982327456812641,4.41143957445642244e-07,113.700005110463266,110.062177258613033,15.2880000000000003,0,0,0.0394040418267209702,1.02333461745717641e-09,-0.000393806243978271305,4.82396483202145133e-08,1.40087103268591529e-05
0.35,31.2221825067937928,131.010393460657156,5.17831168393457641,4.50711781535187139,0.000720712543856854714,32.3530371383660977,0.00101333646443235357,3.21661305844837253,370.576570052703289,13.7686530554979374,5.71176159517965232,69.9979978091806316,5.19362042776584697e-07,113.700005475786654,116.058400304168075,15.2880000000000003,0,0,0.0404634764462946869,1.15232390415689195e-09,-0.000432299813734132244,5.45552399130644805e-08,1.57912776608867467e-05
0.36,31.2221823012122108,131.010394017312592,5.30505329869157727,4.52767240178778962,0.000744729708600240731,36.5526511043957356,0.00103828652712813154,3.20885713174522058,407.862523277719447,14.1132764952183631,5.85938873702120233,69.9977401961163537,6.07939829707116331e-07,113.700005859608282,121.939407863977465,15.2880000000000003,0,0,0.0414763190843316643,1.29254043868676357e-09,-0.000473255972436325862,6.14699225552327593e-08,1.77198251922661022e-05
0.37,31.222182090341061,131.010394588280832,5.43493909097431604,4.55039311415752579,0.00076918150115683735,34.6835787828593496,0.00106234372950533948,3.20097384516078431,391.121890829766642,14.446930470491731,6.00318739776240751,69.9974584775585669,7.0785096329375243e-07,113.700006262864989,127.771540530283914,15.2880000000000003,0,0,0.042456928843506235,1.4445318520011827e-09,-0.000516746496826029863,6.90186481791334769e-08,1.98053803654614999e-05
0.38,31.2221818741223878,131.010395173719473,5.56801609611825477,4.56315131642791805,0.000792019287104061913,36.2353933787001239,0.00108827974821363053,3.19255015153205646,404.818761014460279,14.8084413239345949,6.1564787166299757,69.9971511865591651,8.20121521966083772e-07,113.700006686723384,134.244380272309172,15.2880000000000003,0,0,0.0435194095147296359,1.60882660749176723e-09,-0.000562873331420229127,7.72423853301427293e-08,2.21128406351508731e-05
0.39,31.2221816525004634,131.010395773780147,5.704329739781131,4.57922628245169783,0.000815489716137310881,30.9425419640016202,0.00111309493143926189,3.18402316666385765,357.640624933827439,15.1559126959619999,6.30488433186772657,69.9968167722787769,9.45855271408966431e-07,113.700007132429306,140.616382889747683,15.2880000000000003,0,0,0.0445406353688629561,1.78596578656278109e-09,-0.000611756345505213715,8.61868943159197994e-08,2.45968452142520012e-05
0.4,31.2221814256617982,131.010396387955836,5.84373750626454935,4.59349479979191955,0.000838670682925170751,29.5834243852937959,0.00113797512888990423,3.17521289611434332,345.465636880754005,15.505969085398343,6.45410901523083158,69.9964536498379317,1.08621525395706341e-06,113.700007600947828,147.185065961143067,15.2880000000000003,0,0,0.045569462889951777,1.97653506559195414e-09,-0.000663427505461186432,9.58835144134294998e-08,2.72901174189528038e-05
0.41,31.2221811937141673,131.010397015953487,5.98615797249314241,4.60939449845229365,0.000862163931524819621,33.360545626359837,0.00116210409424792778,3.16624854525325983,378.946870776686467,15.8471768437686258,6.60022848408685459,69.9960602026584695,1.24241947051318175e-06,113.700008093413757,153.73182724817184,15.2880000000000003,0,0,0.0465722905345462151,2.18109996727848554e-09,-0.000717942131686907965,1.06367950505874699e-07,3.01820283711074823e-05
0.42,31.2221809567080335,131.010397657635991,6.13155423418529733,4.63387609959193458,0.000887317919769279608,37.5676427387571721,0.001183742077125155,3.15743374731593907,416.232824001711379,16.155026338188506,6.73482947265292431,69.9956347739890248,1.41574639558456e-06,113.700008611107208,159.760443802515937,15.2880000000000003,0,0,0.0474770882933877245,2.400206535531791e-09,-0.00077537935552726017,1.17680930846389008e-07,3.32294321368729263e-05
0.43,31.222180714655078,131.010398312971745,6.27991949833728835,4.65367427313455995,0.000911660169575580258,33.0386483003103493,0.00120612360190941372,3.14823214930187856,375.903139513433644,16.4750454055619109,6.87353555569934649,69.9951756835756242,1.60752723178871754e-06,113.700009155418982,166.15023929888028,15.2880000000000003,0,0,0.0484176551665520677,2.63438237315801404e-09,-0.000835821567166909188,1.29864614855892046e-07,3.65287677570896608e-05
0.44,31.2221804673911407,131.010398982407111,6.43138341412837455,4.65757387742934892,0.000932929976641759203,30.4788052564327749,0.00123214974254881528,3.13809943757763454,353.075012538921555,16.8483715860516412,7.03046484016701978,69.9946811832270441,1.81916859536649675e-06,113.700009728069276,173.762989227436179,15.2880000000000003,0,0,0.0495148886868988364,2.88411342836306464e-09,-0.000899417740154189794,1.42975581697416844e-07,4.01983191819108926e-05
0.45,31.2221802146980103,131.010399666535704,6.58611776122768511,4.65827001030579346,0.000953562143933252499,35.4620561517945134,0.00125873275223327787,3.12754579585638304,397.209385356286873,17.2316459864824161,7.19073264961644831,69.9941493995125938,2.05218870761162579e-06,113.700010330973456,181.755888424112015,15.2880000000000003,0,0,0.0506413642318551335,3.14987863732273609e-09,-0.000966369542842942814,1.57083782729145849e-07,4.41725079750487196e-05
0.46,31.2221799565319174,131.010400365476642,6.74415901717088939,4.66907507286434065,0.00097630283571516251,41.3913707355688842,0.0012823814722795761,3.11722412848720953,449.71405889764344,17.5754687869478978,7.33738035579407555,69.9935783582983362,2.30821229426708146e-06,113.700010965912341,189.078525726536213,15.2880000000000003,0,0,0.0516519027755614896,3.43223060675433133e-09,-0.00103681314204437207,1.7224885851047691e-07,4.83373548649469587e-05
0.47,31.2221796928065203,131.010401079464799,6.90557672428163105,4.67806301106434042,0.000998761260684927557,28.0209900204918974,0.00130616618884544979,3.10657060381263461,331.007810630253402,17.9233234115620377,7.48533101007974988,69.9929660462147325,2.5889364060732201e-06,113.700011634803886,196.634049649816575,15.2880000000000003,0,0,0.0526742959306323727,3.73170463860384924e-09,-0.0011108841623615434,1.88532207060213475e-07,5.28148505664365441e-05
0.48,31.2221794239793269,131.010401807256216,7.07001851744381948,4.68642527483421745,0.00102109091231145262,27.6007969606275125,0.00132978852885184593,3.09563681785184297,327.203122301157407,18.2709832353803314,7.63313726727991071,69.9923104035261474,2.89614261094227829e-06,113.700012338884164,204.33305198470137,15.2880000000000003,0,0,0.0536961221459722679,4.04904859899578719e-09,-0.00118849531779471017,2.05948560519311644e-07,5.75998398329450787e-05
0.49,31.2221791502289392,131.010402548365278,7.23734841566291642,4.70156796398202914,0.00104489945272251677,34.6487244505178253,0.00135120419031512233,3.08484494341801163,389.60000969812296,18.589315545984995,7.7707981814672209,69.9916093757078812,3.23165731652504743e-06,113.700013079832303,211.511801733856089,15.2880000000000003,0,0,0.0546317638991248022,4.38486615800834454e-09,-0.00126967773493266863,2.2453662401782158e-07,6.26054017926546362e-05
0.5,31.2221788715876762,131.010403302704333,7.40754387012007864,4.72212438923579736,0.00106996435823571525,35.6033845714535389,0.00137072557486675028,3.0741588573465477,397.970310422105001,18.8826594549893159,7.8998011517407587,69.9908609011483378,3.5973597360057951e-06,113.700013859590555,218.236320199079358,15.2880000000000003,0,0,0.0554939729313439212,4.73968531279909998e-09,-0.00135450679800636423,2.44344941868023912e-07,6.78409867869358833e-05
0.51,31.2221785881337617,131.010404070060673,7.5805467220577798,4.73558879650721298,0.00109346949398930206,27.1956639286467201,0.00139183542187690463,3.06284319292573448,323.39843497208409,19.200774511812984,8.03722958125224807,69.9900628955037689,3.99519228958782199e-06,113.700014680103109,225.647740475438098,15.2880000000000003,0,0,0.0564289867670437692,5.11403675587933804e-09,-0.00144303978709531136,2.65418546512062939e-07,7.34915902759761199e-05
0.52,31.2221782998674264,131.010404850463857,7.75636795277497626,-0.149930064261247525,5.36888661935536593,32.7158633058397896,-0.284223155707325981,3.32750142700547702,372.098451184341457,18.9369402246238003,8.17767982049509889,69.9892128712149599,6.58698639781494765e-06,113.700017842098987,219.485471922904878,15.2880000000000003,0,2.50644307058047655,0.0556537168926901776,5.50941106384228462e-09,-0.00153147778724318086,2.40384053702392096e-05,7.69225673487267076e-05
0.53,31.2221780067606218,131.010405644521995,7.93510776556813369,-0.066961163284181599,5.29145714742133233,34.3581068260576643,-0.291745188060851424,3.32288863632119691,386.55624643486243,19.2551121415816944,8.31924280950361172,69.9883367648021419,0.000116038886310074963,113.70013473723597,226.91897503589081,15.2880000000000003,0,2.51597414262150476,0.0565889054886051929,5.95070784522669653e-09,-0.00152933168000045491,0.000125698029464007936,7.81040481305623709e-05
0.54,31.2221777087524011,131.010406452610994,8.1168352840400928,0.0131939872155205154,5.21678159155482124,30.1544603603094927,-0.299356571193411247,3.31810599524019123,349.270324209843579,19.5714304938346579,8.46010975729549131,69.9874615105343025,0.000387303093469830591,113.700423850263689,234.431663888937265,15.2880000000000003,0,2.52548442892423441,0.0575186523369652369,6.43447609747715651e-09,-0.001528711386752241,0.000230050528170726537,7.93535387261067856e-05
0.55,31.2221774061052812,131.010407274027301,8.30134956076418185,0.0907458947632661522,5.14615965547611864,31.9686987849634079,-0.306965994237884288,3.31316162457699637,365.250000591990727,19.8801980902013504,8.59832212612204749,69.9865862141483603,0.000824522479649081362,113.700889591817486,241.882723996698758,15.2880000000000003,0,2.5349582503048218,0.0584262138048206661,6.96133704136393762e-09,-0.00152968891902004081,0.000336984278294018118,8.06555694953935712e-05
0.56,31.2221770988253304,131.010408108768502,8.48865042533165237,0.165933845133133862,5.08042853999777844,29.8261404438422986,-0.314501058594872984,3.3080679299233835,346.226561946578727,20.1770313457097572,8.73237395398975025,69.9857099404816836,0.00143177062857781281,113.701536299232416,249.15531872449813,15.2880000000000003,0,2.54439592919726376,0.0592987068279696161,7.53165932124158434e-09,-0.00153233477921512363,0.00044653910546016423,8.19999619031650694e-05
0.57,31.2221767869851874,131.010408956650764,8.67868603877746558,0.238759885584821502,5.0144383628519833,29.4895949660771315,-0.322272677183879641,3.3027838768027018,343.182829683302316,20.4815458895236837,8.8690052698138544,69.9848317135027713,0.0022131197990377465,113.702368308417874,256.727957742586739,15.2880000000000003,0,2.55379702841297229,0.0601937801448532983,8.14584423673622151e-09,-0.00153671933549821252,0.000558705177372230345,8.34741656576760743e-05
0.58,31.2221764705696714,131.01040981772897,8.87147268499885477,0.309040210509647972,4.94502631118568647,38.8812293026523648,-0.330508150749463603,3.29726540370197885,426.12500585731533,20.8073418206367755,9.01288770218697799,69.9839505159792594,0.00317268054460414324,113.703389996248291,264.955454325418998,15.2880000000000003,0,2.56316082274284218,0.06115140378776944,8.80419207427185794e-09,-0.001542914944387079,0.000673525820892680559,8.5142293757490398e-05
0.59,31.222176149210064,131.010410693019821,9.0673009225232839,0.377532101857555702,4.88395527386925377,31.4856033752764404,-0.338417909176134124,3.2916376483397034,360.68438819711065,21.1052275536764888,9.14712024927835543,69.983065284155586,0.00431483340794304969,113.70460602753657,272.591037305623729,15.2880000000000003,0,2.57250122167435746,0.0620270073169301717,9.50664839591849973e-09,-0.00155101100420608397,0.000791278727243295609,8.68127493167884762e-05
0.6,31.2221758231082624,131.010411581988393,9.26601890452835697,0.443201141555303879,4.81555756764379073,27.9622428262961122,-0.347090070788572846,3.28570882911613449,329.48595949860578,21.4419074689166251,9.29461869930389639,69.9821749083166651,0.0056440187653433874,113.706021130067896,281.352023044072041,15.2880000000000003,0,2.58180866822424759,0.063016630813266597,1.02537560866303959e-08,-0.00156107923316309771,0.000911874344033895574,8.87684566375886505e-05
0.61,31.2221754922244656,131.010412484757097,9.46766225489371394,0.506584374207950217,4.74767232294381447,32.7952840159606112,-0.356002245945846618,3.27955764721489196,372.09845118432969,21.7846656931078861,9.44414220219694656,69.9812782313518937,0.00716478463164674315,113.707640146639179,290.413364013524472,15.2880000000000003,0,2.59108419849687177,0.0640241247281172904,1.1045776802714926e-08,-0.00157320140536334812,0.00103538283587131363,9.08860275201257693e-05
0.62,31.2221751566696639,131.010413401038193,9.67214973706005843,0.569533194627977024,4.69510470083205078,40.8196847571759349,-0.363989818422940148,3.27342748097826197,442.86563930529212,22.0640096567846165,9.57181913826109643,69.9803740465469986,0.00888178391200074475,113.70946803158742,297.903186296445654,15.2880000000000003,0,2.60032727793597074,0.0648452533054710012,1.18830999285586406e-08,-0.00158745366624592882,0.00116180439230510529,9.28835628031697888e-05
0.63,31.2221748162789652,131.010414331293134,9.87961373023973444,0.630266161068012809,4.6397429302774853,23.0683154848234651,-0.372410809960667111,3.26704705065812817,286.112512747078938,22.3617605873782139,9.70575603876804038,69.9794611090601251,0.010799498722358334,113.711509557995328,305.9916712165288,15.2880000000000003,0,2.6095393356323533,0.0657204853523809807,1.27657524660336865e-08,-0.00160393014322605552,0.00129126039894584535,9.51121851403096384e-05
0.64,31.2221744715962544,131.010415274056584,10.0896373672662758,0.688368153046572173,4.57916943336296267,22.642398881968731,-0.38149374821026566,3.26034288247288373,282.307824417967538,22.6909293752285457,9.8504204811688858,69.9785381263431532,0.0129224563247123028,113.713769546124212,315.060115734026795,15.2880000000000003,0,2.61869423365753029,0.0666880596966304695,1.36947491498501676e-08,-0.00162266593460536415,0.00142343197111161925,9.76376596642404825e-05
0.65,31.2221741226083047,131.010416229377029,10.3022354366558577,0.746294135277745907,4.52975634002468297,40.1613367611258454,-0.389869225518412743,3.25364205103888393,436.778144778747503,22.9709625699499931,9.97814392186308474,69.9776037671090023,0.0152550753298402349,113.716252701529058,322.877946381492507,15.2880000000000003,0,2.62781569718411667,0.0675112319964369101,1.46701674989556982e-08,-0.00164374221046599089,0.00155838869817821008,0.000100124415518490579
0.66,31.2221737688531711,131.010417198521907,10.5177702531130368,0.802338578588758788,4.4791537774116561,34.130442017982304,-0.398559837396246341,3.24670098594091971,383.512515171600171,23.2618058248487323,10.1095148862577098,69.9766566541499628,0.0178018216801387047,113.718963780929627,331.098991406346499,15.2880000000000003,0,2.63689597476458948,0.068366181152419353,1.56913739523975538e-08,-0.00166729006822533151,0.00169646511076989095,0.000102842515957405451
0.67,31.2221734105058175,131.010418181028598,10.7361109387966014,0.855843642336249988,4.42414955447543345,23.4343390200791077,-0.407883803696364178,3.2394219693956039,289.156244010342505,23.581156074693574,10.2506114628173357,69.9756953448006982,0.0205674750802946303,113.721907874256743,340.245261227589879,15.2880000000000003,0,2.64593515787766131,0.0693049185960429859,1.6758859183815827e-08,-0.00169337775677041676,0.00183758372562527411,0.000105883415351069621
0.68,31.222173047725537,131.010419176476773,10.9571387696132163,0.90812044317549323,4.37192775361181596,29.3116959803079347,-0.417201398962149417,3.23197045146552675,340.899992485846269,23.891894246396312,10.3886842844590443,69.9747183495722851,0.0235568030362388117,113.725090058661834,349.264020964484303,15.2880000000000003,0,2.65494110997363642,0.0702183518696282288,1.78730323426501067e-08,-0.00172207392193702278,0.00198169160743249346,0.000109094323591179686
0.69,31.22217268058942,131.010420184669073,11.1807985759890798,0.960122415631974646,4.32599799033935639,36.1424072383295467,-0.426131788307584802,3.22445956855981697,401.014072685363431,24.1733443604819804,10.5166303088647961,69.9737240999036061,0.0267745123991389236,113.728515349860487,357.533575609299305,15.2880000000000003,0,2.6638957711528799,0.0710457139010966382,1.90341605302404892e-08,-0.0017534531739386832,0.00212877388152417791,0.000112388367751085845
0.7,31.2221723089752459,131.010421205948745,11.4071893956873645,1.01076687493112427,4.28064564361100963,30.275414756255671,-0.435213900527955277,3.21673765028155945,349.270324209852845,24.4558828920314966,10.6448823143466225,69.972711094968389,0.0302252348597026078,113.732188675625636,365.932181966003839,15.2880000000000003,0,2.67280539453919586,0.0718762812013491598,2.024202487384261e-08,-0.00178762200178876575,0.00227895171224554724,0.000115915109126650889
0.71,31.2221719329356944,131.010422240184113,11.6362748992406839,1.0593013254551209,4.23279130446181107,24.8373358245914986,-0.444783007599123092,3.20869440007973994,301.331264063405797,24.7574765294996837,10.7796114840950157,69.9716776667892617,0.0339137442657767157,113.736115123443284,375.005045691308624,15.2880000000000003,0,2.68167938429935937,0.0727628584000499512,2.14968263405545211e-08,-0.0018246614261616086,0.00243222251830683489,0.000119773330003527983
0.72,31.2221715524757713,131.010423287372987,11.8680556969663247,1.10548728981497835,4.18185108789416038,30.4626978302239202,-0.454937788150752587,3.20028093736125108,350.79220534145287,25.0827565285440777,10.9224075703931334,69.9706221269305928,0.0378449098288183503,113.740299879796396,384.915338829807069,15.2880000000000003,0,2.69051352820671141,0.0737190574276086474,2.27986250468557524e-08,-0.00186466408808032952,0.00258863311075211268,0.000124004561270772495
0.73,31.2221711675958069,131.010424347526111,12.102536151065646,1.15293839444107626,4.14107556572207613,38.598854110118495,-0.464198980755460455,3.19198907954850464,422.320318528233997,25.3519321794631836,11.0458629788907423,69.9695427205256664,0.0420237808152754966,113.744748323079037,393.212253035046217,15.2880000000000003,0,2.69929385943226929,0.0745103707455917197,2.41474299729387888e-08,-0.0019077278613013999,0.00274824611997538919,0.000128227005000565436
0.74,31.2221707782399811,131.01042542080549,12.3397637480267388,1.19840253410245579,4.09800269193301148,24.0745187357283505,-0.473935292370843475,3.1833643150212052,294.482813471059444,25.6390895283467124,11.1754245762104283,69.9684376599994522,0.0464552290878558274,113.749465643215885,402.161246137124863,15.2880000000000003,0,2.70803956379229716,0.0753545396754947416,2.55431860002453936e-08,-0.00195395430490665411,0.00291111801960820512,0.000132818667892011758
0.75,31.2221703847449845,131.010426506307994,12.5794824695566732,1.24215749772350903,4.05374801289624553,28.1466083978526811,-0.484043633899860604,3.17442848823577695,330.246885564414924,25.9381244676446059,11.3089961386806923,69.9673051031419675,0.0511441703824974878,113.754457076567647,411.587486601922706,15.2880000000000003,0,2.7167413908058613,0.0762336241804553449,2.69868864638420037e-08,-0.00200336558861384257,0.00307703646715880861,0.000137762463486263326
0.76,31.222169987010485,131.010427604315964,12.8217742109026176,1.28579678144222131,4.01337159401512267,30.3165578774924676,-0.493905591154331192,3.16540525670924078,349.270324209861712,26.2165878471343419,11.4354305977305337,69.9661431252718558,0.0560954919775443483,113.759727832953885,420.462483146801333,15.2880000000000003,0,2.72539725080243667,0.0770522545290279331,2.84781500172137875e-08,-0.00205608117495310406,0.00324613033991310099,0.00014290204343025647
0.77,31.222169584985334,131.010428714977792,13.066682729480295,1.32867054736170243,3.97437010237230881,28.331619569888467,-0.503804531041351811,3.15619168783121307,331.76876669607077,26.4895708453865097,11.5599098468711663,69.9649498552693103,0.0613141164212875692,113.765283151548275,429.254195284312743,15.2880000000000003,0,2.73399928697248162,0.0778547844117769838,3.00167674139798077e-08,-0.00211221092491428947,0.00341847917100037216,0.000148328296338793599
0.78,31.2221691787318036,131.010429838134144,13.3141641014932617,1.36960471719838117,3.9332569050222288,23.2277136497814567,-0.514198952292473255,3.14660608292416111,286.873437812889904,26.7804309963532141,11.6904578214428589,69.9637232579222541,0.0668050126258457194,113.771128329522242,438.722094428859918,15.2880000000000003,0,2.7425603706539281,0.0787098634181776502,3.16029676823825615e-08,-0.00217183417501042898,0.00359406212876263583,0.000154186270934120141
0.79,31.2221687683340328,131.010430973566343,13.564157548381532,1.40897124955998976,3.89125778219410678,33.1087184885639019,-0.524954588305198144,3.1366887924307516,373.620332315953419,27.0816684873205773,11.8244983678621303,69.9624612750526182,0.0725732072129702116,113.777268723007751,448.636693128690069,15.2880000000000003,0,2.75107874198178104,0.0795954493869848595,3.32370146627124035e-08,-0.00223502771417064417,0.00377285661183077463,0.000160453569878000085
0.8,31.2221683535881951,131.010432121836146,13.8168247226175094,1.4492477404866333,3.85504544417567985,33.5491285656457805,-0.535143497813233782,3.12682410125163246,377.42502064505743,27.3464817513601446,11.9459529055226916,69.9611617768307923,0.0786238751796277252,113.783709846887177,457.442317845030118,15.2880000000000003,0,2.75956102374874446,0.0803739884091730222,3.49179910221736442e-08,-0.00230195900867449224,0.00395508954846093743,0.000166870498008823585
0.81,31.2221679345917025,131.010433282688268,14.0720944864243069,1.48737817942332451,3.8160897973733876,21.7673391951885442,-0.545936085083097544,3.11651968528706691,273.937492693991885,27.6340237193321201,12.0751404468498418,69.959822546840968,0.0849621684380401088,113.790457194283803,467.101243577025741,15.2880000000000003,0,2.76799298314629372,0.0812193363331604468,3.66463759534710874e-08,-0.00237269664939778781,0.00414069953125261337,0.000173802577372201292
0.82,31.2221675115221906,131.010434455650255,14.3298338551933853,1.52406005766758068,3.77636652926915728,28.0144468106793667,-0.557081694996782395,3.10586890867493937,328.725004432770049,27.9310416062986206,12.2075092074259786,69.9584414231283631,0.0915932230067402348,113.797516233345789,477.184452782288815,15.2880000000000003,0,2.7763740476538854,0.0820925422289960766,3.84228403135328201e-08,-0.00244728918677204667,0.0043295830039299741,0.000181188881039781293
0.83,31.2221670843658714,131.010435640767895,14.5900575619712001,1.56233938552526652,3.74324809292165828,35.6525666945018287,-0.567453285961667886,3.09537688810024925,395.68750322465047,28.1825586922655589,12.324171606328008,69.9570160730116015,0.0985222405777131383,113.804892511298263,485.805032023999274,15.2880000000000003,0,2.78471382908051579,0.082832023051957554,4.02471452680362436e-08,-0.00252585207991065566,0.00452181217462901963,0.000188684662966677675
0.84,31.2221666530251518,131.010436838312756,14.8528447087556099,1.59931681177300589,3.70937829707773714,21.9524072334362828,-0.578137824499412978,3.084562670680985,275.459374825645227,28.4421877259722145,12.4435447402979289,69.9555441256064654,0.105754307040338419,113.812591452784091,494.784636147490801,15.2880000000000003,0,2.79301292052953576,0.0835953527225691551,4.21188597934376782e-08,-0.00260851830041343912,0.00471748756191805139,0.000196650109681646424
0.85,31.2221662177777119,131.010438047540703,15.1179850132458089,1.63336142300456344,3.67112140296452338,23.952328184350435,-0.589749017380756135,3.0731237133862872,292.960932339393764,28.7386816143014237,12.5755091513545132,69.9540232685391459,0.113294471140384503,113.820618434385622,505.141247159609577,15.2880000000000003,0,2.8012645634433273,0.0844670401692760586,4.40392758632538199e-08,-0.00269528845885958325,0.00491639769979295479,0.000205304439561948402
0.86,31.2221657784620632,131.010439268896192,15.3856069030322775,1.66819169756677743,3.6369599134925914,30.0331817756218626,-0.600922282480801706,3.06169713088734463,346.226561946558718,29.006559386731201,12.6975653910411417,69.9524509922651561,0.121147992793581488,113.828979067221013,514.588912083992227,15.2880000000000003,0,2.80947454075547887,0.0852546281652424298,4.60073398451141084e-08,-0.00278634119096899226,0.00511875007432498544,0.000214212889487497738
0.87,31.2221653351022397,131.010440502320961,15.655695587815611,1.70305106899187098,3.60490689879026815,27.9551348887766835,-0.611946054491772196,3.05015302782350028,327.964078366998024,29.2601311888964268,12.8146287377533028,69.9508247366535159,0.129320090358169187,113.837678918522144,523.611602279964359,15.2880000000000003,0,2.81763940105862565,0.0860001757927958826,4.80230898274406628e-08,-0.00288177669346554753,0.00532455973661513388,0.000223480901619081093
0.88,31.222164887733026,131.010441747727214,15.9282279304532803,1.73606444043809094,3.57089183574362012,24.1389333699687789,-0.623519502139395998,3.03814066154303397,294.482813471041823,29.5320513490175927,12.9379193437116946,69.9491419992299939,0.137815934197106998,113.846723496562632,533.37491428533508,15.2880000000000003,0,2.82575201554195354,0.0867996592626755908,5.00867609959853785e-08,-0.00298168113995901565,0.00553380990760065933,0.000233371204346513817
0.89,31.2221644364322444,131.010443004910968,16.2031476778885377,1.76720050983967547,3.53502989290388037,26.4890185820071409,-0.635659571991967542,3.02563734644365878,315.028134248086985,29.8224214175942528,13.0674738483152773,69.9474000628689652,0.146640768872532967,113.856118400632326,543.900797400019087,15.2880000000000003,0,2.83382073562778203,0.0876533775578718644,5.2198641004417857e-08,-0.00308613818236480077,0.00574648083204665032,0.000243915420955847638
0.9,31.2221639811305884,131.010444274065691,16.4805118697413491,1.80052078423323869,3.50535012087562148,29.274769885605906,-0.646882908382924837,3.01340835296239362,339.378142354214447,30.0633266640909156,13.1799510258713788,69.9455962726836304,0.155799962902994665,113.865869351435762,552.708817307410186,15.2880000000000003,0,2.84184869145137187,0.0883617172649119043,5.4358072964741952e-08,-0.00319529954784903781,0.00596269062306116395,0.000254576336799099633
0.91,31.2221635218953182,131.010445555014797,16.760272146438048,1.83200694727298319,3.47374815807582049,22.2393417927455559,-0.658668712661316214,3.00068748876935887,277.742181023078899,30.3226723570529941,13.2986874787412273,69.9437278021036661,0.165298701416539906,113.875981886588747,562.270889316822149,15.2880000000000003,0,2.84983347941436937,0.0891242638926877662,5.65654950991226538e-08,-0.00330924171377281048,0.00618239696922564044,0.00026592166046607768
0.92,31.2221630589167027,131.010446847250108,17.0422856890750793,1.86165583092807507,3.44033642070072609,26.503595683989726,-0.671027873261932473,2.98745142348060755,315.028134248062145,30.6003911949997516,13.4236623666177124,69.9417919084313695,0.175142174116743904,113.88646153764553,572.601982048126047,15.2880000000000003,0,2.85777128229370714,0.0899408200586366974,5.88221053423268892e-08,-0.00342797861884740944,0.00640544592286081994,0.000277978412819351742
0.93,31.2221625921108874,131.010448151002805,17.3266203754350983,1.89345510566878317,3.41241770229955188,31.552782444291438,-0.6824968697897702,2.97449825037091475,359.162507065472823,30.8314161254814714,13.5325084852800916,69.9397856306855488,0.185335628024068527,113.897313910075653,581.264736037149532,15.2880000000000003,0,2.86566625800454799,0.0906201403965974372,6.11269173057749288e-08,-0.00355168180450421162,0.0066319835295480245,0.000290176108127300524
0.94,31.2221621213754226,131.010449466552529,17.6133578867427296,1.92208543320686442,3.38025152137650631,22.8592342568771016,-0.695041422050521662,2.96074240097733821,283.068750483778672,31.1026751417130427,13.6551061593756629,69.9377060827620483,0.195884180285461756,113.908544463183588,591.521533563666594,15.2880000000000003,0,2.87351832458619327,0.0914177245539813527,6.34794167699302735e-08,-0.00368050197279028027,0.00686210234055614071,0.000303338103853960589
0.95,31.2221616469827588,131.010450793169866,17.9022924841094984,1.95046085883585296,3.34910590058548108,29.6506053524356261,-0.707595634015462438,2.9467649612507274,342.421873617487279,31.3670200608824103,13.7752500182837352,69.9355502353651559,0.206793147713911746,113.920158872387304,601.602375374436861,15.2880000000000003,0,2.8813242947728761,0.0921949940140842639,6.58812620605997846e-08,-0.00381442134072839832,0.00709559861342719343,0.000317038527445974493
0.96,31.2221611686582499,131.010452131597816,18.1936379053600703,1.97970763891650048,3.32080340216264114,29.0468467303547122,-0.719744990534713303,2.9328099366747975,337.095335156783449,31.6066339863162078,13.8868108300157687,69.93331504800787,0.218067785832976896,113.932162746411038,610.811719598925151,15.2880000000000003,0,2.88909039107086851,0.0928995806697294063,6.83301635951330641e-08,-0.00395371716002476149,0.00733278214085464862,0.000331117252400689943
0.97,31.2221606864209527,131.010453481787977,18.487382469701636,2.00767070544870618,3.29161392774354367,18.517191625468584,-0.732293726138463885,2.91841071735699487,245.021887192993233,31.856243971019758,14.0017281056135516,69.9309972755756206,0.22971347920536711,113.944561840929907,620.479949356908492,15.2880000000000003,0,2.89681585531611985,0.0936335554383649349,7.08262788118116805e-08,-0.00409850054586275402,0.00757366261375650145,0.000345943582430024597
0.98,31.2221602005417047,131.010454843015168,18.7833217279376257,2.03246331319347018,3.25855192879281752,27.0546252316986191,-0.745960904830998417,2.90311994632778303,319.593746642958081,32.1457124004014219,14.1302749409776922,69.9285937259420365,0.241735540528553727,113.957361827481833,631.789465595614161,15.2880000000000003,0,2.90449540017388719,0.0944846918481986736,7.33719379646809134e-08,-0.00424871847995708131,0.00781798318541061625,0.000361871498689439724
0.99,31.2221597108818898,131.010456215655154,19.0815648967240534,2.06116237568160088,3.23294879857322792,29.5856187883084552,-0.758087798996199047,2.8885383566592111,341.660948551705417,32.3635936896829719,14.2341227203992062,69.92610108217103,0.25413940507220506,113.970568512169223,640.364592659054892,15.2880000000000003,0,2.91213495603974204,0.0951254223065364779,7.59653365572471274e-08,-0.00440460836381553322,0.00806596725873864016,0.000377680852435769191
1,31.2221592174401152,131.010457599712879,19.3821155315358666,2.0867641810164641,3.20358858226258247,26.4541913647327753,-0.771316297337433898,2.8730631384877241,314.26720818227642,32.6202897371436507,14.3512401206142126,69.9235160257222077,0.266930204868081888,113.984187379514935,650.544369303639201,15.2880000000000003,0,2.91973219476712176,0.0958802471117333743,7.86068594054178959e-08,-0.00456626743367959543,0.00831759775729156749,0.00039463677135942888
1.01,31.2221587203855613,131.010458994736382,19.684847094123306,2.11229972935019328,3.17523804844407342,27.678993469634726,-0.784506005576419585,2.85738362653906997,324.920316103697928,32.8684383529089956,14.465339262370291,69.9208351172330964,0.280113289633548534,113.998224146864047,660.460436250495718,15.2880000000000003,0,2.92728604117916502,0.0966099560135651736,8.12976751934425292e-08,-0.00473372182368280575,0.00857275433979648449,0.000412209093060955829
1.02,31.2221582196464738,131.010460400919243,19.9898169507115711,2.13804649118680912,3.14823957328467641,23.0631856968231297,-0.797551557746991047,2.84156868229956228,284.590631615404163,33.1039415835897586,14.5750085711124946,69.9180548762307978,0.293693867154557087,114.012684382484281,669.939152152927932,15.2880000000000003,0,2.93479838596920084,0.0973025037462333098,8.40369829292934661e-08,-0.00490714455482280879,0.00883154027112980494,0.00043035970579678826
1.03,31.2221577152864462,131.010461818091585,20.2969789251928283,2.16146180103524665,3.1188396600477164,18.7937404813966467,-0.811433934449590333,2.82498285245041725,247.30469339049705,33.3662070942697895,14.6938072770843338,69.9151717343032999,0.307677079515123353,114.02757358857663,680.576289816862982,15.2880000000000003,0,2.94226786308223387,0.0980737213840852246,8.68254313326656123e-08,-0.0050866082096684001,0.0090939032278076707,0.000449619729233399149
1.04,31.2221572073627911,131.010463246100983,20.6062918669010564,2.18618770979638111,3.09231414605348398,30.0487067237433436,-0.824758453134500358,2.80852325351330157,345.465636880722968,33.5992483784310778,14.8024720518661255,69.9121821239463941,0.322068218543272167,114.042897419222399,690.095753634230732,15.2880000000000003,0,2.94969556712092595,0.0987590473238831312,8.9663175609305633e-08,-0.00527221391621166685,0.00935983710646094529,0.000469266891173671292
1.05,31.2221566956093888,131.010464685659116,20.9179607240384726,2.20892149425795914,3.06392926581380243,18.0135590616963874,-0.838801703118935205,2.79135144963152104,240.456258798199826,33.8537475301947595,14.9184404751603328,69.9090823188602712,0.336872480108157235,114.05866143718147,700.568703235028011,15.2880000000000003,0,2.95708565738787277,0.0995074525205536936,9.25475782305293013e-08,-0.00546428892331563693,0.00962964804428902144,0.00049003232977911195
1.06,31.2221561802465999,131.010466136176433,21.2318198920723376,2.2298629292898422,3.03404637922273235,25.7832746237243455,-0.853505928331528274,2.773484913009439,308.179683655939243,34.1267226959212593,15.0406913783846576,69.9058684438223992,0.352095300288709723,114.074871462677791,711.890676018149406,15.2880000000000003,0,2.96443496486959557,0.100310172818721066,9.54810057853916049e-08,-0.00566279452714492891,0.00990312209037021163,0.000511913547345971406
1.07,31.2221556611660489,131.010467597942693,21.5479542176514123,2.25340971626187203,3.00861121995682845,30.4144364495404034,-0.867135757796408835,2.75609995922757722,348.509368144030759,34.3511543775998334,15.1461529690726735,69.9025366407215785,0.367742187583416758,114.091533385752342,721.262948680398949,15.2880000000000003,0,2.97174778246609295,0.100970214899191321,9.84617792400647454e-08,-0.0058679817289779123,0.0101804494145526989,0.000533934689544981783
1.08,31.2221551382728464,131.010469071209457,21.8664376355667081,2.27587902214833848,2.98255710488226633,20.3783905185748679,-0.881143856122015623,2.7382126028363265,261.001578574662346,34.5833328311227817,15.2541996061237946,69.8990828739266448,0.383818487618717064,114.108652936265102,731.02352663130182,15.2880000000000003,0,2.97902459008151199,0.101653034973483214,1.01489194778504784e-07,-0.00608005017903282853,0.0104617349478943154,0.000556953286899489848
1.09,31.2221546118223543,131.01047055529358,22.1870779545045309,2.29454187820948752,2.952396804966543,18.7216740171871194,-0.896633185840146729,2.71903155535740959,246.543753324744074,34.8647123816358402,15.3791115885024006,69.8955031206078985,0.400329540752093704,114.126235832239658,742.944657054510344,15.2880000000000003,0,2.98626104644730628,0.10248048294910031,1.04566532059621758e-07,-0.00629890567986618986,0.010746696130038938,0.000581677922054565249
1.1,31.2221540818846641,131.010472050007195,22.5098240606778504,2.31449818017425457,2.92477752099906541,37.8576818312874863,-0.911573508648541919,2.69996768758354211,413.189061738584087,35.1180923424487972,15.494307257321136,69.8917932860482978,0.417280694678974773,114.144287800549293,753.759258857189366,15.2880000000000003,0,2.99345859327831487,0.10322563775979697,1.07694035155634157e-07,-0.0065246503315030879,0.0110353181566336233,0.000606884552695450955
1.11,31.2221535480841119,131.010473556348614,22.8349625243331253,2.33759804233128321,2.90186687665151011,27.6404327097684295,-0.925189825627622864,2.68159847641737237,324.159391037639693,35.3155341299351377,15.5901533763034532,69.8879490563122658,0.434677385487000745,114.16281467366646,762.234886648481506,15.2880000000000003,0,3.00062419232673028,0.103806376305701192,1.10866876404549483e-07,-0.00675778528495965796,0.0113280835777799811,0.000632083610840800114
1.12,31.2221530104770402,131.010475074163054,23.1624516336580761,2.3535871987790804,2.87092565342595751,10.2502246012766047,-0.941683951310097189,2.66087537290166409,172.73281794065943,35.6118663001822995,15.7199869888520833,69.8839661836607746,0.452524840093044889,114.181822055339168,775.05597915106307,15.2880000000000003,0,3.00775468699660609,0.104677801055619801,1.14086699735243684e-07,-0.00699837349593666024,0.011624902058188287,0.000660058687289892683
1.13,31.2221524696137038,131.010476601986568,23.4918770866738562,2.37281072639836665,2.84472520179784771,32.6340114748309631,-0.956818134565405543,2.64086494577248532,367.532807790070478,35.8514375750693262,15.8301943605345645,69.879840153673797,0.470828781287177367,114.201316081101808,785.494249355077841,15.2880000000000003,0,3.0148452984066676,0.105382390509906179,1.17359946115074617e-07,-0.00724606131356496028,0.0119251937581393765,0.000687995405029162392
1.14,31.2221519248745132,131.010478141460595,23.823708484051803,2.39426039427870085,2.82185515651823771,17.94747600633643,-0.97097974004647547,2.62131386855472392,239.695317731955441,36.0492849485223843,15.9259404540154073,69.8755665217057071,0.489594286997199923,114.221302206529543,794.162410879599065,15.2880000000000003,0,3.02190554412683765,0.105964343604003502,1.20678225244424551e-07,-0.00750161361723852577,0.0122297297590580455,0.000716167257959313065
1.15,31.2221513767109649,131.010479691381249,24.1576055051446517,2.4083299860492966,2.79101608418340952,17.6869870785552337,-0.988208832138176674,2.59917178859848397,237.412511535467729,36.3501702590049263,16.0571280748258118,69.8711408951203197,0.508826359988939325,114.241785798247278,807.448789260206468,15.2880000000000003,0,3.02892676752164069,0.106849177468836862,1.24048798646144879e-07,-0.00776466799011212711,0.0125379186341499308,0.000747443770588580446
1.16,31.2221508252505409,131.010481251408521,24.4934738694668823,2.4296864863479688,2.76928454271085744,46.740218294659357,-1.00231728355224647,2.57911768380142536,490.043774384589426,36.5337338052415674,16.1477994492198853,69.8665584545073273,0.528530502118313761,114.262772771600879,815.598085788806202,15.2880000000000003,0,3.03591199691035385,0.107389158699701337,1.27471904878632134e-07,-0.00803530384030447936,0.0128497166888694361,0.000777376735151109671
1.17,31.2221502696770443,131.010482823696606,24.8319289758756696,2.44694002822501222,2.74348452467318404,8.06447876003668362,-1.01812835783052313,2.55748048697381858,153.709379294867944,36.7707091565062498,16.2568008464237508,69.8618146537310309,0.548711570022461737,114.284268345306074,826.186263371422228,15.2880000000000003,0,3.04286973616683065,0.10808614921550054,1.30936683746310636e-07,-0.00831453288925766698,0.0131661219767610724,0.000809582138087876191
1.18,31.2221497110620909,131.010484405404299,25.1721647059982949,2.45875488739493475,2.71228422659684254,22.5964705201531366,-1.03627434901243975,2.53370675663114575,280.025018221967457,37.0819611847718633,16.3913557058934742,69.8569045787567404,0.569374772707381349,114.306278126230083,840.204793215112318,15.2880000000000003,0,3.04977478493192766,0.109001481645809042,1.34459724894690573e-07,-0.00860126857382592647,0.0134857516264062626,0.000844563029643944523
1.19,31.2221491489204688,131.010485997811003,25.5145476091097656,2.48133548136694904,2.69353760089824146,39.6760441194592275,-1.0496922548116745,2.51336513209234003,428.407813052929214,37.2238406485789639,16.4674113800678583,69.8518233403414683,0.590525417322668167,114.328807817365032,846.618671448825239,15.2880000000000003,0,3.05664961585059691,0.109418955501661169,1.38031334909582672e-07,-0.0088963261244086999,0.0138093789951566539,0.000876848280961274921
1.2,31.2221485828321299,131.010487602015218,25.8593925061586667,2.49449595109649724,2.66513076451233033,3.85943648514333804,-1.06719754572856895,2.48947898821698388,117.184374136023607,37.4989626756351484,16.5893552545257776,69.846566023064014,0.612168084227391995,114.351862364584434,859.151205137709667,15.2880000000000003,0,3.06349508116520486,0.110228101799974026,1.41647344874259394e-07,-0.00920026585811750848,0.0141374458477942864,0.000913477437058482825
1.21,31.2221480138736922,131.010489215172157,26.2058925699806515,2.5077142357835962,2.63743684708024517,31.8068577207826415,-1.0846618340617189,2.46529731555883425,359.923432132008998,37.765987451568698,16.7084483794035776,69.8411275285963029,0.634308062688715757,114.375447455984371,871.401552005659596,15.2880000000000003,0,3.07029956952511585,0.111013454530585046,1.4532439318398909e-07,-0.00951194597242054247,0.0144685795541844645,0.000951117028936215424
1.22,31.2221474412212103,131.010490839446305,26.5546659454386997,2.52847497032307533,2.61817959410367695,22.9616754521187652,-1.09869229100266397,2.44361630520935824,283.068750482576149,37.912106537729926,16.7857286411133195,69.8355027121840379,0.656950133944268599,114.399568253745755,878.128195720503982,15.2880000000000003,0,3.07707711926126004,0.11144341152865328,1.49047326575775426e-07,-0.00983262286543298489,0.0148039724034401948,0.000986953032707117445
1.23,31.2221468651995053,131.010492473971453,26.9054685309334616,2.54018093153017865,2.59006448347224438,8.76484319899328668,-1.11675992904100019,2.41830404354695938,159.796873822227951,38.1863369610075694,16.9071688386934404,69.829686501419971,0.680098558709306023,114.42422936786744,890.847685228258911,15.2880000000000003,0,3.08381978414081415,0.112249961858194275,1.52823798009996446e-07,-0.0101619347644839268,0.0151430836360358922,0.00102735125530985477
1.24,31.222146286263488,131.010494117545875,27.2579610594911017,2.554562171464966,2.5652410766241851,38.5756233135686983,-1.13357316451936341,2.3937030895766962,418.515630199805003,38.4132587225814888,17.0122142698723771,69.8236736531032278,0.70375809907292286,114.449435935498244,901.436319115304173,15.2880000000000003,0,3.09052517325796972,0.11291745485089244,1.56660406277942286e-07,-0.0104994597055198206,0.0154853485795194215,0.0010677459915991248
1.25,31.2221457036457721,131.010495772175062,27.6127161477149876,2.57326581781207953,2.54517992404112592,18.5003765264818902,-1.1483304775417289,2.37052296998423673,244.260946125734876,38.5678737164944749,17.0922017773706152,69.8174588533023126,0.727933073271424869,114.475192636119601,908.676595086000589,15.2880000000000003,0,3.09719311875862768,0.113372406298063416,1.6054251746529675e-07,-0.0108464402769232349,0.0158318793562175139,0.00110743430568911879
1.26,31.2221451178503386,131.010497436524844,27.9693567421273492,2.58230807680810015,2.51606180683516945,10.7830301978920886,-1.16752865990201116,2.34323285307485163,177.298446336408631,38.8598970458114437,17.2196042743582716,69.8110367762756425,0.752627510277080081,114.501503843605988,922.45748996325392,15.2880000000000003,0,3.10382033606961505,0.114231284869606667,1.64481454405447284e-07,-0.0112022275510677734,0.0161818712327929416,0.00115238130482579943
1.27,31.2221445290434367,131.010499110153688,28.3277598291788308,2.59865621748908726,2.49455516311651726,37.1063117743322479,-1.18324933938722898,2.31859117452056651,405.579686079964688,39.0351390572599897,17.3065858044360787,69.8044018260211914,0.777846158692439782,114.528374692329109,930.764004096511599,15.2880000000000003,0,3.11041482619374143,0.114746884707757471,1.68477698177640965e-07,-0.0115668442232869755,0.0165352182576671246,0.00119521444474796892
1.28,31.2221439366094025,131.010500794659066,28.6883817221680602,2.61293981328524705,2.4714856580089779,11.8385991171175728,-1.19987339688297645,2.29284440665323208,186.429688124688823,39.2336834035288433,17.4015468721223598,69.7975485746354281,0.803592744455659203,114.555809240955412,940.223796666937119,15.2880000000000003,0,3.11698256525977513,0.115330990943912359,1.72520588944915414e-07,-0.0119412896150172879,0.0168927332249362329,0.00124013934162609993
1.29,31.2221433413020826,131.010502488059785,29.0506616857322086,2.62211462375370896,2.44407078319259652,19.6517180787500649,-1.21888938886992038,2.26464530483413862,254.153128984572163,39.5016926182250572,17.5204784820647781,69.7904714105839048,0.829871233966923971,114.583811803894278,953.080026578350044,15.2880000000000003,0,3.12351420923813761,0.116119303257425366,1.76625387941251819e-07,-0.012324545946613065,0.0172532992496602783,0.00128864024129263536
