Time,Latitude,Longitude,Altitude,Angle of Attack,Angle of Sideslip,X-Acceleration,Y-Acceleration,Z-Acceleration,Thrust,True Velocity,Ground Velocity,Pitch,Roll,Yaw,Dynamic Pressure,cp,parachute_deploy_gain,Wind Speed,Mach,omega_x,omega_y,omega_z,Cmq,Angle of Attack(total),Angle of Attack(gust),True Velocity(gust),Acceleration
0.0,31.222216000000007,131.010392,3.000000004412624,0.0,0.0,0.0,0.0,0.0,2.2828121974499247,0.0,0.0,71.99999999612658,-1.0292491154817412e-14,119.99999999354436,0.0,15.288,0,0.0,0.0,0.0,0.0,0.0,-0.0,0.0,90.0,0.0,0.0
0.01,31.22221599999862,131.01039200000284,3.0000009727369523,0.0,0.0,0.0,0.0,0.0,34.24218696174923,5.916279387578309e-11,5.734623670548936e-11,71.99999999613168,-5.86671995824671e-13,119.9999999935449,2.1432944861733093e-21,15.288,0,0.0,1.7386402909615473e-13,-3.4220131069073734e-19,7.115076756936125e-19,5.488773498207866e-19,-1.1574302492039043e-31,0.0,89.99999999962336,5.916279387578309e-11,0.0
0.02,31.22221599999738,131.01039200000537,3.0000018317022668,0.0,0.0,0.0,0.0,0.0,25.871876237766408,1.2265415415436536e-10,1.1895038237325684e-10,71.9999999961369,-1.1836364828043265e-12,119.99999999354544,9.211895886571454e-21,15.288,0,0.0,3.6044858651615574e-13,-6.979551485375437e-19,1.4162390878091906e-18,1.0909784360635388e-18,-4.776231873571785e-31,0.0,89.99999999921916,1.2265415415436536e-10,0.0
0.03,31.22221599921969,131.01039200159065,3.0001883335529382,18.80143492628821,-0.0001350810307892,10.931161642028636,-1.75114298675875e-05,3.026590975169265,180.34219359854663,0.0798232026864394,0.0478175828508887,71.99999999765336,-5.341802909786072e-12,119.99999999436793,0.0039016003969354,15.288,0,0.0,0.0002345795854893,3.788270153300133e-17,-7.771883375645477e-10,1.1422790048099072e-11,1.7057759223764537e-13,18.80143492675591,89.51882325913425,0.079801984207741,11.342422482672777
0.04,31.222215995131297,131.01039200995308,3.001692634342189,9.19442604083399,-4.49173898918486e-05,52.29595764159784,6.445392950801871e-06,3.026413589912948,548.6359724538078,0.3504174083926908,0.1601447499964056,72.00000000319055,-3.111420077280171e-11,119.99999999870242,0.0751892535633216,15.288,0,0.0,0.0010297854387864,2.0082066977226968e-15,-1.520937588847922e-08,2.5623342884322286e-11,1.4654248781413086e-11,9.19442604094277,87.798916624545,0.3504103527855857,52.383455068075136
0.05,31.222215983575865,131.01039203366796,3.0074067499493786,5.158590039700252,1.707592688632746e-06,76.26884281015512,5.843947534199429e-05,3.0258124765658088,761.6984298824644,0.9592973585397016,0.3772700771701255,72.0000000004862,-1.3608731808076822e-10,120.0000000109612,0.5634958029902841,15.288,0,0.0,0.0028191251099456,2.086299069701397e-14,-1.0551247853743037e-07,3.973493515691201e-11,2.783064866637575e-10,5.158590039700515,83.94063169874748,0.959297626767734,76.32884071402438
0.06,31.222215961742712,131.0103920785344,3.019291017943491,4.109521257467909,3.140103977270004e-05,57.06876634333886,0.0001151069734147,3.024834864051463,590.4875390737208,1.6257536642597354,0.6118982818704327,71.99999992547217,-3.5903296759057166e-10,120.00000003412836,1.6184272268450337,15.288,0,0.0,0.0047776672697797,1.0694899894620088e-13,-3.741090980393931e-07,5.521401959501359e-11,1.6723176417636091e-09,4.109521257587776,79.78719176344794,1.6257585967235286,57.148873286519276
0.07,31.222215929936205,131.01039214392435,3.0371334573469446,3.649087515174788,5.707077112564807e-05,86.89643797254193,0.0001728541558773,3.0234947746384675,855.2937749779139,2.3057260079826607,0.8506307413593818,71.99999965378231,-6.907496536790437e-10,120.00000006788592,3.255354923652711,15.288,0,0.0,0.0067759305364855,3.495199904512709e-13,-9.036515915819006e-07,7.594816279105379e-11,5.728932851326001e-09,3.6490875156204896,75.6601668283889,2.305734972638426,86.94902215090157
0.08,31.222215886364623,131.01039223353447,3.0621840248716574,3.4254446680114707,8.413075603463509e-05,17.831756866644035,0.0002285946601282,3.021841001032126,241.2171988638848,2.961944911520492,1.0819695676346892,71.99999900671328,-1.141745983122182e-09,120.00000011415082,5.371998197385977,15.288,0,0.0,0.0087043901031071,8.800530155962314e-13,-1.829098470920821e-06,1.0943386634701918e-10,1.4896287129277132e-08,3.4254446690434226,71.81713637501419,2.9619581267487467,18.085991154451033
0.09,31.22221583454733,131.01039234010327,3.0919888289029,3.389560809024919,0.0001118726864415,54.09031716446879,0.0002748660999733,3.020060228038602,563.0937377043176,3.504225426410036,1.2780161667917422,71.99999774508822,-1.634190085504106e-09,120.00000016921716,7.519080503822694,15.288,0,0.0,0.0102980157586766,1.865782139518716e-12,-3.1503298654458527e-06,1.6284478329871028e-10,3.03536411425607e-08,3.389560810868955,68.76526501308032,3.504242999330529,54.17456206384468
0.1,31.22221577423132,131.0103924641528,3.1267248829165366,3.4447939461814814,0.0001419149103147,51.372195336549765,0.0003131602029306,3.0182021883815127,538.7437595981919,3.950569597142709,1.4443465951180965,71.99999562056465,-2.1287748602259068e-09,120.00000023339832,9.55649523509932,15.288,0,0.0,0.0116097108366932,3.485956000178229e-12,-4.949356763187612e-06,2.4573266549165286e-10,5.3761299442583966e-08,3.444793949101151,66.34639928474206,3.9505918890846927,51.460781166288626
0.11,31.222215706113143,131.01039260424562,3.165907002780892,3.4691423802630394,0.0001702373452339,40.591037561894986,0.0003534470100582,3.016051659024047,442.8656393052949,4.421478635995476,1.6182620895289603,71.99999235067894,-2.5564479031457968e-09,120.00000030601664,11.970509656144712,15.288,0,0.0,0.0129935974697161,5.942887149865172e-12,-7.273722517324353e-06,3.67769289312894e-10,8.842679949465076e-08,3.4691423844348632,63.88798785789768,4.421505376815134,40.70293476011277
0.12,31.222215630588888,131.0103927595646,3.2092596514826863,3.4852659299808075,0.0001974376474727,44.30042894095728,0.000394069215595,3.013641598889868,475.58594813540446,4.896982486381051,1.793579340340896,71.99998761802138,-2.8337988279882726e-09,120.00000038673312,14.683611096353944,15.288,0,0.0,0.0143909889875706,9.464337642181618e-12,-1.017558359402848e-05,5.395790443954697e-10,1.3700793350599625e-07,3.4852659355662303,61.5068242157714,4.897013499814194,44.40281567867803
0.13,31.222215548046687,131.0103929293088,3.256512891171917,3.5606043721293616,0.0002276507019012,48.86766833507025,0.0004268800875964,3.0112558910133567,515.9156326236895,5.278566579338586,1.939796541405244,71.99998107389406,-2.8573058577484587e-09,120.00000047523812,17.061052093156064,15.288,0,0.0,0.0155123760833565,1.4300406003001044e-11,-1.3705268062305584e-05,7.724776992181392e-10,1.989112774124932e-07,3.560604379397528,59.67313531776262,5.27860233862722,48.960358155653
0.14,31.222215458587108,131.01039311327068,3.30759734332425,3.6000732663755977,0.0002555702913645,45.540290862247225,0.0004629468001456,3.0085404980032777,486.2390860568404,5.70011779273801,2.098362647205908,71.99997235012626,-2.508533681468686e-09,120.00000057154703,19.894788765881632,15.288,0,0.0,0.0167512184495524,2.071534240530911e-11,-1.7917736259613292e-05,1.0787346240473087e-09,2.8081526258393346e-07,3.6000732754351943,57.72385750323359,5.700157937625502,45.639559681930805
0.15,31.222215362317904,131.01039331122794,3.3624387479639086,3.651605404442164,0.0002842753491325,44.01308509501,0.0004965057129938,3.005703619811542,472.54218587214,6.091938849578711,2.2476968067377374,71.99996103728932,-1.6446954747148112e-09,120.00000067569304,22.723773683610247,15.288,0,0.0,0.0179026934683374,2.9002783512213203e-11,-2.287326399669318e-05,1.47199345427166e-09,3.831202693354572e-07,3.651605415492516,55.98561718911576,6.091983503446133,44.115597174664394
0.16,31.22221525912812,131.01039352340948,3.421115382839859,3.67540086436193,0.0003108411545024,34.83804992586084,0.0005330990866742,3.002517946501868,391.1218908297564,6.521183188362317,2.4085903880902046,71.99994669525161,-1.0153513453738144e-10,120.00000078796704,26.03872642002185,15.288,0,0.0,0.019164148528834,3.9478358970291335e-11,-2.864207894220033e-05,1.9677461746207517e-09,5.135466997084602e-07,3.6754008774883777,54.15946979122355,6.521232015176687,34.96719658394182
0.17,31.2222151493826,131.01039374906244,3.4833737923187487,3.7139589864597298,0.0003384978477213,43.96471427482637,0.0005668629535037,2.999235483723449,471.78125980632376,6.916861975403744,2.559060925010733,71.99992884100092,2.3206494032971838e-09,120.0000009081849,29.29426197817256,15.288,0,0.0,0.0203269651395979,5.248754693205839e-11,-3.5267097947693114e-05,2.580363454062817e-09,6.706952682968329e-07,3.713959001863866,52.549031795895466,6.916915146521327,44.06689817851128
0.18,31.22221503253009,131.01039398932429,3.549599475912623,3.7380363034619775,0.0003650282082698,36.67395661481795,0.0006021794701355,2.9956556354306425,407.10156721191447,7.332140201215607,2.71556808256092,71.99990696207136,5.837017536380516e-09,120.00000103716444,32.917216366714264,15.288,0,0.0,0.0215473823438242,6.839750892601699e-11,-4.285557247677198e-05,3.331016495775474e-09,8.639362741436378e-07,3.738036321259578,50.93050624815799,7.332197539712479,36.796100973258795
0.19,31.22221490871209,131.01039424390297,3.619694897703461,3.747799769666444,0.0003901520189829,41.42208371271829,0.0006393759928961,2.991742733214697,448.9531328318269,7.771071983754382,2.879366399937307,71.99988049019642,1.0709144790974043e-08,120.00000117502664,36.97605053227239,15.288,0,0.0,0.0228373144884866,8.761416506509219e-11,-5.146771415177372e-05,4.238406957677133e-09,1.0996552116864756e-06,3.747799789945131,49.29705748437159,7.771133268690212,41.529983675580546
0.2,31.22221477769685,131.01039451327668,3.693822889232993,3.7700519460961166,0.0004166800650969,37.99697972290605,0.0006740224661302,2.987733789228414,418.51563019916136,8.179966026035371,3.0338260708461373,71.99984881140107,1.723179577184912e-08,120.0000013223286,40.969302182777255,15.288,0,0.0,0.024038975990988,1.1057590044953188e-10,-6.120032215177249e-05,5.3263847350253015e-09,1.376394225587184e-06,3.7700519690893857,47.8457752505109,8.180031477986942,38.11426270718793
0.21,31.222214639876928,131.01039479663547,3.771710975053407,3.7926098867321474,0.0004432924407074,36.46301043881366,0.0007080907240332,2.983530483977461,404.8187610144644,8.582757448615462,3.1863584283669346,71.99981127559042,2.5745201416596626e-08,120.00000147900325,45.103059028532826,15.288,0,0.0,0.0252227064089584,1.3774582723633048e-10,-7.20875523136271e-05,6.61341033873124e-09,1.7010673350603349e-06,3.792609912601061,46.47936953648762,8.582827080829217,36.584868250565684
0.22,31.22221449507626,131.01039509434258,3.8534832466471007,3.782921298925821,0.0004660920499522,44.14577847155813,0.0007479176313898,2.978724032883548,472.5421858721365,9.056569122268344,3.360845972992861,71.99976720416048,3.661811567390422e-08,120.00000164562512,50.21995530074818,15.288,0,0.0,0.0266151520780326,1.6960703048385348e-10,-8.421592474264931e-05,8.124635526119773e-09,2.0969540034515424e-06,3.7829213275976334,44.9464484092354,9.056642335836344,44.24615863872642
0.23,31.22221434283448,131.01039540734791,3.9394622486964206,3.813874679301352,0.0004940771488601,36.66675459308932,0.000779455230549,2.974212905336642,406.3406421461021,9.430647902846331,3.5044030163419806,71.99971583979395,5.0272885112871524e-08,120.00000182313076,54.45382429059888,15.288,0,0.0,0.0277145095638672,2.0669790509245914e-10,-9.77285871729516e-05,9.894576563683824e-09,2.5339062472561444e-06,3.813874711257219,43.79476959007253,9.430725512303388,36.78718303164376
0.24,31.222214184153326,131.01039573358457,4.028950821673608,3.829256049377765,0.0005200487408944,37.802126339316736,0.0008136255607606,2.9692962675112065,416.2328240017114,9.837806876534357,3.658163422426286,71.9996564062533,6.718950080713476e-08,120.0000020109434,59.25679777340223,15.288,0,0.0,0.0289110855155543,2.4956955046738006e-10,-0.0001125744417092,1.1934277804843484e-08,3.0448209172448607e-06,3.829256084638984,42.59361542722471,9.83788856559955,37.91856374864305
0.25,31.22221401888584,131.01039607335582,4.122052964664892,3.851417709838087,0.0005469594058717,38.85163035360012,0.0008459008130282,2.964283881833675,425.36408079150686,10.22297576958679,3.8050691648373967,71.99958811418384,8.786880969336211e-08,120.00000220974424,63.98709205399403,15.288,0,0.0,0.0300430411774988,2.987811646313829e-10,-0.0001288461362054,1.4273117985167728e-08,3.621333387698252e-06,3.8514177486178034,41.50703126619192,10.223061685769354,38.96455005232871
0.26,31.222213847358866,131.0103964259872,4.218542267117083,3.8780574625554745,0.0005745172425185,42.3164797140743,0.0008766626387865,2.959162938653076,455.8015834241788,10.590779679138215,3.946551912391076,71.99951013710364,1.1286401474734325e-07,120.00000241975916,68.67355887153568,15.288,0,0.0,0.0311239685467471,3.5491769188178554e-10,-0.0001465721578858,1.6932703957058654e-08,4.267712643344226e-06,3.8780575050466,40.51245375834074,10.590869924095635,42.41981967733593
0.27,31.22221366913008,131.0103967923915,4.318728802515264,3.886188503202341,0.0005994342651313,38.70936050721014,0.0009111181036949,2.953518013741325,423.84219965987256,11.004860953238978,4.102320296019413,71.99942161756776,1.4276417094868828e-07,120.0000026420792,74.14786134434608,15.288,0,0.0,0.0323408987462391,4.1858405402174807e-10,-0.0001658847815307,1.995072923688136e-08,5.018832267232506e-06,3.886188549362022,39.43841359495857,11.00495511215316,38.8218734782956
0.28,31.22221348431185,131.01039717233687,4.422535913956003,3.90556090261878,0.0006261175699806,44.68030766832924,0.0009425767186621,2.947879457547137,476.3468732012221,11.38358114165448,4.247086834352694,71.999321619057,1.7823531611327881e-07,120.000002877279,79.33831935330025,15.288,0,0.0,0.033453914386159,4.904408325040897e-10,-0.0001868529238516,2.3357766479368094e-08,5.847713054408178e-06,3.9055609527288775,38.49894431917428,11.383679491972384,44.77744842575601
0.29,31.222213292835256,131.0103975659655,4.530013412817602,3.9242599519377537,0.0006528240665589,35.802573724660256,0.0009737210635801,2.942037024315898,397.97031042211177,11.759725774384751,4.391004157029451,71.99920917567837,2.1999186079018322e-07,120.00000312617878,84.66717879828003,15.288,0,0.0,0.0345593650464213,5.711677680739745e-10,-0.0002095620322847,2.7188189988316943e-08,6.77505090435382e-06,3.9242600061534456,37.60352534239979,11.759828319749328,35.92324968749781
0.3,31.222213095024976,131.0103979726075,4.64093665799555,3.936939025755682,0.0006785438093183,33.570228713727204,0.0010059102294455,2.93586442972183,378.1859457108711,12.149968255527943,4.539237002744259,71.99908328532703,2.6880857935396905e-07,120.00000338923812,90.3787563598417,15.288,0,0.0,0.0357062504417728,6.614698865958865e-10,-0.0002340353597042,3.1467140861055e-08,7.817263716758327e-06,3.9369390841381695,36.71173884615234,12.150074840940263,33.698361337808635
0.31,31.22221289105846,131.01039839189684,4.755183729044857,3.9598342215431432,0.0007060286581592,35.396825578217346,0.0010350810412898,2.9297385597941448,394.1656220930212,12.504537499407316,4.6763673222047455,71.99894291513503,3.255120771695107e-07,120.00000366712923,95.72967338626896,15.288,0,0.0,0.0367483036680869,7.620720834468404e-10,-0.0002603234137215,3.622454560346964e-08,8.948994505138873e-06,3.9598342843844345,35.934338386209795,12.504648402129598,35.5178635353378
0.32,31.222212681031937,131.01039882363492,4.872689374180126,3.985461429033668,0.0007340760463279,38.52097867048992,0.0010630242168685,2.9235095146848846,421.55939346242695,12.84534566718622,4.809181081594425,71.99878701464397,3.909756427278764e-07,120.0000039606604,101.01782231644016,15.288,0,0.0,0.0377499198995686,8.737098716736534e-10,-0.0002884807530145,4.1491545539590986e-08,1.0187112828155184e-05,3.98546149652875,35.21473736963424,12.845460975581933,38.631757748577954
0.33,31.22221246496604,131.01039926777932,4.9934410812554,4.010606629086,0.0007621365968788,38.18822026147908,0.0010905599149574,2.917102431053817,418.5156301991682,13.18247167592885,4.940798912752974,71.99861449732019,4.661299779655886e-07,120.000004270781,106.38859400029033,15.288,0,0.0,0.0387407190563976,9.971421990244511e-10,-0.0003185760672934,4.7302669734505256e-08,1.154498667827874e-05,4.010606701382261,34.52805863348922,13.182591392065536,38.299473293007864
0.34,31.222212242662028,131.01039972474007,5.117579377337869,4.019339771238816,0.0007871574969313,29.898022638335373,0.0011220389395318,2.910051232417875,345.46563688075645,13.569536737955724,5.0878303926024735,71.99842423285973,5.519675040347761e-07,120.0000045987411,112.72655675097128,15.288,0,0.0,0.0398782837956187,1.1331556132162459e-09,-0.0003507224668667,5.37022358302301e-08,1.308298593306914e-05,4.019339848191799,33.76700548046532,13.5696603843662,30.039310197084795
0.35,31.22221201433324,131.01040019407705,5.2449575244483055,4.033762873683395,0.000813261106463,32.76415525156106,0.0011515840876071,2.902959820469776,370.5765700527033,13.934300103976534,5.227895396154902,71.99821502296155,6.495674834876441e-07,120.000004945438,118.8669740701126,15.288,0,0.0,0.040950312688979,1.2825853697215452e-09,-0.0003849609961885,6.072234695821837e-08,1.4746020857580124e-05,4.033762955530055,33.07785186209504,13.934427850732408,32.89250745069162
0.36,31.22221177990305,131.01040067594835,5.375631006350063,4.051723629010647,0.0008401329464575,37.01692984301412,0.0011797030485285,2.8957873473716007,407.8625232777193,14.282998147928636,5.362923567977223,71.9979856440668,7.600645476620651e-07,120.00000531213882,124.88900300695136,15.288,0,0.0,0.0419751331662584,1.4462801652534363e-09,-0.0004213876232777,6.84067806399068e-08,1.654507199147348e-05,4.051723715967022,32.44322602189087,14.283130115703262,37.13002398000203
0.37,31.222211539445663,131.01040117020102,5.509550188388412,4.071639898917391,0.0008674922629137,35.12417761390579,0.0012067983861697,2.88849906286036,391.1218908297666,14.620581431527652,5.494447309446232,71.99773482653193,8.846681943540367e-07,120.00000570002652,130.86067091914967,15.288,0,0.0,0.0429672939311924,1.6251202388969355e-09,-0.0004600660652957,7.679415042686734e-08,1.849041957573993e-05,4.071639991174516,31.85023865502424,14.620717696893658,35.24274792557624
0.38,31.222211292895075,131.01040167697127,5.646763233102716,4.08264881385344,0.0008930259828975,36.695642158537446,0.0012360471443664,2.880711738179021,404.8187610144602,14.986392916850402,5.634654729559426,71.99746126698146,1.0246533537040716e-06,120.0000061105033,137.4891296153862,15.288,0,0.0,0.0440424171304414,1.8200057922063743e-09,-0.0005010869196581,8.592980519823866e-08,2.0642694281337543e-05,4.082648911356968,31.228847973200924,14.986533193043764,36.808540518115166
0.39,31.22221104018777,131.0104021963902,5.787316652586672,4.096641430700089,0.0009192713382325,31.335681548387896,0.0012640110027448,2.872831219844713,357.64062493382744,15.337978856701952,5.770390286512262,71.99716358743511,1.1813915463769678e-06,120.00000654506955,144.01394309468844,15.288,0,0.0,0.0450757388736732,2.031886352449547e-09,-0.00054455673306,9.586443829735616e-08,2.295945663566148e-05,4.096641533664766,30.65298398882095,15.338123255506089,31.4670954954126
0.4,31.222210781536543,131.01040272801887,5.931064331106764,4.109028969993624,0.0009451871856381,29.95928076777898,0.0012920492774571,2.8646905607053603,345.465636880754,15.692185018814769,5.906873567965718,71.99684037970908,1.3563276523471372e-06,120.00000700500496,150.74021066990193,15.288,0,0.0,0.0461167659598875,2.2617341782092324e-09,-0.0005905037520737,1.0663253249436129e-07,2.5471259834659164e-05,4.1090290785164525,30.09246700352443,15.692333488470696,30.095929256306363
0.41,31.222210517064383,131.01040327160345,6.077922766619747,4.122888296344507,0.0009714525997821,33.78425365340317,0.0013192264430821,2.85640971467756,378.94687077668647,16.03742529732769,6.0405139809190125,71.99649020751959,1.5509747261474075e-06,120.0000074917568,157.44375780268788,15.288,0,0.0,0.0471314487675864,2.5105374204052982e-09,-0.0006389770219162,1.1827345344180344e-07,2.816813594418537e-05,4.122888410595805,29.56469007160549,16.037577892745222,33.904791300285986
0.42,31.22221024682894,131.0104038270252,6.227854084363214,4.14444025865494,0.0009995884754813,38.04468161607466,0.0013435485656724,2.8482703202464488,416.2328240017114,16.348862540904037,6.163613566771559,71.99611159893284,1.766920641656551e-06,120.00000800692096,163.6157044470786,15.288,0,0.0,0.0480467946810589,2.779304965995011e-09,-0.0006900467934588,1.308321832549104e-07,3.100973487310896e-05,4.144440378988911,29.104646754454564,16.34901955589459,38.15115260238947
0.43,31.222209970843565,131.0104043942566,6.380851271439565,4.1618082623168045,0.0010268052928652,33.45815353250911,0.0013687230309017,2.8397750580998298,375.9031395134336,16.67263197205097,6.290467308135904,71.99570306121484,2.005818691215035e-06,120.00000855220898,170.15779512382937,15.288,0,0.0,0.0489983878509763,3.0690566816849196e-09,-0.0007437862329608,1.443552931671376e-07,3.4086145072160934e-05,4.161808388761201,28.640125213458976,16.672793262249197,33.57845085853367
0.44,31.22220968892116,131.01040497368373,6.537047157143216,4.164954087655709,0.0010505545842624,30.86574023822051,0.0013980747538988,2.830419582421933,353.0750125389216,17.050421620730056,6.433992917638883,71.99526304125902,2.269416145406482e-06,120.00000912964636,177.9537948947602,15.288,0,0.0,0.050108743779844,3.380847125286677e-09,-0.0008003278134917,1.589055036683518e-07,3.750784460406397e-05,4.164954219916419,28.113519280259386,17.050586641458253,30.99524475496968
0.45,31.22220940081287,131.01040556582012,6.696617751072218,4.165241899529329,0.0010735835484822,35.912216710755274,0.0014280646808282,2.820677244966047,397.2093853562869,17.438293672974723,6.580571293039616,71.99478987454265,2.5595995397253085e-06,120.00000974147088,186.13940823302417,15.288,0,0.0,0.0512487363629523,3.7158016249566814e-09,-0.000859850913876,1.745604864109677e-07,4.121350642664912e-05,4.1652420376426775,27.591357195572936,17.43846231108416,36.02281959036367
0.46,31.222209106468902,131.0104061707686,6.859600379555308,4.174585124444534,0.0010989881252456,41.916816790010685,0.0014546917035209,2.811153314474766,449.7140588976434,17.786187321601275,6.714685486378061,71.99428180697711,2.8783880229668832e-06,120.0000103898448,193.6374175079873,15.288,0,0.0,0.0522712438446989,4.0751091178509895e-09,-0.0009224765531151,1.9138630415982226e-07,4.50966024037632e-05,4.1745852688465686,27.13985967570823,17.786359950252297,42.01097612387663
0.47,31.22220880579083,131.01040678873238,7.026066274755745,4.1823089530633855,0.0011240727220223,28.37640408484148,0.0014814747534716,2.801325368441072,331.0078106302534,18.138167428286582,6.849989708801916,71.99373704967608,3.2278903746588286e-06,120.00001107707628,201.37401505997488,15.288,0,0.0,0.0533057667609836,4.459978104761035e-09,-0.0009883252835099,2.094509673354327e-07,4.927107017839778e-05,4.182309103852639,26.69716826759888,18.13834399721685,28.514342615617974
0.48,31.222208499300592,131.0104074186346,7.195654207463586,4.189479568102716,0.0011490100608361,27.95074823096412,0.0015080719422187,2.7912412472910484,327.2031223011574,18.48995085190441,6.98515976370584,71.99315377257649,3.6103201777021456e-06,120.00001180491516,209.25751230436188,15.288,0,0.0,0.0543397174489847,4.8716620260348906e-09,-0.0010573190976925,2.2877013380347535e-07,5.373205427420879e-05,4.189479725385959,26.268461765425428,18.4901313379827,28.089773168283216
0.49,31.222208187201936,131.01040806005494,7.368224738812109,4.202723284133339,0.001175611380853,35.08821363242469,0.0015321405723077,2.781292092003844,389.60000969812296,18.812014261754847,7.111044804193205,71.99253015042137,4.027946338669921e-06,120.0000125755114,216.60722913930897,15.288,0,0.0,0.0552863302793499,5.311396446020465e-09,-0.0011294854492155,2.4938633613154685e-07,5.8398320167141767e-05,4.202723448262914,25.88860807032205,18.81219892635871,35.1982716047702
0.5,31.22220786953184,131.01040871291724,7.5437546994244835,4.220815778795054,0.0012036252596423,36.05491615971072,0.0015540388599792,2.7714444106710974,397.97031042210494,19.10875420627192,7.229005658018125,71.99186435180009,4.483102820610566e-06,120.00001339126192,223.4908652241728,15.288,0,0.0,0.0561585257949344,5.7804122391526605e-09,-0.0012048912160576,2.713531252030471e-07,6.327866493526626e-05,4.220815950099865,25.54902500917784,19.108943271285572,36.161276053538906
0.51,31.222207546379583,131.0104093770373,7.722184419225251,4.232567510615346,0.0012298790840397,27.54004661432325,0.0015777580800203,2.761017323676155,323.3984349720841,19.430597746636646,7.354673636736509,71.99115452520388,4.978202222778502e-06,120.00001425458936,231.07869697977367,15.288,0,0.0,0.0571045034845869,6.2799518101633574e-09,-0.0012835871653678,2.947201005874635e-07,6.854585242460463e-05,4.232567688976395,25.189423168613605,19.430790935591396,27.678103017910345
0.52,31.22220721772016,131.01041005255067,7.903523362209366,-6.527593343364976,-0.00044428036682,33.15287899201799,0.0013209773414036,3.341639254456234,372.0984511843415,18.66200946148245,7.486295123520304,71.99041195804179,2.5889062534840406e-05,120.00003659107662,213.1556439020476,15.288,0,3.771435863030988,0.0548458147427517,6.808418035201337e-09,-0.0012581069881912,1.9574504763193e-05,6.452649457110393e-05,6.527593358418832,26.505639376977783,18.661939674085627,33.32086343586089
0.53,31.222206883189976,131.0104107401505,8.08786740781939,-6.35835688220467,-0.0003959142616279,34.81531326073684,0.0013434767684265,3.346377666561328,386.5562464348624,18.97911667333743,7.619070524816727,71.98972154719593,6.037796110606617e-05,120.00007321123095,220.45722153502928,15.288,0,3.7859431288913954,0.0557778777184831,7.302453411435478e-09,-0.0011424138003398,1.956729445462292e-05,5.9587318425205925e-05,6.358356894480159,26.103531824847085,18.97905448327064,34.97576707858498
0.54,31.22220654265,131.0104114400861,8.27528906951099,-6.195070637102938,-0.0003484808706901,30.557346321138937,0.0013657315386767,3.3510628003873446,349.2703242098436,19.2944366148333,7.751270026816886,71.98909788612373,9.48524159571412e-05,120.00010982249314,227.8393466505505,15.288,0,3.800415455567012,0.0567046939056751,7.747029627161163e-09,-0.0010249716872666,1.956059995548203e-05,5.434887521264227e-05,6.195070646865944,25.714578135154845,19.294381875586136,30.740543878522804
0.55,31.222206196394428,131.01041215175033,8.465582267849394,-6.039143174486544,-0.0003020545719396,32.39392210858273,0.0013873700571872,3.3555925585004727,365.2500005919907,19.60220428501483,7.8810972965949295,71.98854193044154,0.0001293137450278,120.0001464259477,235.16160135597147,15.288,0,3.814835064314407,0.0576093203540467,8.141550494301457e-09,-0.0009059715695313,1.955447744364453e-05,4.880430516505094e-05,6.039143182012327,25.344770202066798,19.602156838393626,32.56725645368956
0.56,31.222205844422664,131.0104128751443,8.658746547883625,-5.891367734939957,-0.0002565965542294,30.2232265012581,0.0014081071599724,3.359890564708296,346.2265619465787,19.897978902494728,8.007174127452739,71.98805457192692,0.0001637633584349,120.0001830230934,242.307280795675,15.288,0,3.829201090702144,0.05847870587636,8.48545503883251e-09,-0.0007854294969376,1.9548972437817343e-05,4.29483785073437e-05,5.891367740508233,24.99798516995644,19.89793859640224,30.40941115404788
0.57,31.222205486810168,131.0104136101122,8.854728501669191,-5.745436578381152,-0.0002117883179851,29.881544792619216,0.0014292171012993,3.3642949453945,343.1828296833023,20.20159495201033,8.135666104591206,71.987636666948,0.0001982027579391,120.00021961544373,249.75355415159444,15.288,0,3.8435066766965713,0.0593711425210402,8.778221531206873e-09,-0.000663418326132,1.954413438549061e-05,3.6829476785193855e-05,5.7454365822714895,24.651311203533208,20.201561684379133,30.0703375723582
0.58,31.22220512353232,131.0104143567047,9.053544546099968,-5.597666279707445,-0.0001675403303491,39.39217609129143,0.0014515739857971,3.369040201902154,426.1250058573153,20.52681291265365,8.270847262066637,71.98728905280817,0.0002326335337032,120.00025620471284,257.8547381034135,15.288,0,3.85775134945024,0.0603270717598397,9.019341889661577e-09,-0.0005399517274522,1.9540010947564872e-05,3.0457243380702968e-05,5.597666282206712,24.29055085595822,20.5267865954801,39.53598324560061
0.59,31.22220475416096,131.0104151158051,9.255492233273584,-5.4617078642281065,-0.0001242105319235,31.901282402108496,0.0014719856826849,3.373285006755592,360.68438819711065,20.823862601378405,8.397259130707141,71.98701263988761,0.0002670573549921,120.00029279313269,265.36657879326003,15.288,0,3.871956656512443,0.0612002224020894,9.208228794564809e-09,-0.0004147896615784,1.9536644662472283e-05,2.3735310963210747e-05,5.461707865636263,23.96843646322919,20.82384309043368,32.07913453948876
0.6,31.222204378918804,131.01041588695367,9.460415633180974,-5.319412870842561,-8.13561881001035e-05,28.33203237157801,0.0014947609529474,3.37817028188936,329.4859594986058,21.16023566513213,8.53586476613877,71.98680832448439,0.0003014759989578,120.00032938234818,274.0034939874165,15.288,0,3.886108670615112,0.0621889486775898,9.344364327092414e-09,-0.0002880976644185,1.9534094670534527e-05,1.6751642841957416e-05,5.319412871462935,23.61464918007443,21.160222885731987,28.532719726515644
0.61,31.222203997752867,131.0104166702598,9.668350979864844,-5.179849528094719,-3.924815373466705e-05,33.225885633288165,0.0015177756199434,3.383135667685372,372.0984511843297,21.502832507878384,8.676379063738947,71.98667700765066,0.0003358913406732,120.00036597440416,282.94223066132287,15.288,0,3.9002093909861513,0.0631959731115556,9.427211133306882e-09,-0.0001598668870023,1.953241576838697e-05,9.445885700453551e-06,5.179849528242992,23.26436070800049,21.50282634279281,33.397680838135344
0.62,31.22220361078209,131.01041746547787,9.879214705263305,-5.059340026088,2.1013329156987312e-06,41.35187196432464,0.0015365644643967,3.386996969886775,442.86563930529206,21.781306569013697,8.796960700162442,71.98661959220826,0.0003703053646409,120.00040257127534,290.31233625196813,15.288,0,3.9142583951219616,0.0640145496275786,9.456246800870889e-09,-3.0163683892117496e-05,1.953166564120516e-05,1.8052942989641083e-06,5.059340026088425,22.984565026906825,21.7813068990903,41.490349068053774
0.63,31.22220321781145,131.01041827301017,10.093142244329195,-4.937431978136349,4.2939319783658257e-05,23.37262550688779,0.0015563886295432,3.391145157396073,286.11251274707894,22.07847013153533,8.923326396973202,71.98663687779391,0.0004047201598785,120.00043917538468,298.2817397787683,15.288,0,3.92824608838308,0.0648880602469745,9.43101667926974e-09,0.0001010683888447,1.9531903694563188e-05,-6.131335770769496e-06,4.93743197832261,22.693539526059887,22.07847687642791,23.617355715365303
0.64,31.222202819453983,131.0104190915918,10.309705997926391,-4.811680539656247,8.306108627751605e-05,22.940223693441528,0.0015780721616569,3.3957963919668983,282.30782441796754,22.40749613971748,9.059552824374252,71.98672964257634,0.0004391379335729,120.00047578840956,307.23192571009326,15.288,0,3.942176256643581,0.0658552201822151,9.351147281915641e-09,0.0002334329326413,1.953318762279212e-05,-1.4371999906045566e-05,4.811680540371512,22.38037059294635,22.407509186922404,23.190198333156687
0.65,31.22220241568789,131.01041992126767,10.528920850777313,-4.69957419345048,0.0001227668601112,40.68218936075765,0.0015964635953981,3.399584628923671,436.7781447787475,22.686834222040925,9.180329045374698,71.98689858747852,0.0004735609909707,120.00051241281392,314.9331198943121,15.288,0,3.9560163601498446,0.0666763545783336,9.216272100372981e-09,0.0003669395640377,1.9535574008652908e-05,-2.287289021397184e-05,4.699574195050318,22.119135126927063,22.686853506214216,40.82398448684857
0.66,31.222202005980208,131.01042076313726,10.75115794925716,-4.587787776364607,0.0001619573712416,34.57308927496086,0.0016153883832062,3.403530748730798,383.51251517160017,22.977165029840428,9.304496386962084,71.98714439481816,0.0005079917392112,120.00054905171876,323.0384065164523,15.288,0,3.9698078692329313,0.067529802917161,9.026014612067662e-09,0.0005018558428152,1.95391307254672e-05,-3.168245067309861e-05,4.587787779217262,21.85399122514625,22.97719047004481,34.74021482635721
0.67,31.222201590523447,131.01042161680328,10.97628285626317,-4.473029211667481,0.0002004177555904,23.7389935467686,0.0016359616333253,3.4079292247409385,289.1562440103425,23.29641423812981,9.437609983243489,71.98746782257187,0.0005424327189698,120.00058570760484,332.07030699775635,15.288,0,3.983553293673233,0.0684682490515853,8.780004064285266e-09,0.0006380336662145,1.954392047730416e-05,-4.083820319020928e-05,4.4730292161482845,21.570231314427183,23.29644571967724,23.982364330706325
0.68,31.2222011694924,131.01042248190512,11.204173588680309,-4.362686413429356,0.0002383924003798,29.69046323722754,0.001655818925508,3.412148856006509,340.8999924858462,23.60700181163504,9.568004760771,71.98786958488704,0.0005768865891103,120.00062238309648,340.9761842773859,15.288,0,3.997205830525124,0.0693812454764131,8.477902675553344e-09,0.0007753522491903,1.9550005163134606e-05,-5.028799621204356e-05,4.3626864199300845,21.30042609888703,23.60703925822573,29.885889141841556
0.69,31.22220074296849,131.0104233582746,11.434773319470796,-4.260288569442809,0.0002761700974475,36.60751128932316,0.0016736563464093,3.415846439192014,401.0140726853634,23.887966517983017,9.689183336577194,71.98835033258699,0.0006113561219914,120.00065908103755,349.13318155535563,15.288,0,4.010799484017209,0.0702071865763708,8.119419876745385e-09,0.0009137287082572,1.955744784769096e-05,-5.9966856208727e-05,4.260288578377574,21.06080679385262,23.88800989868048,36.766532233747434
0.7,31.222200310806446,131.0104242462115,11.668183321955372,-4.15987942924869,0.0003135086948684,30.66418062968521,0.0016913948489269,3.419532279377093,349.27032420985284,24.170073818544267,9.810689338534884,71.98891066003644,0.0006458442019384,120.0006958046338,357.42010828952726,15.288,0,4.024341173845478,0.0710364923413013,7.704298892408576e-09,0.0010532091041743,1.956632107635652e-05,-6.993549878835011e-05,4.1598794410417135,20.825286298187677,24.1701230643749,30.854257041135828
0.71,31.222199873060177,131.01042514560447,11.904366087374134,-4.058297061216377,0.0003501478389041,25.15519171840008,0.0017101579466081,3.423498909241548,301.33126406340574,24.471537642604165,9.93816387856218,71.98955116423116,0.0006803538446951,120.00073255701462,366.38332173932827,15.288,0,4.037794514100989,0.0719226942134424,7.232301396185977e-09,0.0011937194646867,1.9576692651201013e-05,-8.025253865127823e-05,4.058297076296367,20.57964709566931,24.471592643698084,25.387083686309506
0.72,31.22219942972928,131.01042605645424,12.143321978252512,-3.955131067750538,0.0003859513519804,30.851434951103656,0.0017302211986711,3.427825923099604,350.79220534145287,24.797047489108927,10.073058247459372,71.99027243800857,0.0007148881990519,120.00076934150772,376.1864602848384,15.288,0,4.05118528684268,0.0728795753676118,6.7031931570842875e-09,0.0013352317494814,1.9588634972059632e-05,-9.095820976112928e-05,3.95513108655158,20.321199424654576,24.79710811420553,31.041279485467722
0.73,31.222198980807903,131.01042697877284,12.385055200457314,-3.863203357835288,0.00042220224353,39.09067646388037,0.0017465872672217,3.4311906972865245,422.320318528234,25.065744425898888,10.190313115067136,71.99107509433618,0.0007494505615933,120.00080616160204,384.3743031508452,15.288,0,4.064523804678336,0.0736694879860677,6.116729464540658e-09,0.0014777323534495,1.960222395294997e-05,-0.0001017540226475,3.863203380871133,20.110835463479354,25.065810745272216,39.24097423682908
0.74,31.22219852622696,131.01042791270285,12.629614183643604,-3.770288369361872,0.000457773180629,24.378722685320582,0.0017638925180784,3.4348151921511216,294.48281347105944,25.3527041061912,10.313195387423384,71.99195964673201,0.0007840443394818,120.00084302097076,393.2162955251464,15.288,0,4.077796763521723,0.0745130825604307,5.4727487455330135e-09,0.0016211972352581,1.9617538429607044e-05,-0.0001129081108341,3.7702883971122834,19.891262396862334,25.352776013034266,24.619506052788985
0.75,31.22219806636385,131.01042885746548,12.87673619294152,-3.677459564748288,0.0004926889477184,28.5017289003409,0.0017817470240976,3.438592554756375,330.24688556441487,25.65174755310236,10.439780612189535,71.9929265827309,0.0008186730816825,120.00087992295546,402.5376806748444,15.288,0,4.0909775856747,0.0753921989665708,4.7711303474381236e-09,0.0017653633147078,1.963462923396339e-05,-0.0001243958084679,3.6774595977070046,19.667564217669725,25.651824944501293,28.708404209234203
0.76,31.222197601099094,131.01042981330727,13.126504939617952,-3.5894596632013407,0.0005275992678428,30.69817150778308,0.0017981312376801,3.4419914263995866,349.27032420986166,25.92997819229228,10.559880791595743,71.99397633844193,0.0008533404586599,120.00091687156012,411.3073891523279,15.288,0,4.104096946021355,0.0762101521488443,4.011771518342566e-09,0.0019102734491515,1.965358233577153e-05,-0.0001360636028317,3.5894597019253345,19.4630660581393,25.93006106739147,30.89053321219867
0.77,31.22219713036934,131.01043078035883,13.37896504075023,-3.503877520631572,0.0005622613849989,28.6863520567128,0.0018139820833293,3.445261243292629,331.7687666960708,26.20268619473196,10.678233568440026,71.99510932856413,0.0008880502837853,120.0009538708785,419.9942174495686,15.288,0,4.117156301042041,0.077011880790371,3.194597267908914e-09,0.0020559227742621,1.9674482653612323e-05,-0.0001479743222484,3.503877565687942,19.26632823183357,26.202774514543783,28.892501149030625
0.78,31.22219665424035,131.0104317584845,13.634071219281198,-3.417503092860868,0.0005961606490285,23.515455513000795,0.0018307351301594,3.4487796232476087,286.8734378128899,26.493553225355488,10.802169324838752,71.99632593474878,0.0009228065124523,120.00099092501434,429.3598757293985,15.288,0,4.130144598246795,0.0778669873751503,2.3195674337887606e-09,0.0022022181202326,1.9697404517554888e-05,-0.0001602594496026,3.4175031447973563,19.06114779815336,26.49364687005125,23.76700932438153
0.79,31.222196172802708,131.0104327474973,13.89176090896267,-3.331450075998432,0.0006294192114983,33.52197539804566,0.0018479158940196,3.452418631281306,373.6203323159534,26.79498281166605,10.929329916662471,71.99762651815529,0.000957613251053,120.0010280382034,439.1746442679649,15.288,0,4.143043897552238,0.0787531455894919,1.386660045461947e-09,0.0023490661220689,1.972242179348756e-05,-0.0001728865005865,3.33145013539038,18.853130843529684,26.79508168060459,33.699288307137735
0.8,31.22219568581996,131.01043374788512,14.152199612235624,-3.2515691088862426,0.0006631977437732,33.96657655199312,0.0018626520766368,3.455421942701317,377.42502064505743,27.059519655929268,11.045029025895229,71.99901144401915,0.0009924747729764,120.00106521520864,447.8778621519367,15.288,0,4.155887730998537,0.0795308796345627,3.9585187111188485e-10,0.0024965799393715,1.9749648664939105e-05,-0.0001855526054385,3.251569176447303,18.67312656142764,27.059623830787253,34.14188434949049
0.81,31.2221951933981,131.0104347594292,14.415314154102072,-3.170371570444201,0.0006960743938632,22.03178802962809,0.0018785634996254,3.458746273204633,273.9374926939919,27.34713036655201,11.167827500533974,72.00048102598893,0.001027395498114,120.0011024605783,457.4377256370833,15.288,0,4.16866950902069,0.0803764374866185,-6.528294875916981e-10,0.0026446290022307,1.9779159262237924e-05,-0.0001986401529172,3.170371646779895,18.481774921129823,27.347239705662115,22.3016280368468
0.82,31.222194695734142,131.01043578172306,14.680967938058048,-3.0895986785016034,0.0007283270284099,28.3576880869516,0.001894828046094,3.46217526734351,328.72500443277005,27.644381562817795,11.293561126048536,72.00203553757756,0.0010623799987414,120.00113977892266,467.42413658769647,15.288,0,4.181383479244065,0.0812503372943866,-1.759326961997103e-09,0.0027930525099245,1.9811018456850872e-05,-0.0002120632550036,3.089598764264436,18.288150432478343,27.644495968159884,28.56825396850524
0.83,31.22219419280799,131.01043681480823,14.949175837062372,-3.0153378213300432,0.0007614578596888,36.09250576253835,0.0019081111659281,3.464817651469103,395.68750322465047,27.895529761981084,11.404981222748448,72.00367522252184,0.0010974330066505,120.00117717525296,475.9435194329832,15.288,0,4.194028654517686,0.0819887417527464,-2.923556942972885e-09,0.0029418322458691,1.984532178969316e-05,-0.0002253828026638,3.015337917386149,18.12639090121582,27.89564937150198,36.25843263597703
0.84,31.22219368450504,131.01043785892102,15.2200187412638,-2.941325128763345,0.0007940754731637,22.214420101720844,0.0019216662567223,3.467532553869064,275.4593748256452,28.15493723886937,11.518909509414083,72.00540020919327,0.0011325671810124,120.0012146655511,484.8239009852269,15.288,0,4.206591734004936,0.0827514283508214,-4.1453662819545224e-09,0.0030909666898797,1.988217477661058e-05,-0.0002390043744169,2.941325235858166,17.962396738161768,28.15506197195301,22.48342158481849
0.85,31.22219317113624,131.01043891341996,15.493280803045373,-2.8647043970891968,0.0008252882502686,24.238430227386846,0.0019372109749493,3.470782066842982,292.96093233939376,28.45175904407849,11.644357807282002,72.00721069966393,0.0011677719336434,120.00125223329523,495.0872491513988,15.288,0,4.219082390722113,0.0836240883460466,-5.424594093585328e-09,0.0032402128971462,1.99216211466576e-05,-0.0002531793219556,2.864704515868089,17.77923125687926,28.45188868005369,24.48566584343186
0.86,31.22219265251462,131.01043997869078,15.769093489739364,-2.7923151755671367,0.0008570066046389,30.39591058481968,0.0019507979403775,3.4735156176930424,346.2265619465587,28.7195914342144,11.760787584550975,72.00910678669332,0.0012030602777322,120.00128989491658,504.4388282784362,15.288,0,4.231509305817485,0.0844115515477125,-6.761048657412584e-09,0.0033896521758228,1.9963790543016315e-05,-0.0002673421606726,2.7923153069776823,17.616316957697343,28.71972605249705,30.593736202568053
0.87,31.22219212866387,131.01044105468463,16.047441419283967,-2.7224573360320368,0.0008888595142416,28.289387851416144,0.0019632940954106,3.475961234197252,327.964078366998,28.97294257101791,11.872687287030653,72.01108854813752,0.0012384375812132,120.00132765604656,513.3642187008148,15.288,0,4.243871886073313,0.085156459195269,-8.154505969423926e-09,0.0035392140799158,2.000877706488534e-05,-0.0002815930225839,2.7224574810255056,17.464460235829534,28.973082192743902,28.502136329826527
0.88,31.222191599620054,131.0104421413271,16.328300656000035,-2.651949060836404,0.0009198403374129,24.42226797469872,0.0019766414638352,3.478636243890016,294.4828134710418,29.24492847204089,11.990294068535771,72.01315601212185,0.0012739093694595,120.00136552246848,523.0338500571223,15.288,0,4.256167193776164,0.0859561449058254,-9.604705411598192e-09,0.0036888039941403,2.005666871853232e-05,-0.0002962421694684,2.6519492202479134,17.30470917710567,29.245072960223208,24.668767440883858
0.89,31.22219106546799,131.01044323844323,16.61161330032133,-2.580933624789814,0.0009499003344546,26.800868074412023,0.0019908284395854,3.481536545788249,315.028134248087,29.535656010649085,12.1136356735214,72.01530917490398,0.0013094813487512,120.00140350010275,533.4701155309575,15.288,0,4.2683942454628845,0.0868109233326511,-1.1111361565704306e-08,0.0038383262188693,2.010755297943533e-05,-0.000311305951676,2.580933799474639,17.13748570729436,29.535805220644697,27.026054655185884
0.9,31.222190526126,131.01044434620155,16.897437639209052,-2.5153773914488657,0.0009812758211336,29.62072690107395,0.0020018377623409,3.4835897047843414,339.37814235421445,29.776239362912143,12.221421583762927,72.01754802928805,0.0013451594426156,120.00144159527692,542.1814134443081,15.288,0,4.280557806603125,0.087518325911764,-1.2674166090034937e-08,0.0039877833067783,2.016155403231801e-05,-0.0003260531470124,2.5153775827288705,17.00033881889734,29.77639350135768,29.824869880464522
0.91,31.22218998166749,131.01044546445058,17.185723884290336,-2.44916019812598,0.001011756819764,22.49271572072549,0.0020136811659426,3.485859697732945,277.7421810230789,30.03555596197769,12.334937356465108,72.01987242820104,0.001380957528638,120.00147982505912,551.6508066557558,15.288,0,4.292642025530398,0.0882807964453702,-1.4292748039368788e-08,0.0041370597617103,2.021875820121345e-05,-0.000341194831462,2.449160406978818,16.855363044745257,30.03571488836729,22.761227611457212
0.92,31.22218943230467,131.0104465927526,17.476325363247543,-2.3824441838720807,0.0010412910993701,26.810102687922285,0.0020263377221096,3.488340748765576,315.02813424806214,30.31353665727512,12.454155186039074,72.02228231016761,0.0014168661436612,120.00151817419152,561.8934925753333,15.288,0,4.30465288078206,0.0890981321382893,-1.5966744043022495e-08,0.0042859671131236,2.027921863070436e-05,-0.0003567371147369,2.382444411298565,16.703031953005926,30.31370022289851,27.03608942547869
0.93,31.22218887794029,131.01044773130823,17.769311494468752,-2.320384533910585,0.0010721648657346,31.922543224937183,0.0020360059887988,3.4900162277337614,359.1625070654728,30.544176127685663,12.558686038719651,72.02477745562024,0.0014528995371654,120.00155666031569,570.460261097716,15.288,0,4.316598362322588,0.0897763289094005,-1.7695699483227663e-08,0.0044345226081878,2.0343073199147395e-05,-0.0003718997797984,2.3203847814792566,16.577638245099863,30.54434454294893,32.112754216403616
0.94,31.22218831845701,131.0104488803596,18.064765888468195,-2.256110243746232,0.001101334284374,23.114837328792625,0.0020477424582591,3.4922396132470857,283.0687504837787,30.815654240303008,12.675767664642132,72.0273576152343,0.0014890642598103,120.0015952904545,580.6294065080643,15.288,0,4.3284783614729125,0.0905745672072643,-1.9479118849247346e-08,0.0045827001646968,2.0410451026243737e-05,-0.0003877315531604,2.2561105124188034,16.43341368502978,30.815827237487845,23.37715650899669
0.95,31.222187754159584,131.01045003927803,18.362477327599308,-2.1933032521836484,0.0011304388957871,29.99192919285468,0.0020587986666095,3.494270391709392,342.4218736174873,31.080143467222623,12.79062156170698,72.03002250031858,0.0015253750039374,120.00163408229167,590.6223184802184,15.288,0,4.340288112831487,0.0913522710822396,-2.131655150913512e-08,0.0047302823514482,2.0481389994578097e-05,-0.0004036416480279,2.1933035433581325,16.295087197859722,31.08032103614913,30.194796679531354
0.96,31.222187184736885,131.01045120870543,18.66266487183926,-2.133126730911828,0.001160186703117,29.378372768319128,0.0020681479654337,3.495837580635506,337.09533515678345,31.319566201857526,12.89767124231297,72.03277188532279,0.0015618229820536,120.001673021819,599.7396743953196,15.288,0,4.352036962640538,0.0920563058529958,-2.3207419345519948e-08,0.0048773811894649,2.055609258120729e-05,-0.0004193878140394,2.133127046272932,16.171292604093587,31.31974844355868,29.585632850789832
0.97,31.222186610208908,131.01045238860064,18.96531637189903,-2.073059900475703,0.001189299119258,18.71062227085432,0.0020777849874248,3.497473755850071,245.02188719299323,31.5691524119193,13.007792267469032,72.03560540205429,0.0015984232895816,120.00171212744895,609.3187226167166,15.288,0,4.363723788687723,0.0927902211582351,-2.5151166403234572e-08,0.0050239104793678,2.063467210263788e-05,-0.0004354171793229,2.0730602414728407,16.044428103805185,31.569339226588088,19.034697600766872
0.98,31.22218603087868,131.01045357833848,19.270221938612497,-2.011236460043034,0.0012165787207036,27.3563137317756,0.0020893932864906,3.499626691270973,319.5937466429581,31.859201172759903,13.13032675440691,72.03852262454176,0.0016351911609398,120.00175141741792,620.5484935607258,15.288,0,4.375340676493325,0.0936430745736048,-2.714725946706978e-08,0.0051696229118389,2.07171482490313e-05,-0.0004521492093125,2.011236827840491,15.900286880531944,31.85939227249846,27.5792547458258
0.99,31.22218544658877,131.0104547782438,19.5774934326708,-1.9548198538679809,0.0012463556584817,29.91791999421943,0.0020966397075215,3.500592117048892,341.6609485517054,32.076640813734606,13.230385002207916,72.04152322555997,0.0016721185752759,120.00179087838936,629.0293451509127,15.288,0,4.386896535058871,0.0942825171946126,-2.91950441855882e-08,0.0053145666188487,2.0803707896148533e-05,-0.0004679850154976,1.9548202510400283,15.792593600730816,32.07683659082361,30.12201995793705
1.0,31.222184857337105,131.01045598832096,19.88713436554041,-1.896718683243089,0.0012743457123993,26.743865843406063,0.0021057787193854,3.502052368027924,314.2672081822764,32.33348329281912,13.34252803427342,72.04460664433401,0.0017092210930328,120.00183052926916,639.1241322016872,15.288,0,4.39838788824224,0.0950377835216678,-3.1293833139985746e-08,0.0054586368955035,2.089445879476174e-05,-0.0004845058168267,1.8967191111831296,15.668149943083272,32.333683466575515,26.972184477213105
1.01,31.222184263312467,131.01045720818047,20.19901476113083,-1.8398963603651088,0.0013023897312178,27.982339817455863,0.0021141275997796,3.503279398502736,324.9203161036979,32.58167480141246,13.451926081971754,72.04777231874169,0.0017465147531807,120.00187038931274,648.9541716674672,15.288,0,4.409813138810869,0.0957676296676413,-3.344296113800608e-08,0.0056016735075644,2.0989467922867688e-05,-0.0005010031808147,1.8398968211614517,15.54956250005481,32.581879380313026,28.20078567474823
1.02,31.22218366443392,131.01045843798948,20.513193323454427,-1.7845100657926891,0.0013306773818057,23.304594313403143,0.0021214582650765,3.504211044127332,284.59063161540416,32.81705597869049,13.557297951127092,72.05101973150464,0.001783991728744,120.00191044519612,658.3447092218902,15.288,0,4.421175138138585,0.0964598297908824,-3.56416614886647e-08,0.0057436433613969,2.1088889545194888e-05,-0.000517396235109,1.7845105617634227,15.438487498791096,32.81726500100482,23.566578361201934
1.03,31.222183060772505,131.01045967760135,20.829622552011703,-1.7283719170493927,0.0013575835260462,18.97763217938434,0.0021299533564797,3.5054340320739503,247.30469339049705,33.079613125852255,13.670969730993908,72.054348180204,0.0018216683878424,120.0019507166457,668.9008660147367,15.288,0,4.432471853168005,0.0972319164483465,-3.788915408354829e-08,0.0058844232153027,2.119281949229165e-05,-0.0005343026196586,1.7283724500580488,15.316974715091956,33.07982637457384,19.29866822933457
1.04,31.222182452391912,131.01046092688492,21.14826007811689,-1.6744940153337262,0.0013854243120732,30.376029612977167,0.0021365047272159,3.506109064652769,345.46563688072297,33.312536233622254,13.775425965842864,72.05775694927556,0.0018595613432748,120.00199122362925,678.3331177763172,15.288,0,4.4437049412726415,0.0979169065132488,-4.018462969495844e-08,0.0060239179341513,2.1301371968051007e-05,-0.0005508031757585,1.6744945882990532,15.210253031731929,33.31275385556428,30.57770397505932
1.05,31.222181838995088,131.01046218645303,21.469316074630896,-1.6202061375572985,0.0014121014567121,18.182709444500063,0.0021438975886294,3.5069884401887585,240.45625879819983,33.567252381100374,13.886520486274955,72.06124537243697,0.0018976635493281,120.00203195391848,688.7249540415368,15.288,0,4.45488065809696,0.0986659616053097,-4.252714078473516e-08,0.0061621912987623,2.1414801572240104e-05,-0.0005677370908452,1.6202067527562722,15.09565063389896,33.567474193478475,18.517826418319896
1.06,31.22218122082833,131.01046345579763,21.792620492184746,-1.565761073820072,0.001437697114705,26.05068369620177,0.0021519426047646,3.5080203997628447,308.17968365593924,33.840736905601176,14.003312799509944,72.06481261721655,0.0019359999648228,120.0020729385862,699.9715161924227,15.288,0,4.4659942653036415,0.0994701917113686,-4.4915889119112014e-08,0.0062990328647432,2.1533141503123355e-05,-0.0005850547332419,1.565761733709335,14.974821408767983,33.84096273853584,26.28581999473408
1.07,31.222180597770816,131.0104647351681,22.11826026075916,-1.5142802943966662,0.0014651163405264,30.739415887786564,0.0021569974266784,3.508216800569703,348.5093681440308,34.064978642013365,14.104852873288731,72.06845797797504,0.0019745644463395,120.00211416624198,709.2566277285715,15.288,0,4.477052218845929,0.100129687394748,-4.7349921703417335e-08,0.0064344416318005,2.1656606164384502e-05,-0.0006015728315885,1.5142810030059184,14.87644591589424,34.06520878194994,30.938960533520554
1.08,31.22217996971789,131.01046602478044,22.44631114696128,-1.463043613665516,0.0014919531577646,20.570873098455287,0.0021621200061794,3.5084030672171265,261.00157857466235,34.29709869715525,14.208738999885396,72.07218049956134,0.0020133826691848,120.00215566917228,718.9327086683604,15.288,0,4.488055254941188,0.1008123480737715,-4.982823702025317e-08,0.0065683624717151,2.1785379873236937e-05,-0.0006182584168552,1.463044374217192,14.776129751547908,34.29733305260922,20.86791117456591
1.09,31.222179336954955,131.01046732404592,22.776575814824444,-1.4103595133707822,0.001516330964052,18.89021275096127,0.002169508290032,3.5091683307103123,246.54375332474407,34.5791668378678,14.327915904303044,72.07597934241923,0.0020524481149922,120.00219743490072,730.7835275992289,15.288,0,4.498996875948586,0.1016418335018441,-5.2349978257890346e-08,0.0067005545906083,2.191946238544729e-05,-0.0006358681045066,1.410360328338476,14.656880688202406,34.57940502257863,19.21339128984277
1.1,31.22217869956064,131.0104686328023,23.10900168999313,-1.3595474526615647,0.0015416537271135,38.27193812408026,0.0021750157469265,3.5093898181819374,413.1890617385841,34.832838553783944,14.43825838022003,72.07985344794741,0.0020917872477476,120.0022394964233,741.5211897937497,15.288,0,4.509879260606812,0.1023878589883105,-5.491411358223261e-08,0.0068309121772558,2.205897748606421e-05,-0.000652973366655,1.3595483265734072,14.550901901706933,34.83308071618509,38.43250017108021
1.11,31.22217805711902,131.0104699519079,23.443882809964744,-1.3115158273632403,0.0015692504568684,27.91964524629424,0.0021771882496972,3.508675476972649,324.1593910376397,35.02975793117177,14.5310506344513,72.08380187989712,0.0021313943897223,120.00228184299075,749.904802507418,15.288,0,4.520712871555558,0.1029670741290096,-5.7519386902931726e-08,0.0069595485536699,2.2204309286931897e-05,-0.0006690092685542,1.3115167660158678,14.46890159479171,35.03000442845709,28.139250150311018
1.12,31.222177409695288,131.01047128122835,23.781176294591543,-1.2603494670444573,0.0015920942705002,10.301207204804417,0.0021841595489616,3.5092292714023285,172.73281794065943,35.32705300075633,14.65464040195383,72.08782345043262,0.0021712964837756,120.002324508115,762.6628848381966,15.288,0,4.531492988803,0.1038413436302497,-6.01647269065904e-08,0.0070863053815258,2.2355563699696047e-05,-0.0006869531715402,1.2603504724618797,14.348656406089535,35.3273030863395,10.882534848376746
1.13,31.222176757899973,131.010472619504,24.12045677854401,-1.2119185138799655,0.0016172203370911,32.972956997500845,0.0021877577625245,3.5088219117373773,367.5328077900705,35.56676055931776,14.760414719085189,72.09191716040894,0.0022114883126685,120.00236748032977,773.0227244794163,15.288,0,4.542212455488386,0.1045463471217978,-6.284929633360199e-08,0.0072108302016448,2.251257385264856e-05,-0.000703744940719,1.2119195927522417,14.252515639673865,35.56701459169423,33.159127388301584
1.14,31.22217610104968,131.01047396814505,24.462206243432394,-1.1654498474084865,0.0016440350292377,18.093113566838056,0.0021887967931804,3.50768254444566,239.69531773195544,35.7641380390657,14.853083946914897,72.09608168281908,0.0022519974921007,120.0024107947216,781.600641200843,15.288,0,4.552885571956961,0.1051269317530061,-6.557150820365323e-08,0.007333335125146,2.2675906273364868e-05,-0.0007196490286979,1.1654510068223536,14.173779970065455,35.76439628348417,18.42999186559613
1.15,31.22217543964684,131.0104753261149,24.80607529243375,-1.1161535042922328,0.0016657576754963,17.826575596092894,0.0021947208502989,3.50781520886372,237.41251153546767,36.06610704934291,14.977814600301445,72.10031575473238,0.0022928270747349,120.00245445126023,794.8287574488842,15.288,0,4.5634877162989005,0.1060149662658044,-6.833042631975229e-08,0.0074534618074603,2.2845387002035177e-05,-0.000737588949678,1.1161547471304631,14.056689854664844,36.06636870594667,18.168422326650987
1.16,31.22217477383341,131.01047669312075,25.15196703437062,-1.0711160706148577,0.0016926927499492,47.2545997637254,0.0021942331171796,3.506155122230988,490.0437743845894,36.24902218836362,15.065847646615408,72.10461812187609,0.0023339807998851,120.00249845105331,802.884732431617,15.288,0,4.574031597139441,0.1065530543662197,-7.112480513474275e-08,0.0075710918332092,2.302113359153882e-05,-0.0007530043485787,1.0711174079456154,13.985547097530205,36.24928807591898,47.38449458826887
1.17,31.22217410271343,131.01047807101145,25.500513277940303,-1.0249526953637802,0.0017168777473445,8.073566224130873,0.0021960322228568,3.505071753221978,153.70937929486794,36.48615894627096,15.17045877148348,72.10898725880406,0.0023754869295631,120.0025428300514,813.3966107652933,15.288,0,4.584533806570656,0.1072505335372326,-7.395279649389468e-08,0.0076864801926021,2.320389534667764e-05,-0.0007694560025229,1.0249541331631575,13.8952993064998,36.48642863279683,8.801591014880149
1.18,31.222173427470533,131.01047945734484,25.85088631429245,-0.977312619571244,0.0017371873964109,22.79168722620731,0.0022011099728523,3.5048136417393088,280.02501822196746,36.79869398874737,15.298126234764446,72.11342175165538,0.0024173495278169,120.00258758854332,827.3633165162269,15.288,0,4.594971311378962,0.1081696534595258,-7.681378988184325e-08,0.0077989981436995,2.3393006587636064e-05,-0.0007873806533365,0.9773141633586416,13.77903816360324,36.79896686550545,23.059590849047353
1.19,31.222172747572767,131.01048085321858,26.20346243133501,-0.9347614945853157,0.001765357100506,40.09057793591008,0.0021972971628124,3.502088437653517,428.4078130529292,36.93934110835946,15.37289596746905,72.1179200961412,0.0024595819367266,120.00263274127644,833.6716454944832,15.288,0,4.605362757752065,0.10858351730686,-7.970594214551012e-08,0.0079088166682117,2.358909033100139e-05,-0.0008014924973089,0.9347631614307316,13.7259348354061,36.93961841000431,40.24324871936337
1.2,31.22217206256455,131.0104822595729,26.558564947007035,-0.8892442056523072,0.0017868395205038,3.805331038777711,0.0021996326239739,3.500975334789384,117.1843741360236,37.21523409778906,15.489107863373963,72.12248067631326,0.00250218810974,120.00267829009609,846.1423603182934,15.288,0,4.615709442968504,0.1093949455713585,-8.262757482365839e-08,0.0080159499005218,2.379260497508261e-05,-0.0008183889247356,0.889246000735951,13.62546939610559,37.21551477388455,5.170819804235338
1.21,31.222171373629823,131.01048367396504,26.915365259870946,-0.8445310424840107,0.0018083757263901,32.11349163907234,0.0022010926099385,3.4995479350866336,359.92343213200894,37.4829229689118,15.602685707756816,72.12710177946009,0.0025451978223751,120.00272427025187,858.3293096742909,15.288,0,4.625993948413329,0.1101822661813737,-8.557796880304249e-08,0.0081198300899895,2.4002832985486284e-05,-0.0008349289133035,0.8445329784596135,13.52935900140366,37.4832070279066,32.30360948636463
1.22,31.22217067986956,131.01048509825014,27.274498175045103,-0.8030327846689495,0.0018355865681159,23.15033981801342,0.0021962189944238,3.496339907670724,283.0687504825761,37.62791016460068,15.67850534794526,72.13178168612448,0.002588616771366,120.00277068618747,864.9524960656579,15.288,0,4.636237367859378,0.110608909043825,-8.855485625394305e-08,0.0082207202525072,2.422071910204155e-05,-0.0008485434671649,0.8030348824370246,13.476866321340824,37.6281984978645,23.41287319537793
