Time,Latitude,Longitude,Altitude,Angle of Attack,Angle of Sideslip,X-Acceleration,Y-Acceleration,Z-Acceleration,Thrust,True Velocity,Ground Velocity,Pitch,Roll,Yaw,Dynamic Pressure,cp,cg,parachute_deploy_gain,Wind Speed,Wind Direction,Mach,omega_x,omega_y,omega_z,Cmq,Angle of Attack(total),Angle of Attack(gust),True Velocity(gust),Acceleration
0.0,31.222216000000007,131.010392,3.000000004412624,0.0,0.0,0.0,0.0,0.0,2.2828121974499247,0.0,0.0,69.99999999623412,0.0,119.9999999935444,0.0,1.274,1.0271675151847728,0.0,0.0,0.0,0.0,0.0,0.0,0.0,-0.0,0.0,90.0,0.0,0.0
0.01,31.22221599999084,131.01039200000497,3.000002745347096,0.0,0.0,0.0,0.0,0.0,34.242186961749226,3.465174813755316e-14,2.8705476994166025e-14,69.9999999962611,-2.1713911667908447e-11,119.99999999352175,7.352495975525499e-28,1.274,1.0271659134330349,0.0,0.0,0.0,1.0183245502395064e-16,-3.3305335486039093e-18,7.169286865560398e-18,5.624298769768554e-18,-7.715917190115602e-34,0.0,89.99999999999979,3.465174813755316e-14,0.0
0.02,31.222215999994315,131.0103920000094,3.0000030495639742,0.0,0.0,0.0,0.0,0.0,25.871876237766216,3.8197434737535036e-11,2.4171837235633357e-11,69.99999999628672,-1.1921727947863515e-11,119.99999999353136,8.93414285188691e-22,1.274,1.027164492361118,0.0,0.0,0.0,1.1225230367947217e-13,-6.657678965418802e-18,1.4338573731120796e-17,1.1241821275959074e-17,-1.7010872994127372e-30,0.0,89.99999999975682,3.8197434737535036e-11,0.0
0.03,31.222215999994315,131.0103920000094,3.0000030495639742,0.0,0.0,9.81877837424427,-2.5122800045972096e-05,3.3498614629347925,180.34219359854663,1.2659015405517447e-10,1.1364406173918436e-10,69.99999999631459,-1.6431898037347223e-11,119.99999999352724,9.812605835254651e-21,1.274,1.0271551940870716,0.0,0.0,0.0,3.720154642239108e-13,-9.991600645811728e-18,2.150108433310316e-17,1.6859343782149594e-17,-8.453698244545225e-30,0.0,89.99999999919412,1.2659015405517447e-10,10.374487003414373
0.04,31.222215999994315,131.0103920000094,3.0000030495639742,18.83801224594347,-0.0001111777826462,48.68248476615645,-1.016330065874988e-05,3.3497854396877287,548.635972453808,0.1556173050466994,0.0975908358443652,69.99999999633813,-2.0932768807056278e-11,119.99999999352085,0.0148286043323172,1.274,1.027133720825283,0.0,0.0,0.0,0.0004573186944143,-1.3322134194415637e-17,-1.04744143520903e-11,1.336824254131964e-11,5.0626055458604615e-15,18.83801224625964,89.06236267790787,0.1555998412814392,48.79759610369246
0.05,31.22221599164764,131.01039201704114,3.002326315126219,5.772385609593056,-4.395076213712875e-06,71.20344550265034,4.905512691849684e-05,3.349217396035405,761.6984298824663,0.8326471944351852,0.3620326097059287,70.00000001316391,-1.0866255162484559e-10,120.00000000231074,0.4245281043148827,1.274,1.027093426565204,0.0,0.0,0.0,0.0024469331205246,-5.0245994431125096e-18,-7.32924164976824e-07,2.217344936947165e-11,1.895424184525467e-09,5.772385609594774,84.74112356985832,0.8326465040582279,71.28217104309611
0.06,31.22221596664444,131.01039206837547,3.015081730143309,4.056581213689704,3.169093567502233e-05,53.16249142470188,0.0001203825427859,3.3481235983850643,590.4875390737236,1.657216205300742,0.6755452977614796,69.99999964391398,-3.9285905645317736e-10,120.0000000287861,1.6816755551786196,1.274,1.027050317124926,0.0,0.0,0.0,0.0048701272653724,3.095757869075056e-13,-7.483541766772344e-06,3.074135420506017e-11,3.8518749565858254e-08,4.056581213813337,79.59316473687034,1.657221183301277,53.26781792157489
0.07,31.22221592883117,131.0103921460222,3.034593611434361,4.115662018628709,6.450869598349036e-05,81.18203554989698,0.0001593212642178,3.347059402768047,855.2937749779172,2.099899704220947,0.8579771146174259,69.99999543281565,-8.233801910783518e-10,120.00000006883089,2.700101932075157,1.274,1.027003201295312,0.0,0.0,0.0,0.006171060252819,3.4704292086287e-12,-2.6327204536316785e-05,1.9541142932033486e-10,1.7170712165327165e-07,4.115662019133419,76.90111966094352,2.099909837223217,81.2510043180746
0.08,31.22221588914193,131.01039222747755,3.0542761843835606,3.459696193892355,8.037433511260004e-05,16.298214211652088,0.0002413456836072,3.344878926597744,241.2171988638792,3.051964775152957,1.2149999716613011,69.99998042886442,-1.0128995578004475e-09,120.00000011111383,5.703497661025892,1.274,1.0269597189470347,0.0,0.0,0.0,0.0089689344021769,1.458982438104473e-11,-5.702803872814215e-05,7.043261397829576e-10,5.405702492731987e-07,3.459696194824858,71.30331929508368,3.051977400323993,16.63790856991177
0.09,31.2222158241468,131.01039236098703,3.0886872184095737,4.313676956300389,0.0001337561018991,50.35975918308536,0.0002293282821279,3.344215841840564,563.0937377043203,2.893161298572128,1.191209213966114,69.99994788602814,-7.098432023887522e-10,120.00000018106356,5.125380275808925,1.274,1.026918932011013,0.0,0.0,0.0,0.0085022553945842,3.8672912027154325e-11,-0.0001115933708951,2.016054215232918e-09,1.0027525988343615e-06,4.313676958370176,72.2316578138625,2.893182308931483,50.47067588835877
0.1,31.2222157788302,131.01039245392113,3.109877853389092,4.035124630954496,0.0001457499816535,47.804664812504015,0.0002878217657545,3.341734392237128,538.7437595981891,3.5677148583138303,1.4531247507621967,69.99988403958329,1.9248461973355822e-09,120.0000002323013,7.7939962029572305,1.274,1.0268846934974103,0.0,0.0,0.0,0.0104845969583028,8.579678749070606e-11,-0.0001726817043215,3.984565639703107e-09,1.913455350430327e-06,4.0351246335824245,68.43243098813296,3.567737752667411,47.92132267234452
0.11,31.222215703308,131.01039260899836,3.148841432727305,4.043401107254707,0.0001752764476999,37.67622367577205,0.0003286462930162,3.3392563999062723,442.86563930529127,4.034183355956686,1.6436552022667772,69.99978525353545,7.302513231814865e-09,120.00000031883242,9.96528118825134,1.274,1.026848594915519,0.0,0.0,0.0,0.0118554331868328,1.5870341853361987e-10,-0.0002596204409236,7.232030302688121e-09,3.252930323390323e-06,4.04340111104746,65.92012987243639,4.034210888316708,37.82391391539392
0.12,31.222215627491828,131.01039276462643,3.186995101203875,4.17874459224363,0.0002066711490009,41.15991989399172,0.0003576945202315,3.336766085769504,475.58594813540793,4.361857560629481,1.7865750500940407,69.99963665601238,1.781774420198147e-08,120.00000041104812,11.649831899889556,1.274,1.0268114448194128,0.0,0.0,0.0,0.0128183893919737,2.682972478760441e-10,-0.0003710216542429,1.2215991071490164e-08,5.026311388647148e-06,4.178744597345269,64.21681651392016,4.361890024457652,41.29495143136631
0.13,31.22221554594398,131.01039293200228,3.2277173449026786,4.202734874672792,0.0002327160860324,45.44886120763352,0.0003953741266062,3.333578629398489,515.9156326236897,4.792165672014363,1.9646716520715424,69.99942424225341,3.613383418913551e-08,120.00000051758742,14.061726603124043,1.274,1.026779572895131,0.0,0.0,0.0,0.0140829618979635,4.248908088871395e-10,-0.0005056103199642,1.908859219307828e-08,7.5253154423526356e-06,4.202734881104192,62.048594618540655,4.792202226971676,45.570952718869485
0.14,31.222215454191247,131.01039312033683,3.2737880595608355,4.184830647080848,0.000257138757548,42.32232525579263,0.0004369426767266,3.329727443445437,486.2390860568421,5.269261304374574,2.158791628597544,69.99913473613935,6.515851355725497e-08,120.00000064630268,17.000925061330125,1.274,1.0267449573927567,0.0,0.0,0.0,0.0154850332441425,6.382432869666793e-10,-0.0006690086306358,2.8426433029675884e-08,1.0948547100483978e-05,4.184830654966803,59.74181173116622,5.269301695636157,42.45310707234106
0.15,31.222215353826755,131.0103933263496,3.3242182719560263,4.21963947489699,0.0002846467688673,40.886944113003565,0.0004726792395108,3.325585650885676,472.5421858721398,5.6781946837482895,2.329510773545807,69.99875162806286,1.0876776246115984e-07,120.00000079954532,19.742017654108928,1.274,1.0267115958081523,0.0,0.0,0.0,0.0166867950518804,9.204756288136623e-10,-0.000865746478554,4.08948221429571e-08,1.526771148078443e-05,4.219639484480408,57.84996018384879,5.678239395958187,41.02196629910223
0.16,31.222215247130432,131.01039354534575,3.3775922280208457,4.253495568077899,0.0003118339050386,32.26872905470846,0.0005078415214353,3.32090791922544,391.1218908297597,6.081244877834229,2.4981889727471702,69.99825581174558,1.7187028096464329e-07,120.0000009800088,22.644030778355887,1.274,1.026675762255412,0.0,0.0,0.0,0.0178712695992133,1.2856146928958252e-09,-0.0010961187242953,5.6923362293832417e-08,2.0702404729358337e-05,4.253495579487569,56.06022383757386,6.081293860589489,32.43916312841722
0.17,31.22221513260033,131.01039378041813,3.4348437275053194,4.364838523348639,0.0003448792023946,40.840448242802736,0.0005326487904353,3.3162727284953744,471.78125980632416,6.362544479165355,2.6250789114832647,69.99762801982864,2.5997588617291615e-07,120.00000119506798,24.78723182122683,1.274,1.0266409836796937,0.0,0.0,0.0,0.0186979513961862,1.747791994374917e-09,-0.0013624931601664,7.706724512977917e-08,2.6923621797558364e-05,4.364838536947241,54.85936171416122,6.362598652663785,40.97486885600156
0.18,31.222215014088988,131.01039402363364,3.4935801365785646,4.353948305387995,0.0003681615230806,33.992183768165326,0.0005718025428208,3.310131992647221,407.1015672119096,6.81502088160835,2.810667639293692,69.99684761766231,3.794979223522764e-07,120.00000144728236,28.437950785509614,1.274,1.0266048342046536,0.0,0.0,0.0,0.020027681385988,2.3221419748804155e-09,-0.0016616990447559,1.0147209890543081e-07,3.517105786247627e-05,4.353948320923495,52.99157233768714,6.815078712285162,34.152972512863755
0.19,31.22221488419521,131.01039429023237,3.558399965607869,4.432620772533925,0.0003996774584738,38.45149959021069,0.0005986099513107,3.304145139297767,448.95313283182486,7.1223367465208405,2.946425726785696,69.99589577323147,5.440084577183829e-07,120.00000176148238,31.060341085698347,1.274,1.026566130444714,0.0,0.0,0.0,0.0209308229359413,3.022391489754689e-09,-0.0020041563310821,1.3135864879722746e-07,4.433199397898183e-05,4.432620790516937,51.77883352025967,7.122399527709208,38.59320142454953
0.2,31.222214751373183,131.01039456280608,3.624052454705669,4.443889400961181,0.0004246617145652,35.23432408779927,0.0006337972852267,3.2968110145188256,418.5156301991588,7.530482904611057,3.1167566004785483,69.99474776398331,7.478025600151903e-07,120.00000211715036,34.72195181863731,1.274,1.026529240027363,0.0,0.0,0.0,0.0221302820454282,3.866698391504749e-09,-0.0023849544920781,1.668144671071589e-07,5.57780533277244e-05,4.443889421210987,50.22448880200342,7.530549610317194,35.38822625098952
0.21,31.222214608673173,131.01039485566503,3.6948551453492566,4.493351735844891,0.0004538195602194,33.79371564104691,0.0006629296043866,3.2891790438445727,404.8187610144608,7.868284042829251,3.2629204975089228,69.99338155599101,1.0150082652278477e-06,120.00000255293388,37.906665490338085,1.274,1.0264923657015164,0.0,0.0,0.0,0.0231230169900677,4.871073773182836e-09,-0.0028117605859743,2.089322918608601e-07,6.870935089180403e-05,4.493351758715364,48.992529909481824,7.868355328639073,33.95340801819282
0.22,31.22221446109996,131.01039515850383,3.767700382407304,4.5412639153933885,0.000482649303782,41.008966751568416,0.0006914639179131,3.2808061382386606,472.5421858721387,8.20057841132235,3.4071691679735228,69.9917708347139,1.3454961520984431e-06,120.00000305929996,41.175744234065135,1.274,1.0264494137127138,0.0,0.0,0.0,0.0240995709751246,6.054779813287368e-09,-0.0032829112061357,2.580881224843564e-07,8.3609968899004e-05,4.54126394098788,47.82515604752711,8.2006542256977,41.13999323561041
0.23,31.22221430675399,131.0103954752338,3.843768625625224,4.52371495179584,0.0005047555656171,33.98493478127787,0.0007294889663961,3.2705214710765107,406.340642146096,8.647938096586296,3.5908865300848416,69.98989017772566,1.7539876018835507e-06,120.00000365514876,45.79040229326471,1.274,1.0264133390858623,0.0,0.0,0.0,0.0254142776666487,7.436335125872812e-09,-0.0038001790077148,3.1489825108822685e-07,0.0001020628978177,4.523714979897577,46.31461705147579,8.648017383405135,34.14194053232237
0.24,31.222214142622448,131.0103958120587,3.92493179063287,4.57837522350066,0.0005351929930195,35.051650311058864,0.0007555049947555,3.26053011385611,416.2328240017099,8.954297884844461,3.72617527247482,69.98771316795013,2.25257161141768e-06,120.0000043564586,49.09180568115741,1.274,1.0263750048312463,0.0,0.0,0.0,0.0263146218848643,9.034877387788232e-09,-0.0043732521010013,3.809642748985157e-07,0.00012161410144,4.578375254714954,45.32798984252032,8.954381952763216,35.20297212911011
0.25,31.22221397517227,131.0103961556623,4.0071748888306855,4.6034117733065,0.0005618935542827,36.03738579534623,0.000785606492708,3.249069743648399,425.3640807915084,9.311611941121669,3.8789349536029696,69.98520781816889,2.8559738498748624e-06,120.00000517181904,53.08749562138344,1.274,1.0263373768840591,0.0,0.0,0.0,0.0273647110956883,1.0873791100894836e-08,-0.0049950711786164,4.5609738277273444e-07,0.0001444478241125,4.603411807525074,44.2165428352526,9.311700203154778,36.183554686886296
0.26,31.22221379934012,131.01039651647062,4.09364247475714,4.621386912291471,0.0005881033207375,39.29107511182762,0.0008162761165496,3.236407051295005,455.80158342417656,9.67833954512075,4.034902068846398,69.98234620927953,3.5784678110229355e-06,120.00000612171208,57.350948423913096,1.274,1.0263006300381676,0.0,0.0,0.0,0.0284424679130479,1.2973286442992724e-08,-0.0056712051373577,5.414206381221602e-07,0.0001704578711045,4.621386949630312,43.12063533194282,9.678431924174348,39.42414126789902
0.27,31.222213616776543,131.01039689108487,4.183310605341074,4.617158109135719,0.0006115457810536,35.90419462403674,0.0008503454714941,3.221982799915672,423.8421996598744,10.088790784535757,4.205862468567124,69.97909721779352,4.436165972465058e-06,120.000007221354,62.31798301949865,1.274,1.026260090595354,0.0,0.0,0.0,0.0296487219805601,1.5355910600537293e-08,-0.0064045199323113,6.379142666348734e-07,0.0002006609239367,4.617158149547818,41.94410287616451,10.08888684592241,36.048472443180565
0.28,31.22221342607797,131.0103972823952,4.277051150896916,4.642105655370123,0.0006389739579882,41.51133203546672,0.0008785747638736,3.2071101123224945,476.3468732012228,10.432377224420517,4.35383399240675,69.97542808435722,5.446665372087172e-06,120.00000849080963,66.63429581008447,1.274,1.0262212716723291,0.0,0.0,0.0,0.0306584788590473,1.8045308789081613e-08,-0.0072006835403936,7.469524967369969e-07,0.0002332868227611,4.642105699250441,41.0023231023774,10.432477594215127,41.63503624837164
0.29,31.22221323001776,131.01039768469093,4.373143569786686,4.62134615173668,0.0006600657405645,33.17552944492765,0.0009148746278066,3.1894209319791806,397.9703104221098,10.876662296046485,4.536381530986506,69.9713027936179,6.629751536885327e-06,120.00000994797426,72.43000748232016,1.274,1.026183007522519,0.0,0.0,0.0,0.0319641703260467,2.1067646517035105e-08,-0.0080566154554079,8.688043379161898e-07,0.000272130659453,4.621346198772975,39.83162628795024,10.876765978930557,33.32848872465723
0.3,31.22221302403368,131.01039810736614,4.4744193758467325,4.664362353358112,0.0006905183788532,31.08096762732793,0.0009381960428197,3.172549142946348,378.1859457108735,11.168362145070317,4.66647911311536,69.96668711012893,8.005507138509574e-06,120.00001161892672,76.36634300732833,1.274,1.0261430389738484,0.0,0.0,0.0,0.0328214509167604,2.4447409007156216e-08,-0.0089829108229115,1.0056222251461646e-06,0.0003115527202986,4.664362404357781,39.09908960432563,11.168470611443622,31.242464973103964
0.31,31.22221281503337,131.01039853619727,4.576593712520673,4.700143580504286,0.0007196683316923,32.79732593144512,0.0009620705970519,3.154230688182399,394.1656220930229,11.470279728974068,4.800072153432283,69.96154070456518,9.597499105113692e-06,120.00001352112182,80.55022837857167,1.274,1.0261054058068628,0.0,0.0,0.0,0.0337087616009043,2.8214060606649844e-08,-0.0099686353219717,1.1565909895184251e-06,0.0003550834484269,4.700143635477137,38.36463422765983,11.47039277421126,32.94865339301887
0.32,31.222212598991007,131.01039897947376,4.68216432480395,4.718667719113184,0.0007464384342556,35.7316568886908,0.0009885845337584,3.133859770838664,421.5593934624264,11.808280530415894,4.946054328851105,69.95582953472353,1.14278227255889e-05,120.00001568218067,85.36654007972253,1.274,1.026068246703101,0.0,0.0,0.0,0.0347021168382987,3.2392058795580455e-08,-0.0110163301561155,1.3226102501723267e-06,0.0004039614423012,4.718667778018562,37.5686120062341,11.808397780690962,35.8688218659563
0.33,31.222212376029034,131.0103994369436,4.791055524254013,4.72141404831576,0.0007708346814671,35.42013590291081,0.0010176135371143,3.1111955852784385,418.5156301991632,12.181577273013426,5.104163223586657,69.94951809396906,1.351997394754887e-05,120.00001812674968,90.84831229869296,1.274,1.0260310883392356,0.0,0.0,0.0,0.0357992034445943,3.700677535501642e-08,-0.0121310534481307,1.5051409581878843e-06,0.0004588955105349,4.721414111097893,36.7208578211118,12.181698355442045,35.55651229220977
0.34,31.222212145785647,131.0103999093516,4.903491659547144,4.73024573449122,0.0007962944975467,27.63851074646407,0.0010446307681611,3.0871492806781062,345.4656368807584,12.53557620048282,5.2556261014174765,69.94256797855994,1.5899658158227497e-05,120.000020882338,96.20413272674828,1.274,1.0259901535019136,0.0,0.0,0.0,0.0368395817555172,4.208561016221623e-08,-0.0133180771902383,1.7057647550599631e-06,0.0005184333231541,4.730245801363397,35.94841996438923,12.535701282129995,27.810389570354005
0.35,31.222211909310875,131.01040039453565,5.018822212845608,4.780248518778662,0.0008286678570753,30.332092807652543,0.0010618579815451,3.063967690608957,370.5765700527057,12.774786382148209,5.367579971644358,69.93493776125636,1.8594985713558667e-05,120.00002397748868,99.9096898192772,1.274,1.025950003202184,0.0,0.0,0.0,0.0375426220587071,4.7658312175989686e-08,-0.0145774693288123,1.9252724355785177e-06,0.0005782798420984,4.780248590437683,35.44790728185619,12.774916548990808,30.486451961956565
0.36,31.22221166933814,131.0104008868675,5.135354490370708,4.798132156899578,0.0008554457330409,34.32674769697476,0.0010851169437774,3.0374319611165923,407.8625232777224,13.09301701329486,5.506730645516068,69.92658597246795,2.163521613217148e-05,120.0000274401514,104.94818266210537,1.274,1.0259105142325406,0.0,0.0,0.0,0.0384778908056978,5.3755109608570216e-08,-0.0158991451700967,2.162609490834569e-06,0.0006464142451675,4.798132232978766,34.796094028187134,13.09315138639638,34.46087058603792
0.37,31.222211421355144,131.01040139563804,5.255882891363927,4.797392186816851,0.0008791822061288,32.551601855236584,0.00111162791192,3.0078619428913056,391.1218908297639,13.457513730739372,5.661815946371007,69.91747693543164,2.5047738471809164e-05,120.0000313040604,110.87154396328836,1.274,1.025872170958032,0.0,0.0,0.0,0.0395491312153729,6.040098808671168e-08,-0.0172926678053148,2.420031948898497e-06,0.0007226353721561,4.797392267189059,34.07332166419882,13.457651832357364,32.69027405888565
0.38,31.22221116634284,131.01040191882743,5.379799334000849,4.811698494594017,0.0009057112478668,34.02947987649063,0.0011338447913587,2.9774881690446744,404.81876101445977,13.77554886562956,5.800899861213392,69.90756948297444,2.886339581486796e-05,120.00003560072224,116.17243393848278,1.274,1.02583050512925,0.0,0.0,0.0,0.0404838339452728,6.762496638941508e-08,-0.0187646375218858,2.69955777313946e-06,0.0008026686661094,4.8116985796350695,33.46655348088405,13.775691134419684,34.15949264475229
0.39,31.222210906095896,131.01040245274032,5.505993307722699,4.813508003664984,0.000929862892873,29.00025983045028,0.0011579891265804,2.9442136901860865,357.6406249338268,14.124492165837273,5.950648592462506,69.8968186645841,3.311602501056718e-05,120.00004036395212,122.13093644173792,1.274,1.02579027384009,0.0,0.0,0.0,0.0415093739609825,7.545934774906889e-08,-0.020311592409804,3.0013532510753577e-06,0.0008908380763632,4.813508093268025,32.821616487639595,14.124638228358922,29.149330452482886
0.4,31.222210638473225,131.0104030017851,5.635788650457906,4.841647069358873,0.0009592124397379,27.71178845184976,0.0011749448424961,2.91135549588368,345.4656368807565,14.390874239274588,6.07193451174791,69.8851815212744,3.783947407715338e-05,120.00004563180136,126.77947425345651,1.274,1.0257493418632293,0.0,0.0,0.0,0.0422922854866381,8.39343718693383e-08,-0.021938519432511,3.3271332720311508e-06,0.0009803271643914,4.841647164150728,32.348088166612904,14.391024912012275,27.864299944624147
0.41,31.22221036681104,131.01040355909262,5.767123077463226,4.86553909860892,0.0009876699832274,31.306062598221665,0.0011918093836199,2.876450850006428,378.9468707766882,14.663028799871563,6.195223154320929,69.87261222561014,4.307011032901644e-05,120.0000514391194,131.6183642808765,1.274,1.025708445186429,0.0,0.0,0.0,0.0430921644173401,9.308325447883581e-08,-0.0236371933433427,3.6760977501392174e-06,0.0010761942383903,4.865539198612839,31.87689439156756,14.663183942709727,31.437931330109585
0.42,31.22221008906472,131.01040412887247,5.901259531771367,4.867510642114694,0.0010118258958528,35.308283402190774,0.0012128114559048,2.8374461227958245,416.23282400171047,14.9952917972178,6.33928625560071,69.85906967380902,4.884273094936628e-05,120.00005782486392,137.64909586091787,1.274,1.0256701057426505,0.0,0.0,0.0,0.0440686959134695,1.0293499639582845e-07,-0.0254093547296826,4.049238334851429e-06,0.0011830797791891,4.867510747027452,31.315270489291198,14.995450734457847,35.422111438762386
0.43,31.222209804115888,131.01040471342728,6.038886819939341,4.854590670645608,0.0010330089741511,31.00586934514032,0.0012363751872706,2.794478603999558,375.90313951343126,15.369430568701889,6.497852263156962,69.8445117629242,5.519340856908871e-05,120.00006482835984,144.60167924299955,1.274,1.0256308158337524,0.0,0.0,0.0,0.0451682983415116,1.135186446762958e-07,-0.0272634397889413,4.449073329427772e-06,0.0013010625065656,4.854590780289497,30.70250814963406,15.369592833372094,31.13154422839874
0.44,31.22220951192321,131.01040531284193,6.180028459770617,4.866912332640401,0.0010595850174406,28.57707721036899,0.0012525768202179,2.752165534925872,353.07501253892326,15.659290812546615,6.627318538707029,69.82889155423543,6.216182865383864e-05,120.00007249162944,150.1053167542629,1.274,1.025586171750536,0.0,0.0,0.0,0.0460202245100907,1.2486676023179565e-07,-0.0292060158163984,4.8779154055816594e-06,0.001420032405556,4.866912447705031,30.24619499837236,15.659457251771938,28.709297424144207
0.45,31.222209215425703,131.01040592106523,6.322872201489905,4.881836476567178,0.0010866574689855,33.31904824532484,0.0012669045761511,2.7082028218433374,397.2093853562887,15.934249290371609,6.751662050993672,69.81215834018458,6.97909417564726e-05,120.00008085697964,155.42080512416243,1.274,1.0255397023523487,0.0,0.0,0.0,0.0468283602442113,1.3701614206272197e-07,-0.0312276295846745,5.334643585560923e-06,0.0015449645531859,4.8818365972149325,29.82567893138932,15.934419982127675,33.428929688274074
0.46,31.22220891307435,131.0104065412864,6.468371919199588,4.869610441729251,0.0011078049156487,38.95909776354321,0.0012868374716666,2.6582856015412624,449.7140588976424,16.292139278621757,6.904766425053949,69.79426683863348,7.812149592850748e-05,120.00008996920153,162.4785746623087,1.274,1.02549635315424,0.0,0.0,0.0,0.0478802236363867,1.499987870203256e-07,-0.0333272350234362,5.819761874615242e-06,0.0016858511402973,4.869610567434908,29.29014635640275,16.292313292210977,39.04968351401366
0.47,31.22220860266524,131.01040717804253,6.6178810515614845,4.838450928223533,0.0011247917292402,26.253747818137555,0.0013104398935566,2.6026193242279367,331.0078106302504,16.710658191447514,7.078951441335346,69.77517236812905,8.719457259907165e-05,120.0000998741591,170.9309671061642,1.274,1.025453319323251,0.0,0.0,0.0,0.0491102725711187,1.6384464803343264e-07,-0.0355167087264168,6.3368207228363735e-06,0.0018427306558807,4.838451058652396,28.68386015667837,16.710834873319172,26.382435512333956
0.48,31.222208284201663,131.0104078313267,6.771393590864176,4.869339340099417,0.0011561785713505,25.860860976019296,0.0013165328518772,2.5543454292827983,327.20312230115803,16.911139899671,7.177575416403102,69.75482343794755,9.70562828082882e-05,120.00011062072316,175.0543877818846,1.274,1.0254092882449153,0.0,0.0,0.0,0.0496995461609974,1.7858865391586845e-07,-0.0378054080201581,6.88909442277235e-06,0.0019849793891693,4.869339477030596,28.40887970825325,16.911321511776286,25.986704537635287
0.49,31.22220796480208,131.01040848648364,6.924537656029012,4.881367714530694,0.0011829003785372,32.565703383222065,0.0013261973190012,2.5011623511055703,389.6000096981238,17.169005224738054,7.296160258358563,69.73316318155707,0.0001077573203115,120.000122255028,180.4309832312717,1.274,1.025367445590036,0.0,0.0,0.0,0.05045746454003,1.942747077649401e-07,-0.0401641298712614,7.47069711110948e-06,0.002140948887153,4.881367857509675,28.058569663954906,17.169191034294997,32.66161128464712
0.5,31.222207637929923,131.01040915697027,7.081324512896956,4.862566137860805,0.001202418260511,33.47759680712428,0.0013425340759632,2.4399894027711366,397.970310422106,17.52898693231981,7.450304424940405,69.71015149227495,0.0001193385310595,120.0001348274002,188.0736471953394,1.274,1.0253278572281015,0.0,0.0,0.0,0.0515154948878309,2.109295159784217e-07,-0.0426011733481599,8.084173008518589e-06,0.0023184335011768,4.862566286171007,27.57768313050809,17.529175807738486,33.56639745442473
0.51,31.22220730314019,131.01040984370235,7.24202048914867,4.8479762258125,0.001223054804074,25.49162310288008,0.0013562860883156,2.3767006597692686,323.39843497208153,17.86914397471067,7.597652147346554,69.68574349602717,0.0001318441288964,120.00014838524436,195.4407439266201,1.274,1.025286455263166,0.0,0.0,0.0,0.0525152689856776,2.2858192086249162e-07,-0.0451315948093539,8.734206149830708e-06,0.002503767471626,4.847976379721193,27.13799345359824,17.86933609171003,25.602178740977283
0.52,31.222206962738102,131.01041054193402,7.405210501673173,4.865306299521403,0.0012516517170965,30.733671928447727,0.0013599291289974,2.317711624364424,372.098451184342,18.08534843773428,7.701914987606457,69.65988568649581,0.0001453248538387,120.00016298000436,200.19561780583155,1.274,1.0252426840672306,0.0,0.0,0.0,0.0531507657929359,2.4726951523704535e-07,-0.0477531686556663,9.421346966092632e-06,0.0026812161964639,4.865306460134566,26.8699055233151,18.085545046726228,30.820940596104087
0.53,31.222206619320115,131.01041124632013,7.569307468221277,4.848802699234936,0.0012715119568563,32.301199055744725,0.0013711327835325,2.2490252325653923,386.55624643486095,18.41963113311156,7.8474319110539055,69.6325258319474,0.0001598315062727,120.0001786629144,207.6614205945027,1.274,1.0251993415311351,0.0,0.0,0.0,0.0541332845214831,2.67031759303889e-07,-0.0504479325599339,1.0141887756417996e-05,0.0028848299490111,4.848802865552398,26.45837260670532,18.419830861742675,32.37940050117613
0.54,31.22220626697288,131.01041196903336,7.737918664599091,4.831496690588052,0.0012913635058467,28.31291960103712,0.0013809098107221,2.177242866245296,349.2703242098436,18.75116898748492,7.992112829440902,69.60362200959217,0.0001754082864028,120.00019548734956,215.20067397992847,1.274,1.0251561018460285,0.0,0.0,0.0,0.0551077428911958,2.878941684235108e-07,-0.0532336286085667,1.090122304443916e-05,0.003098869611663,4.831496862756785,26.061835558272342,18.751371834390056,28.396510432451375
0.55,31.222205908994248,131.01041270328463,7.909026079894722,15.583667740966511,19.664999119857367,30.720439458472708,-1.3368252415728843,1.3946302070072405,365.2500005919912,22.576858604022103,8.113323699629928,69.57312211246325,0.0001921068626005,120.00021350480982,311.9656824561849,1.274,1.025112921033824,0.0,8.77241248081048,0.0,0.0663511763773331,3.0989272306468813e-07,-0.0561100530405476,1.1700476995263424e-05,0.0039326558448982,24.8978919174017,43.03553878934265,25.605539229253623,30.78112239120741
0.56,31.222205546564343,131.01041344664463,8.081909946161325,-22.29387989002996,-0.0642629047186711,28.3906040017637,-0.3076964988484023,3.0135476215483723,346.22656194657776,17.497382302868488,8.244196224145494,69.54097415464405,0.0002099796112633,120.00023276987916,187.37806448129064,1.274,1.0250709539098009,0.0,8.804417249057844,120.00005142262596,0.0514231932755586,3.329453068617489e-07,-0.0676788746658307,0.0162031517425457,0.0036762137067646,22.293967787818104,34.583423374714755,17.487287911516795,28.551751995065107
0.57,31.22220518050852,131.0104142056356,8.258482545612129,-21.94575230511349,-0.0502183857781468,28.05706531834704,-0.3103648484652773,3.2256428435952764,343.1828296833045,17.72966406924389,8.38817534774888,69.50219571939748,0.0250463022753114,120.02674470608842,192.38279825407795,1.274,1.0250279191823897,0.0,8.836171976839463,120.00005142262596,0.0521059517599367,3.697728390683789e-07,-0.056811771617263,0.0161632551708252,0.0031268425729879,21.945806924623238,34.15984964425328,17.72177578466208,28.243583561077948
0.58,31.22220480457121,131.01041497638275,8.436669958800131,-21.61974326543084,-0.0578824199852842,36.96797275949491,-0.312292449514966,3.4466037783025367,426.12500585731766,17.972429646229514,8.526319316827934,69.46963969692263,0.0497405056154533,120.05311105707897,197.68393495930687,1.274,1.024981594484354,0.0,8.868005395768739,120.00005142262596,0.052819525002197,4.0189593361329414e-07,-0.0458039778803754,0.0161299408159446,0.0025554638087646,21.61981703660519,33.72616256761573,17.963337498506174,37.1296056284657
0.59,31.22220442431749,131.01041575962145,8.61762753457923,-21.14166715868477,-0.064994088201745,29.92124693160244,-0.3162322929027068,3.6780036424981,360.68438819710633,18.34207850461886,8.712287304601446,69.44338673334852,0.0743260939262767,120.07936647197884,205.8957311057792,1.274,1.0249386802161349,0.0,8.89957104951715,120.00005142262596,0.0539060033049638,4.292606150346516e-07,-0.034637870279077,0.0160915535263431,0.0019722044269785,21.14176248566889,33.08898310725859,18.331869259307293,30.148113234483382
0.6,31.22220403351113,131.01041656384385,8.803426601318979,-20.838949274295555,-0.072378058030596,26.555341792994312,-0.3176403323113804,3.9179531834735286,329.4859594986072,18.57255879734369,8.845991522909635,69.42352758128071,0.0988187947652308,120.10552663411384,211.0989057994979,1.274,1.024891335813742,0.0,8.931071517623577,120.00005142262596,0.0545834821355732,4.517949370897968e-07,-0.0232308908170591,0.0160476056206515,0.0013393129169947,20.839069374224167,32.69171079222387,18.561189681597927,26.84469091405881
0.61,31.222203639738662,131.01041737405177,8.989720159835713,-20.554102593364007,-0.0796836056062836,31.12947727192023,-0.3186650810967361,4.164970412993992,372.0984511843332,18.789438277948484,8.97455275617072,69.41020026905072,0.1232340566883869,120.13160691168056,216.05400592712635,1.274,1.0248423929069768,0.0,8.962849366860308,120.00005142262596,0.0552209921725733,4.694051193041092e-07,-0.011682122785542,0.0159982648683787,0.0006813531159548,20.554250367110782,32.32111770486549,18.77692161048415,31.40848422318441
0.62,31.222203239463404,131.01041819750142,9.178640776716984,-20.17856763472341,-0.0865280109460596,38.7324761546201,-0.3208772298353966,4.423456772631165,442.86563930529206,19.08712451958748,9.133378668137832,69.40348607407728,0.147587640890039,120.15762301246453,222.9501991426617,1.274,1.0247996097896497,0.0,8.994158025567593,120.00005142262596,0.0560959931031322,4.820356538961628e-07,-4.260522257391227e-06,0.0159434231329212,2.5242487492894546e-07,20.178745420561192,31.829587965197877,19.07353273657805,38.98556965191323
0.63,31.222202830764104,131.01041903810636,9.371326623443052,-19.71604955638628,-0.0928379161675566,21.83771703756784,-0.3243310670620921,4.697980329281672,286.11251274707456,19.471571902510767,9.324543570168258,69.40345899487157,0.1718953154653034,120.18359064650544,232.01755240811536,1.274,1.024756158874558,0.0,9.025345029457354,120.00005142262596,0.0572259868871759,4.89632966981534e-07,0.0118519642285111,0.0158826658038163,-0.0007163283076348,19.716259434293686,31.21916532101075,19.4569889631216,22.33969774254477
0.64,31.222202412765284,131.0104198976322,9.568288751342278,-19.545580373996543,-0.100227579369293,21.40959847793407,-0.323075200500383,4.9640353505222885,282.3078244179702,19.582522285376275,9.413450030401908,69.4102212546384,0.1961727206891639,120.20952537807824,234.66475186918896,1.274,1.024708534665538,0.0,9.056611870713564,120.00005142262596,0.0575521924554745,4.921232329204278e-07,0.0239396458164426,0.0158154774971267,-0.0014551203201542,19.545827303789338,31.018517435967823,19.566778582054027,21.979921099329953
0.65,31.22220199553604,131.010420755487,9.763495342535478,-19.29535813191932,-0.1071671450126517,38.03020489368,-0.3228787357123912,5.2396930499994205,436.7781447787504,19.767539823615536,9.529816724638817,69.4239054738723,0.2204354509597548,120.23544269476412,239.11548732673728,1.274,1.0246641738210605,0.0,9.088026867636788,120.00005142262596,0.0580960789972629,4.894307351272346e-07,0.0360699299203844,0.0157427060420766,-0.0022131066110952,19.295644398274224,30.710216905647805,19.750706057657045,38.390820754334875
0.66,31.222201570070887,131.01042163007205,9.9623435577148,-18.80697189239529,-0.1127377888674172,32.26651110956448,-0.3263522595064116,5.545999560191262,383.5125151715984,20.19099494510149,9.734654298965769,69.44453610275988,0.2446997744423998,120.26135881168987,249.46499201051697,1.274,1.0246195561629028,0.0,9.118634713950753,120.00005142262596,0.0593407312818044,4.815436272545888e-07,0.0482879179308155,0.015663974757132,-0.0030261630354329,18.80729756742231,30.070948996743823,20.17328614606409,32.74129435594406
0.67,31.22220113233121,131.01042252958612,10.167236387290709,-18.4802637284728,-0.1189825560307917,22.06998372293836,-0.3270067467426734,5.8483868453590135,289.15624401033847,20.455152922035666,9.880076742315929,69.47216342088907,0.268981878242835,120.2872898432952,256.0301349575679,1.274,1.024572383541697,0.0,9.149295522367977,120.00005142262596,0.0601172226485928,4.684235518892059e-07,0.0607451905360153,0.0155780981768371,-0.0038565787735799,18.480633375430347,29.66270648207213,20.436463199272087,22.834069800106764
0.68,31.222200692131416,131.01042343400383,10.372299425660268,-18.263000743632475,-0.1257557686328607,27.62135934693841,-0.3255869102921621,6.143946661875368,340.89999248584934,20.602296308495287,9.981955542891027,69.50692452923916,0.2932976740743246,120.31325157374884,259.7217557872657,1.274,1.0245245285832842,0.0,9.180354340288234,120.00005142262596,0.0605498137442269,4.49990051773168e-07,0.073329230359308,0.0154855792943495,-0.0046889087528567,18.26341894116377,29.41387571223953,20.58254265441125,28.298296407961114
0.69,31.22220024802104,131.01042434629076,10.578406468349892,-17.925459709657886,-0.1316618671250882,34.07357330104753,-0.3259963259028916,6.4615320476947335,401.0140726853658,20.877704856596463,10.130817664052335,69.5488920811037,0.3176636920973885,120.33926043295716,266.70673585750114,1.274,1.024479631064582,0.0,9.210907918252657,120.00005142262596,0.0613593776602605,4.2620986390826e-07,0.0859575399002274,0.0153868528532724,-0.0055697687146036,17.925927349629486,28.99769268242199,20.85702347707189,34.68235960124033
0.7,31.22219979448808,131.01042527764176,10.788859957378763,-17.531244717130033,-0.1370117301149979,28.45640501007559,-0.327198328485824,6.7981952021198255,349.270324209851,21.219872466646247,10.303744007355554,69.59809146744504,0.3420969395278327,120.36533334355072,275.5149939692476,1.274,1.0244351749185203,0.0,9.241139337898234,120.00005142262596,0.0623651531091335,3.970744519378229e-07,0.0987067809941176,0.0152811607782552,-0.0065005695899694,17.53176328903043,28.503232036402864,21.19835073491846,29.259007208887727
0.71,31.222199333069923,131.01042622490283,11.002742768475896,-17.233582846927753,-0.1428951165854042,23.2458228262032,-0.3264285759918572,7.127405019614401,301.3312640634036,21.451964593525805,10.435906789592671,69.65459198851336,0.3666144254699184,120.39148719856448,281.56905496278694,1.274,1.0243880468141104,0.0,9.271530046327335,120.00005142262596,0.0630474234304679,3.625477618896568e-07,0.1116119717969249,0.0151679761781632,-0.0074307146797459,17.234157282517252,28.152357987752424,21.42951870436975,24.31614148659442
0.72,31.22219886781524,131.0104271798472,11.217628581326071,-16.972736466602967,-0.1489517965639131,28.54560433525147,-0.3247048440338237,7.454567978513632,350.7922053414578,21.637051869513662,10.550519467000935,69.71848300277463,0.3912333997934577,120.41773911224064,286.44285319344306,1.274,1.024337302174265,0.0,9.301856430014466,120.00005142262596,0.0635915499562004,3.225882771376774e-07,0.1245943015607998,0.0150477502093772,-0.0083664272331395,16.973370820124057,27.860184226850844,21.6136546023773,29.50470375798997
0.73,31.22219839734856,131.01042814526312,11.434348253081476,-16.627732607433785,-0.1541993260794441,36.22526560707888,-0.324283941802628,7.8060078858437745,422.3203185282354,21.92401421542843,10.701587009840372,69.78980872147527,0.4159717729717873,120.4441068743088,294.0850384914642,1.274,1.024292465384646,0.0,9.331853983944567,120.00005142262596,0.0644350932083534,2.771865609567137e-07,0.1376162752310571,0.0149206506612786,-0.0093632066334565,16.62842740001488,27.44885650160873,21.89979267116799,37.058181114190944
0.74,31.222197918247986,131.01042912806457,11.654975816836687,-16.21837929106603,-0.1587142263974039,22.36948436572308,-0.3248541282041851,8.18377046945647,294.4828134710563,22.29719105312434,10.88303758502776,69.86859187441246,0.4408479783747026,120.47060880072144,304.1752610874761,1.274,1.0242470321640116,0.0,9.361645600087256,120.00005142262596,0.0655320301194847,2.2634578415765561e-07,0.1507336179631788,0.0147859456380856,-0.0104300360904777,16.219135014600262,26.94529291380458,22.27226031262468,23.821701452450625
0.75,31.22219743040017,131.01043012845457,11.879597662817392,-15.986020348998665,-0.16470469308912,26.18330577451448,-0.321647502029965,8.521004164956038,330.24688556441737,22.435040336969408,10.979340487231095,69.95488711277774,0.4658807022077757,120.49726343506488,307.94128726389846,1.274,1.0241984712898409,0.0,9.391513211116871,120.00005142262596,0.0659373398801317,1.7004892015009306e-07,0.1639905303518341,0.0146429119006377,-0.0114172573412255,15.986846675597336,26.711419166078763,22.409168619910456,27.5368202662632
0.76,31.22219694225576,131.0104311293435,12.103092880501052,-15.66122082974558,-0.1697036297832141,28.184046585142983,-0.3199863209857641,8.888683516433817,349.2703242098581,22.695381331016275,11.118834397426603,70.04877439588718,0.4910890149500631,120.52408967409356,315.122823466761,1.274,1.0241522053390697,0.0,9.421385618002876,120.00005142262596,0.0667026590256464,1.082695032783362e-07,0.1772307662608826,0.0144929936937318,-0.0124819788810714,15.6621172373769,26.3429543081038,22.66872438616149,29.554214044945436
0.77,31.222196444438943,131.01043214966847,12.331174011664496,-15.326368699739056,-0.174466066886796,26.2330226825928,-0.3181959869502298,9.26559801904675,331.76876669606884,22.96740557776372,11.261703155140951,70.15024419021498,0.5164931776194303,120.55110765418442,322.7150783975386,1.274,1.0241065975906936,0.0,9.450662081940337,120.00005142262596,0.0675023231701901,4.1041099776720966e-08,0.1905213414634998,0.0143352667171853,-0.0135785345672804,15.32733787863646,25.964959277015065,22.940000554412368,27.823084559446364
0.78,31.22219594082724,131.01043318157633,12.561499331496703,-15.01624132981506,-0.1793493122539359,21.315738593919,-0.3155822004465871,9.639548327375913,286.8734378128874,23.202665841473905,11.39080479121852,70.25932533343266,0.5421137855340288,120.5783378063718,329.35293927618625,1.274,1.0240588105546735,0.0,9.480092531193554,120.00005142262596,0.068193941743139,-3.1626714365293094e-08,0.2038579534978138,0.014169540403786,-0.0146775399671965,15.017287704022548,25.62926537786665,23.174493763390565,23.396179087307022
0.79,31.222195431997417,131.01043422389756,12.79372730779774,-14.743425086078076,-0.18454284329633,30.632581063244785,-0.3118383142437063,10.001597421697678,373.6203323159581,23.377168066101767,11.497884314614817,70.37604420325191,0.5679721428632434,120.60580126424256,334.31809673376824,1.274,1.0240083170932772,0.0,9.509368945460617,120.00005142262596,0.0687069936228661,-1.0972057210631837e-07,0.217208301149481,0.0139959920396566,-0.015756014030893,14.744554395592116,25.35728349076708,23.348180194183577,32.225521201622215
0.8,31.22219491895652,131.010435274598,13.02724716910986,-14.365707839318276,-0.1883662780570932,30.9726731261592,-0.309999556912936,10.411384504746644,377.42502064505805,23.711770134171392,11.659826261407952,70.50040866651375,0.5940904758852213,120.6335200827045,343.94919765973566,1.274,1.0239625010683884,0.0,9.538434093987489,120.00005142262596,0.0696905941300202,-1.932126491422081e-07,0.2305258592954214,0.0138150323306753,-0.0169610184857393,14.366916750712518,24.9264280300924,23.682181681705643,32.67720164902235
0.81,31.222194395903752,131.01043634533016,13.265683799544933,-14.012757099524467,-0.1923330779901885,19.697622666475187,-0.307270224928674,10.817557163459284,273.9374926939922,24.007599002787103,11.80720872060704,70.63239994285387,0.6204920553979058,120.66151737308786,352.57690493305483,1.274,1.0239149950770308,0.0,9.567189359202702,120.00005142262596,0.0705602462185534,-2.820505099277274e-07,0.2438935162899118,0.0136253075324129,-0.018168009198044,14.014050557906058,24.53951782011864,23.97738745028373,22.474658989330052
0.82,31.22219386779424,131.010437426112,13.505984823211753,-13.75644284734815,-0.1974343747018751,25.549525681038222,-0.3020380353554737,11.178448611895565,328.725004432774,24.138901572305468,11.897285983609075,70.7720467244769,0.6472006504180204,120.68981669741046,356.4358592204566,1.274,1.0238644186635044,0.0,9.596119931917034,120.00005142262596,0.07094634727671,-3.762170311104442e-07,0.2572751394464223,0.0134270236029748,-0.0192691989869334,13.757832250514818,24.312428699976888,24.10788871462398,27.889553651315808
0.83,31.22219333767373,131.01043851083185,13.746237919315115,-13.414352182607388,-0.2012680451594405,32.715247381435745,-0.2983676746729134,11.58409412490642,395.6875032246518,24.411383869352854,12.03454971738862,70.91935700193186,0.6742412246972505,120.71844281191518,364.519832465696,1.274,1.0238188483711983,0.0,9.624851380588655,120.00005142262596,0.0717473911074331,-4.7568402451706964e-07,0.2705650761174117,0.0132215333549223,-0.0204928543596752,13.415834317354632,23.953337800831346,24.379768823769183,34.706882187723515
0.84,31.222192798288656,131.0104396140289,13.991046694843345,-13.028525058498102,-0.2043205377233415,19.60328479137529,-0.295316326297205,12.020009419581903,275.45937482564227,24.76144205649408,12.19665596373278,71.07427824366485,0.7016404280563677,120.74742219517336,375.04037025887015,1.274,1.0237739661568126,0.0,9.653161832510602,120.00005142262596,0.0727764465978358,-5.803658794744985e-07,0.2838314656048634,0.0130075824557667,-0.0218054261394657,13.030099387968194,23.528208234789336,24.729347529503148,22.996882675510196
0.85,31.2221922513961,131.01044073215212,14.23935574370785,-12.763025008782872,-0.2090276030795824,21.40652305027085,-0.2890837650584704,12.384010660836047,292.9609323393965,24.88641209004817,12.28237206261874,71.23679694325799,0.7294256742408979,120.77678204601192,378.82651787335,1.274,1.0237227741398531,0.0,9.681595181994425,120.00005142262596,0.0731439514039158,-6.902039048345033e-07,0.2971026108916099,0.0127843948523352,-0.0229396351121135,12.76470817636426,23.307566524760052,24.85357818377053,24.732297074325675
0.86,31.22219170421529,131.0104418507493,14.486544579686267,-12.44559939307694,-0.2128332658312952,27.07993815347971,-0.283701474995031,12.77849452874671,346.2265619465616,25.10291976440997,12.397556235506936,71.4069158005576,0.7576254794179361,120.80655063406005,385.4374965655617,1.274,1.023674789281455,0.0,9.710021184737997,120.00005142262596,0.0737804974657914,-8.051697968481447e-07,0.3102422775718418,0.0125540186477815,-0.0241619876156288,12.447390391848131,23.00698909936681,25.06948807007621,29.944840279160115
0.87,31.222191149123606,131.01044298506392,14.737543524474036,-12.087198759595807,-0.2158444742441875,24.99607738751728,-0.2788833010491047,13.20168756801292,327.9640783669946,25.395215911654823,12.536302624418203,71.58455947600716,0.7862707131619942,120.83675863855385,394.4562454010929,1.274,1.0236288969245204,0.0,9.737878729083736,120.00005142262596,0.0746398023369117,-9.251560349078665e-07,0.3232881212379246,0.0123156106398625,-0.0254705678765489,12.089097132955084,22.64399823416852,25.361311221119383,28.26952803464861
0.88,31.22219058728505,131.01044413274275,14.991664559671436,-11.755589555978172,-0.2191576746632149,21.25755321775916,-0.2730253322003199,13.605797641236425,294.4828134710421,25.630748459652622,12.6552193315256,71.76967418773503,0.8153935074304226,120.86743796694408,401.7972829503712,1.274,1.0235805388426191,0.0,9.765765637605105,120.00005142262596,0.0753322787455791,-1.05006800436135e-06,0.3362650533768345,0.0120684262043034,-0.0267380293596501,11.757603498710386,22.33259560407537,25.596323336562296,25.240361350269147
0.89,31.222190021282085,131.01044528862184,15.247242406851743,-11.441638048924716,-0.2226641106406787,23.373115838737952,-0.2663388060587396,13.992774737414814,315.02813424808807,25.823062807638063,12.759048251863476,71.96222042433551,0.845027447888938,120.8986219532086,407.8394778935086,1.274,1.0235293752791452,0.0,9.79360376323816,120.00005142262596,0.0758977358023583,-1.1798324588229303e-06,0.3491290702644082,0.0118130208980974,-0.0279685193791032,11.443775589880698,22.058828458938017,25.78808689896644,27.242819700293687
0.9,31.22218945078105,131.01044645336253,15.504514223929924,-11.101728772416944,-0.2255697779644509,25.89580907387056,-0.2598933657118429,14.3984184621715,339.3781423542166,26.06631702299532,12.877797742436249,72.1621334612655,0.875208328294761,120.93034614799312,415.5491272953221,1.274,1.0234837388140003,0.0,9.821211903739206,120.00005142262596,0.0766129176928482,-1.314356651532822e-06,0.3618444713833889,0.011549860641624,-0.0292594795258005,11.10399140398646,21.74636141746633,26.030884696659555,29.63064167991809
0.91,31.222188873944056,131.01044763061185,15.764756093469511,-10.747883516465375,-0.2280604299180241,19.084047246852425,-0.2533878778441937,14.815144890795027,277.7421810230785,26.33796195032245,13.003941268157568,72.36932811514512,0.9059742669378538,120.96264843180224,424.2447789747402,1.274,1.023436404813438,0.0,9.848619416451742,120.00005142262596,0.0774115512444905,-1.4535199859316131e-06,0.3744217598422075,0.0112784634757555,-0.0305912606240969,10.750274421481652,21.415344238756543,26.302138396358213,24.160993002606165
0.92,31.22218829130972,131.01044881928112,16.027662348761485,-10.4381729292838,-0.2313163658075943,23.003738452028287,-0.2453600906354369,15.183356300234571,315.0281342480675,26.49848499586629,13.09421739225592,72.58372521353334,0.9373654484980074,120.9955687294763,429.4210191191834,1.274,1.0233859136578225,0.0,9.875962878456322,120.00005142262596,0.0778835855964048,-1.597206506233021e-06,0.3868589987075926,0.0109985576875451,-0.0317992524486151,10.440707259773433,21.172434272396888,26.462150004798143,27.56386208214071
0.93,31.2221877061614,131.0104500128392,16.2910069401804,-10.088367839156346,-0.2336005778018231,27.66161035756264,-0.2379689101890176,15.587651967430318,359.16250706547066,26.75191769507468,13.211629778718487,72.80524446536614,0.9694244398914496,121.02914932960792,437.66323331560926,1.274,1.0233407575091376,0.0,9.903208923774017,120.00005142262596,0.0786287013324048,-1.7453215270074089e-06,0.3990885973925091,0.0107114102145377,-0.0331174140419987,10.091044038708327,20.86220669145101,26.7152239037786,31.75210560944845
0.94,31.222187113821978,131.01045122056314,16.558069138800526,-9.717757904221138,-0.2352673485009401,19.260370974249103,-0.2306952215543661,16.012747717911,283.06875048378083,27.05664413877581,13.342747552014576,73.03376685552477,1.0021972063162252,121.0634359503432,447.67922976916566,1.274,1.0232914783978162,0.0,9.930130383177776,120.00005142262596,0.079524586828449,-1.897707339340704e-06,0.4111386750569934,0.0104160845168555,-0.034505100874339,9.72057805073194,20.5191019860607,27.019688533942155,25.048417112233047
0.95,31.222186515413245,131.01045244020509,16.82815219422099,-9.399192329433047,-0.2379928868409895,25.5659533488228,-0.2216555414776557,16.368852351021566,342.421873617488,27.21601373111788,13.42889383601121,73.26918946788183,1.0357322177509691,121.09847677691242,452.9568711532579,1.274,1.0232418269359267,0.0,9.957065136335483,120.00005142262596,0.0799932479263915,-2.0542214083823315e-06,0.4230149406368412,0.0101120582948983,-0.0357100120569557,9.402177835650456,20.28423641803231,27.178630003374163,30.35797142601586
0.96,31.22218591517132,131.010453663369,17.09826696752739,-9.030549885739312,-0.2393675344935833,24.83943437307449,-0.2135517963977551,16.78273275814533,337.09533515678265,27.511856174576835,13.553640101474455,73.51141264818504,1.0700809266623923,121.13432294948572,462.8458134929152,1.274,1.0231951201821403,0.0,9.983939532661452,120.00005142262596,0.0808630338377403,-2.214764847052893e-06,0.4346375001817914,0.0098010911972606,-0.0370890402286698,9.03369541301569,19.957273774010478,27.474256519558352,29.978379261983854
0.97,31.22218530673621,131.01045490263152,17.373039962228304,-8.67438508764954,-0.2408994548518527,14.681271571558495,-0.2046900474155489,17.173879113460636,245.0218871929888,27.767745320974303,13.664842312174155,73.76029096806636,1.1052994177622084,121.17103028709543,471.4833157690505,1.274,1.0231476260761452,0.0,10.010459043450746,120.00005142262596,0.0816153979823395,-2.3791436652783284e-06,0.4460483762814064,0.0094817095818421,-0.038415777548491,8.677703908875545,19.66297669012354,27.729905034582075,22.594772775514297
0.98,31.222184694480887,131.01045614932664,17.64937553965302,-8.362574612329606,-0.2434791039341725,22.63350436932112,-0.1942653203080669,17.487868891567054,319.593746642963,27.87843183737425,13.733160759483503,74.01570305713635,1.1414468314476804,121.20865760485624,475.2370050823816,1.274,1.0230935628253934,0.0,10.03708080691711,120.00005142262596,0.0819409850385994,-2.5472202196216465e-06,0.4572123674941491,0.0091544906114414,-0.039533187493161,8.36609315422121,19.46955142141457,27.84018634427181,28.603126007822837
0.99,31.22218408059702,131.01045739913008,17.925642416254867,-7.996053553940945,-0.2444084211297303,24.87171967783498,-0.1849594437380791,17.876994300703462,341.66094855170127,28.15917500351436,13.847733527030917,74.2775073677263,1.1785869824050248,121.24726839698208,484.8438585067233,1.274,1.0230490803133316,0.0,10.06350156881536,120.00005142262596,0.0827664103841,-2.7188733262762458e-06,0.468057168721336,0.0088213217632346,-0.0408773587581007,7.9997637215407,19.167722666619344,28.120783534931288,30.630435435298924
1.0,31.222183458684608,131.01045866465125,18.20672532594756,-7.630264537345487,-0.2451812699316413,21.72854113429607,-0.1752283494027355,18.25782961011531,314.2672081822764,28.43582332903995,13.958985753455856,74.54552091650271,1.2167897686948912,121.28693229175452,494.4039541882968,1.274,1.022999484445133,0.0,10.089571467345332,120.00005142262596,0.0835798096852167,-2.893866056098084e-06,0.4786321659286769,0.0084803238805984,-0.0422104481588576,7.63417939063332,18.87457689030334,28.397310462758966,28.381482464297633
1.01,31.22218283265736,131.0104599381555,18.48976034622129,-7.27955375304785,-0.2462350809601032,22.72020932707948,-0.1647145410678652,18.602425753787028,324.92031610370094,28.6566184450098,14.053108159748405,74.81958899906962,1.2561290510160903,121.3277228074786,502.09789162276206,1.274,1.0229507481225095,0.0,10.115754903940775,120.00005142262596,0.0842290492966155,-3.072027987995646e-06,0.4889169456580768,0.0081316938183446,-0.0434510724353215,7.283694664271922,18.62231454371319,28.617940048001664,29.364694561181928
1.02,31.222182202931464,131.01046121882047,18.77445066249069,-6.919296966052112,-0.2468203936209489,18.160185952079768,-0.1540988236195421,18.954625391016148,284.59063161543185,28.909733005347384,14.153959361928653,75.09954520855099,1.2966846161074317,121.3697193839004,510.9928249686627,1.274,1.0229039803623294,0.0,10.141780934520348,120.00005142262596,0.0849732899672911,-3.253198605698623e-06,0.4988742589280857,0.0077763064198149,-0.0447263821750791,6.923676362101364,18.35560509043157,28.870962668492545,26.250598545086746
1.03,31.222181567932385,131.0104625097297,19.062107414059227,-6.575214924008737,-0.2478001924570344,13.92825423084087,-0.1426835273739232,19.259245644243894,247.3046933904342,29.09205080276969,14.234398005464104,75.38520177882694,1.3385433896561445,121.41300861458356,517.4439536510847,1.274,1.022853416101322,0.0,10.1676251721686,120.00005142262596,0.0855094473538566,-3.437174304484513e-06,0.5084974114218207,0.0074139551438724,-0.0458753804715702,6.579862189607906,18.13686893395162,29.053126560907305,23.76836484264847
1.04,31.2221809301842,131.01046380591768,19.350767012484777,-6.238106333189012,-0.2488935953480576,24.43852727059124,-0.130779063821321,19.530840200912262,345.4656368807608,29.23591819896165,14.303416454799244,75.67636708675387,1.3817992495030893,121.4576840217088,522.5598972309601,1.274,1.0228049544826707,0.0,10.19340860602383,120.00005142262596,0.0859325926436576,-3.6237865609188777e-06,0.5177465585554619,0.0070457535712716,-0.0469395059086373,6.243050030021381,17.945496003034886,29.196822207388173,31.2843800845172
1.05,31.222180289313425,131.01046510811332,19.64076315068856,-5.860831385505239,-0.2482776552501127,12.82314032551484,-0.1196688270762284,19.888243076621027,240.4562587980608,29.55953648287274,14.415645242988184,75.97282665788089,1.4265549952003047,121.50384807177394,534.1776886297873,1.274,1.022755494436122,0.0,10.21895668389437,120.00005142262596,0.0868840821757114,-3.812843189430739e-06,0.5265953550061615,0.0066724526628972,-0.0482688667125577,5.866069482933358,17.65599667360994,29.520537242032987,23.66409645667425
1.06,31.222179641208704,131.01046642434602,19.93566706720983,-5.528977414731281,-0.2493109763082326,20.020600366146063,-0.1069908807033949,20.11023137521889,308.1796836557233,29.659699703668647,14.470659632801151,76.27435090244995,1.4729230793075263,121.551612899581,537.7887380323714,1.274,1.0227013895379469,0.0,10.244304319068975,120.00005142262596,0.0871787811385969,-4.00405320190111e-06,0.5350795213290899,0.0062919765434342,-0.0492113452376918,5.534578047391094,17.499755175386127,29.62053815066689,28.377055732304573
1.07,31.222178993759503,131.01046773917895,20.2288150157062,-5.164122427299289,-0.2487489992230337,24.23092891834399,-0.0949795721767811,20.41108059925556,348.5093681440431,29.92704907174249,14.5643482082128,76.58073067282983,1.5210237663193116,121.60109836236268,547.5121582238617,1.274,1.0226540159946436,0.0,10.269763842862144,120.00005142262596,0.0879648923441635,-4.197308987460944e-06,0.5431206418152505,0.0059075000572056,-0.0503997212264389,5.170093699912929,17.25611340148109,29.88797579306104,31.68215820606729
1.08,31.222178339232023,131.01046906771296,20.52696951627111,-4.794674379391248,-0.2477496259993935,14.509702773862715,-0.0827709311147379,20.71541500047568,261.0015785751465,30.223606332370803,14.662322526070422,76.89171186439953,1.5709917755489085,121.65243887296,558.400896737239,1.274,1.0226061614050743,0.0,10.294761113588336,120.00005142262596,0.0888368651221264,-4.392306207994231e-06,0.550747980407931,0.0055171345494013,-0.0516124755209732,4.801056023110726,17.004500317104295,30.184690033394737,25.291633878711945
1.09,31.22217768070447,131.01047040391535,20.827597954309773,-4.452926024562076,-0.2478750479070875,12.75059072740802,-0.0695585465341462,20.91141080916079,246.54375332456465,30.355944136272207,14.720300383268109,77.20705711027662,1.6229722514992349,121.70577918664948,563.2853926456754,1.274,1.0225512795791307,0.0,10.31987880482814,120.00005142262596,0.0892261510226364,-4.588811088265244e-06,0.5579489532068213,0.005120784124721,-0.0525147333575222,4.459805877367394,16.848003295932052,30.317008136253225,24.492233551041156
1.1,31.22217702122516,131.010471741851,21.12792801743093,-4.106334172259209,-0.2475866203863989,30.7368653712434,-0.056296859956827,21.10433074625384,413.1890617384087,30.512409256885864,14.78218721089656,77.52652180445722,1.6771240068966056,121.76127770559997,569.0906799059458,1.274,1.0224981043155532,0.0,10.344899580315971,120.00005142262596,0.0896863576606951,-4.7866827932017565e-06,0.5646710240662048,0.0047209253422976,-0.0534198209888102,4.113778613318623,16.684932621689068,30.4735185625324,37.284726610686825
1.11,31.222176357911056,131.01047308712418,21.430670616247344,-3.721974134319775,-0.2448657831828455,20.839150595888004,-0.0437674868795526,21.44431348007134,324.1593910379213,30.94878746728668,14.90286073201482,77.8498311848451,1.733624892801923,121.81911194379308,585.4679425991537,1.274,1.0224548851875197,0.0,10.369597444156929,120.00005142262596,0.0909693325411424,-4.985673105869708e-06,0.5709066467354907,0.0043175791677967,-0.0547805684181071,3.7300088932786615,16.386067583215432,30.910324157095165,29.902018222564454
1.12,31.22217568656716,131.01047444784703,21.740097036576937,-3.370541193938476,-0.2438123859118082,4.137900089346205,-0.0300984680917843,21.63070727280793,172.7328179403806,31.149419569744342,14.96994202603201,78.17670612458612,1.7926709010108353,121.8794775449589,593.0657619709012,1.274,1.0223979224661404,0.0,10.39420114548678,120.00005142262596,0.0915593802971426,-5.18539244693331e-06,0.5766901417801136,0.003907375039434,-0.0556925848283336,3.379337780105974,16.216155838126102,31.11112172530462,22.022956663198034
1.13,31.222175015467087,131.01047580796376,22.04823402935062,-3.041442883537192,-0.2440814919513621,25.21329055208741,-0.0157884409670772,21.68064341687164,367.5328077894322,31.151288222383616,14.99436110979824,78.50688713744788,1.854472915377092,121.9425848972391,593.1193654724144,1.274,1.0223460397860296,0.0,10.419052567662236,120.00005142262596,0.0915651913257306,-5.385744488614248e-06,0.5819606874584518,0.0034937922348674,-0.056203284285883,3.0512119919645286,16.151554681464805,31.112948107249192,33.25297834342644
1.14,31.22217434396316,131.01047716874973,22.35556701920049,-2.671012649241467,-0.2410406812443372,11.076542833375216,-0.0023340571287449,21.94943295958045,239.6953177322812,31.554136688536424,15.098149480514964,78.84007980628571,1.9192700421205269,122.00867272149208,608.5410320988237,1.274,1.0223022138470996,0.0,10.44351177063394,120.00005142262596,0.0927496340637239,-5.586605879783089e-06,0.5866778232428604,0.0030798814810794,-0.0573898632110658,2.6818588865787145,15.8982566574489,31.51627421855053,24.585919015455474
1.15,31.22217366341824,131.0104785468677,22.67127275286932,-2.3316281783139794,-0.2401923492802193,10.651857409187825,0.01199861269764,22.01141342315057,237.4125115347709,31.641964192721,15.136999073242544,79.17596643542034,1.9873336782563589,122.07801213479404,611.9148060172467,1.274,1.0222426194541194,0.0,10.467628986401738,120.00005142262596,0.0930081239224503,-5.787483488616524e-06,0.5908827082137138,0.0026606878549131,-0.0579603182091396,2.3439604254057302,15.805530930632475,31.604234977233364,24.453313295282285
1.16,31.22217298530201,131.010479920166,22.9833734438592,-1.9878302711050209,-0.2386210150134593,38.0628603500206,0.0262451327590866,22.09241331812017,490.043774385954,31.795814543581635,15.187079930036482,79.51425287895027,2.0589560496188946,122.15089486405267,617.8612848981356,1.274,1.02219674531104,0.0,10.49211950875326,120.00005142262596,0.0934606795146488,-5.988336000088464e-06,0.5945220537086948,0.0022408039423868,-0.0585991006621729,2.002095484162868,15.688895976536456,31.75833215054874,44.009734753243144
