Time,Latitude,Longitude,Altitude,Angle of Attack,Angle of Sideslip,X-Acceleration,Y-Acceleration,Z-Acceleration,Thrust,True Velocity,Ground Velocity,Pitch,Roll,Yaw,Dynamic Pressure,cp,parachute_deploy_gain,Wind Speed,Mach,omega_x,omega_y,omega_z,Cmq
0,31.2221860000000042,131.010383999999988,3.00000000364323682,0,0,0,0,0,2.2828121974499247,0,0,69.9999999962342088,0,113.699999993883324,0,15.2880000000000003,0,0,0,0,0,0,-0
0.01,31.2221859999997946,131.010384000000556,3.00000016469923247,0,0,0,0,0,34.2421869617492334,9.11367326775851009e-12,8.66229497295429822e-12,69.9999999962370651,-4.92863947922479589e-13,113.699999993882884,5.08594204168408172e-23,15.2880000000000003,0,0,2.67827100510624443e-14,-3.65918233213857746e-19,7.58941520739853104e-19,4.81114714040442593e-19,-1.83541113936281872e-32
0.02,31.2221859999996028,131.010384000001039,3.00000030885429547,0,0,0,0,0,25.8718762377664078,1.96992978605390895e-11,1.88456988716431921e-11,69.9999999962400494,-1.04152381447771591e-12,113.699999993882386,2.37621641206600858e-22,15.2880000000000003,0,0,5.78911013494094702e-14,-7.28448334638698292e-19,1.51788304147970621e-18,9.75781955236953991e-19,-7.93451985123442364e-32
0.03,31.222185999409362,131.010384001586402,3.00018176030779937,18.6493779029494604,-0.000129237623237530007,10.7928899806483045,-1.97644583900689674e-05,3.34983967390763571,180.342193598546658,0.0785672533977095078,0.0490694047558625918,69.9999999976775626,-4.2497891361524094e-12,113.699999994705607,0.00377978965327356543,15.2880000000000003,0,0,0.000230888677896110966,2.88330015245363835e-17,-7.25223402354589416e-10,1.08188208080271277e-11,1.51197624781400831e-13
0.04,31.2221859959356287,131.010384010943454,3.00162780953569674,9.74253989061216075,-4.88763086122285772e-05,51.6475445943311158,1.54548216767323456e-06,3.34965665682309899,548.635972453807767,0.346420694310776434,0.171860503977579737,70.0000000036447574,-2.28205307288861013e-11,113.699999999565534,0.0734838809649275282,15.2880000000000003,0,0,0.00101804013696402693,1.80009747884589399e-15,-1.58734069119923437e-08,2.61929145365345784e-11,1.45916869803439425e-11
0.05,31.222185985910329,131.010384038045004,3.00715844163023283,5.5769968489095687,-4.21135943534799539e-06,75.3242160169835273,4.73080294831520123e-05,3.34902689347595528,761.698429882464552,0.947854334293939504,0.409211128642743283,70.0000000010935537,-1.04766136577077691e-10,113.700000013612069,0.55013262299765131,15.2880000000000003,0,0,0.00278549703395658196,1.95473045844392346e-14,-1.13584749331540247e-07,4.14067569904437612e-11,2.85688606727574374e-10
0.06,31.222185966868647,131.010384089593572,3.01868664272593046,4.48500474963244322,2.31139019787050305e-05,56.3605563030587007,9.71465785775115924e-05,3.34799244711343214,590.487539073720654,1.60618980149218604,0.665693519146445256,69.9999999197690244,-2.82941102348924619e-10,113.700000040305838,1.57971028663545732,15.2880000000000003,0,0,0.00472017413217633904,1.01936766184118274e-13,-4.07864410983111553e-07,5.76522069423461223e-11,1.73837509686130208e-09
0.07,31.2221859390775336,131.010384164863126,3.03600551209402658,4.00448286551149391,4.63712119495135773e-05,85.8192455386477917,0.000147926970097503541,3.34656708333141317,855.293774977913927,2.27788210706903049,0.926660947343454056,69.9999996219982279,-5.49831570978999292e-10,113.700000079276109,3.1772067926123353,15.2880000000000003,0,0,0.00669410445039518576,3.35900025920073467e-13,-9.92070622953462368e-07,7.83315922772719921e-11,5.99658406989250883e-09
0.08,31.2221859009658012,131.01038426812616,3.06033476575187802,3.77263127792190334,7.06371256062416025e-05,17.6076228145981588,0.000196957592070898702,3.34480227118667583,241.217198863884818,2.92612482887636283,1.17954495655796454,69.9999989088305909,-9.15694670892462832e-10,113.700000132739973,5.24285298735243899,15.2880000000000003,0,0,0.00859912396431777512,8.49635706706491564e-13,-2.01744800413265681e-06,1.10032289818440005e-10,1.56647792516492608e-08
0.09,31.2221858556197738,131.010384390989856,3.0892797608365723,3.74258231141200604,9.5325675231994802e-05,53.4176180048964397,0.000237730218002333866,3.34289666486112669,563.093737704317618,3.46187703891102627,1.39384941462988121,69.9999975134546446,-1.31671842773002699e-09,113.70000019638816,7.33844512707370811,15.2880000000000003,0,0,0.0101735644468633635,1.80613395740032365e-12,-3.4856561047658452e-06,1.59232278560273843e-10,3.20202005890100843e-08
0.1,31.2221858028175774,131.010384534057465,3.12301320909491364,3.81071421019783685,0.000121971080758598364,50.732831688561788,0.000271545837515448313,3.34090447591365036,538.7437595981919,3.9029133825176725,1.57567038389986336,69.999995157830341,-1.72222432289554893e-09,113.700000270567642,9.32732681847184431,15.2880000000000003,0,0,0.0114696609641860067,3.37914451533694905e-12,-5.48904943388414521e-06,2.34452541412924053e-10,5.68476506314615152e-08
0.11,31.2221857431700727,131.010384695667796,3.16106164078641116,3.84323765504598036,0.000147145408783231387,40.0848474374385688,0.000307099758177995722,3.33859717034531034,442.865639305294906,4.36819921201157246,1.76578242121538631,69.9999915253729768,-2.07703942468805025e-09,113.700000354470319,11.6837607126815346,15.2880000000000003,0,0,0.0128370221364947634,5.76365694334259916e-12,-8.08162139954488366e-06,3.4437809457680147e-10,9.36754562129998513e-08
0.12,31.2221856770245907,131.01038487487628,3.20315617196047642,3.86558564807459826,0.000171348089099210797,43.7480799143332604,0.000342946594964391399,3.33600966231316054,475.585948135404465,4.83801864946757032,1.95742650583495204,69.9999862600106582,-2.3147200577597177e-09,113.700000447673773,14.3321420062794882,15.2880000000000003,0,0,0.0142177082532951912,9.17772063248746377e-12,-1.13223702306849879e-05,4.98555567062495836e-10,1.45354343598177095e-07
0.13,31.2221856047215205,131.010385070757366,3.24903338361815308,3.95285669440916232,0.000198169826234992146,48.2585391180499741,0.000371981107240517913,3.33344523512332414,515.915632623689476,5.21512035057569623,2.1172615234944101,69.9999789703044399,-2.35265113573284059e-09,113.700000549782459,16.6533950244453948,15.2880000000000003,0,0,0.0153259223232261182,1.38588880633063252e-11,-1.52681962163171846e-05,7.07166414280215559e-10,2.11287244421402401e-07
0.14,31.2221855263490333,131.010385283071088,3.29862557546706325,3.99981420118284792,0.000223008237377726162,44.9721767850953427,0.000403855591455553264,3.33052592490198407,486.239086056840392,5.63167615200940475,2.29059513099545553,69.9999692426645623,-2.0964169591742506e-09,113.700000660771011,19.4199179783547713,15.2880000000000003,0,0,0.0165500839355928395,2.00553635588333716e-11,-1.99811439493909854e-05,9.81252131659242702e-10,2.9859131057555361e-07
0.15,31.2221854420015994,131.010385511560628,3.35186028506811029,4.05975476911301225,0.000248539990764711958,43.4637160193537753,0.000433543226731567866,3.32747422849243879,472.54218587214001,6.01888316560526437,2.45383766868271946,69.99995661705006,-1.43188768134039915e-09,113.700000780625842,22.182048585914238,15.2880000000000003,0,0,0.0176879988684610287,2.80404916713566325e-11,-2.55291719775422389e-05,1.33309260321839681e-09,4.07727088477750495e-07
0.16,31.2221853515819241,131.010385756490507,3.40881389436676407,4.08854462484130732,0.000272210944932510383,34.4023069357135967,0.000465877824565354701,3.32404684464906053,391.12189082975641,6.44303061809316624,2.62971580822363071,69.9999405987561403,-2.27841984783363582e-10,113.700000909623355,25.4183784408083007,15.2880000000000003,0,0,0.0189344747787753703,3.81042963600432359e-11,-3.19913711614788564e-05,1.77662362644707755e-09,5.46937370926295155e-07
0.17,31.2221852554099399,131.010386016990765,3.46923909377793649,4.13347468842419552,0.00029684158695823977,43.4155809381403728,0.000495744973995866601,3.3205135250562221,471.78125980632376,6.83404379119085981,2.79420112365087148,69.9999206448319882,1.67575894446247236e-09,113.700001047478835,28.5969980778046526,15.2880000000000003,0,0,0.0200835795555658371,5.05622819343119236e-11,-3.94162603380559734e-05,2.32482468580976756e-09,7.14768170397066036e-07
0.18,31.2221851530022434,131.010386294375877,3.53351204963262022,4.16207877285686756,0.000320492787063832857,36.2151660219171347,0.000526966735016640565,3.31665933612355879,407.101567211914528,7.2444022294323478,2.96528531587496236,69.9998961790314524,4.45070668055043651e-09,113.700001195059045,32.1341903991183955,15.2880000000000003,0,0,0.0212895378539265934,6.5741708189353534e-11,-4.79243856484647045e-05,2.99669991322666987e-09,9.21230820748327094e-07
0.19,31.2221850444828668,131.010386588308563,3.60153760019172342,4.17456309251139679,0.000342914278589344943,40.9041800427263027,0.00055982867240863632,3.31244583927210501,448.953132831826849,7.67810673790947895,3.14433961722118216,69.9998665624008964,8.30674092292676784e-09,113.700001352409558,36.0967170721845179,15.2880000000000003,0,0,0.0225641073333706747,8.40032927522686365e-11,-5.75836346763551867e-05,3.80911503044151526e-09,1.17316671380156179e-06
0.2,31.2221849296486234,131.01038689934137,3.67347464118590317,4.20078915399145636,0.000366573034254704516,37.5214898208491761,0.000590466919182690893,3.30812712915434881,418.515630199161365,8.08216006412957277,3.31318683933006453,69.9998311045104487,1.34800080829191884e-08,113.700001520067786,39.9955165273270055,15.2880000000000003,0,0,0.0237515420632470921,1.05728805481567758e-10,-6.85028882131185225e-05,4.78351733027568889e-09,1.4690610466811608e-06
0.21,31.2221848088436893,131.01038722653837,3.74905730552401684,4.22722562033261262,0.000390310433246848657,36.0064697775761644,0.000620601272787201603,3.30359776763142721,404.818761014464428,8.48018829437500621,3.47992805775657654,69.9997890742529592,2.02433263776548733e-08,113.700001697833756,44.0315784885794201,15.2880000000000003,0,0,0.0249212734096428447,1.31320595517854955e-10,-8.07208291683553139e-05,5.93661589182972911e-09,1.81631626331753899e-06
0.22,31.2221846819136672,131.010387570319409,3.82840670130281646,4.2176244726165093,0.000410696285369717819,43.5935627685881499,0.000655758920494764063,3.29841875767922987,472.542185872136486,8.94831461811120121,3.67066782999472752,69.9997397083127737,2.88926538075102191e-08,113.700001886238866,49.0266756129506618,15.2880000000000003,0,0,0.0262970098082033268,1.61186003536399267e-10,-9.43348117723774896e-05,7.29106197993283208e-09,2.23980539128825791e-06
0.23,31.2221845484548304,131.01038793178239,3.91183756115468473,4.25320537954326383,0.0004356497720089569,36.207459360748949,0.000683686922722525747,3.29355466128287455,406.340642146102141,9.31799902525197865,3.82760028360492655,69.9996821549030983,3.9766623706965518e-08,113.70000208621326,53.1608354775167555,15.2880000000000003,0,0,0.0273834518362109196,1.95767624418301473e-10,-0.000109505708778552874,8.87784718088286285e-09,2.70740355927931971e-06
0.24,31.2221844093456014,131.010388308538637,3.99866964940866776,4.27135264557773553,0.00045883378920767232,37.3286080087975947,0.000713911697673520317,3.2882529474867046,416.232824001711379,9.7203332459195213,3.9956861712714935,69.9996155408946805,5.32509871046438109e-08,113.700002296918697,57.8502398901668755,15.2880000000000003,0,0,0.0285658473732890855,2.35534745143307651e-10,-0.00012617657385590063,1.07071802425012536e-08,3.25424194465518317e-06
0.25,31.2221842644570167,131.010388700938847,4.08900446593793809,4.29698686981540234,0.000482848983334858658,38.3649566400252979,0.000742483922667206905,3.28284626589867479,425.364080791506922,10.1009615935159527,4.1562806652626314,69.9995389781877293,6.97479781374676735e-08,113.700002518962805,62.4689963611702623,15.2880000000000003,0,0,0.0296844577155840929,2.80933085873043406e-10,-0.000144451636124542286,1.28055329635332884e-08,3.87142965072796435e-06
0.26,31.2221841140756986,131.010389108203611,4.18262110402873155,4.32755423691547136,0.000507438991606541483,41.7865661614553829,0.000769736419800412888,3.27732087646770287,455.80158342417883,10.4644497354123782,4.31094871887776954,69.9994515368878751,8.97024502886333285e-08,113.700002752408935,67.0452443356678742,15.2880000000000003,0,0,0.0307527002093570291,3.32431765373287754e-10,-0.00016436315770221847,1.51925047864838523e-08,4.56355359993810651e-06
0.27,31.2221839578137299,131.010389531387915,4.27982215321117465,4.33742811840656994,0.000529702335486379188,38.2242911032538473,0.000800211178185602123,3.27123004841987974,423.842199659872563,10.8736118498261902,4.48123226393084195,69.9993522521519935,1.13587393208351198e-07,113.700002998306658,72.3900346549699947,15.2880000000000003,0,0,0.0319551720828357214,3.90484337603431509e-10,-0.000186059811616844751,1.79019946498730075e-08,5.36790267753501075e-06
0.28,31.2221837957695953,131.010389970223883,4.38053283172365671,4.35979025650862262,0.000553527510562852902,44.1207307275094038,0.000828072271385077072,3.26514386100193477,476.346873201222195,11.2478718916014184,4.63949182586423614,69.9992400702920463,1.41938296327408329e-07,113.700003257081931,77.4582454645660761,15.2880000000000003,0,0,0.0330550782151640757,4.55595825375374429e-10,-0.000209619220926101062,2.09616181379585756e-08,6.25569396794615011e-06
0.29,31.2221836278828384,131.010390424876022,4.48480177698289584,4.38135974025744623,0.00057737648726709299,35.3536197607625553,0.000855659611391794222,3.2588361863853601,397.970310422111766,11.6195889013503368,4.79682445966682813,69.9991139044831527,1.7532937395312496e-07,113.700003529427192,82.6616578528940948,15.2880000000000003,0,0,0.0341475147840558241,5.28268525040872464e-10,-0.000235137545717689308,2.44023887909330158e-08,7.24907222782668121e-06
0.3,31.2221834544381096,131.010390894570321,4.59240982688131272,4.39617507281761988,0.000600356665334356751,33.1490797613948018,0.000884158719714270942,3.25217107922164672,378.185945710871067,12.0052186882677852,4.95887519756831807,69.998972627127344,2.14383684192303281e-07,113.700003815596887,88.2385269149682756,15.2880000000000003,0,0,0.0352808420099011907,6.09029939588318471e-10,-0.000262641159892275291,2.82471356422800846e-08,8.36561857411674722e-06
0.31,31.2221832755909574,131.01039137888381,4.7032380575360353,4.42235615181669761,0.000624899913490765827,34.9528590290802086,0.000910025197609511073,3.24555398289468222,394.16562209302117,12.3556398803864607,5.10879227158949156,69.9988150759387651,2.59766173767152649e-07,113.700004116072961,93.4639131761651498,15.2880000000000003,0,0,0.0363107024397255479,6.98403788157463991e-10,-0.000292187019282257228,3.25229566712151178e-08,9.57826248689966157e-06
0.32,31.2221830914257232,131.010391877587324,4.81722282885169673,4.45155794779377789,0.000649944303128982049,38.0379859115142835,0.000934821026682707218,3.23882361682650144,421.559393462426954,12.6924793110791878,5.25399282922068878,69.9986400687318024,3.12179641788393281e-07,113.700004431478234,98.6283237403037703,15.2880000000000003,0,0,0.0373006526995305274,7.96905013945712519e-10,-0.000323836613651358495,3.72580440687311147e-08,1.09050644159405278e-05
0.33,31.22218290196043,131.01039239063175,4.9343519698327194,4.48019701204722054,0.000675004219851668761,37.7093551175013246,0.000959261610436717115,3.23189933669563656,418.515630199168186,13.0256844327599097,5.39788776638052958,69.9984463826819052,3.72372687880250348e-07,113.700004762578004,103.87354288045799,15.2880000000000003,0,0,0.0382799263433428877,9.05047894999210997e-10,-0.000357667290238851605,4.24836225249657193e-08,1.23603484615852587e-05
0.34,31.222182707020778,131.010392918491164,5.05476263450916541,4.49049305198152204,0.000697378143373914754,29.5227085089536203,0.000987142430045659337,3.22427911658814059,345.465636880756449,13.4081741031825317,5.55863100914667463,69.9982327456812641,4.41143957445642244e-07,113.700005110463266,110.062177258613033,15.2880000000000003,0,0,0.0394040418267209702,1.02333461745717641e-09,-0.000393806243978271305,4.82396483202145133e-08,1.40087103268591529e-05
0.35,31.2221825067937928,131.010393460657156,5.17831168393457641,4.50711781535187139,0.000720712543856854714,32.3530371383660977,0.00101333646443235357,3.21661305844837253,370.576570052703289,13.7686530554979374,5.71176159517965232,69.9979978091806316,5.19362042776584697e-07,113.700005475786654,116.058400304168075,15.2880000000000003,0,0,0.0404634764462946869,1.15232390415689195e-09,-0.000432299813734132244,5.45552399130644805e-08,1.57912776608867467e-05
0.36,31.2221823012122108,131.010394017312592,5.30505329869157727,4.52767240178778962,0.000744729708600240731,36.5526511043957356,0.00103828652712813154,3.20885713174522058,407.862523277719447,14.1132764952183631,5.85938873702120233,69.9977401961163537,6.07939829707116331e-07,113.700005859608282,121.939407863977465,15.2880000000000003,0,0,0.0414763190843316643,1.29254043868676357e-09,-0.000473255972436325862,6.14699225552327593e-08,1.77198251922661022e-05
0.37,31.222182090341061,131.010394588280832,5.43493909097431604,4.55039311415752579,0.00076918150115683735,34.6835787828593496,0.00106234372950533948,3.20097384516078431,391.121890829766642,14.446930470491731,6.00318739776240751,69.9974584775585669,7.0785096329375243e-07,113.700006262864989,127.771540530283914,15.2880000000000003,0,0,0.042456928843506235,1.4445318520011827e-09,-0.000516746496826029863,6.90186481791334769e-08,1.98053803654614999e-05
0.38,31.2221818741223878,131.010395173719473,5.56801609611825477,4.56315131642791805,0.000792019287104061913,36.2353933787001239,0.00108827974821363053,3.19255015153205646,404.818761014460279,14.8084413239345949,6.1564787166299757,69.9971511865591651,8.20121521966083772e-07,113.700006686723384,134.244380272309172,15.2880000000000003,0,0,0.0435194095147296359,1.60882660749176723e-09,-0.000562873331420229127,7.72423853301427293e-08,2.21128406351508731e-05
0.39,31.2221816525004634,131.010395773780147,5.704329739781131,4.57922628245169783,0.000815489716137310881,30.9425419640016202,0.00111309493143926189,3.18402316666385765,357.640624933827439,15.1559126959619999,6.30488433186772657,69.9968167722787769,9.45855271408966431e-07,113.700007132429306,140.616382889747683,15.2880000000000003,0,0,0.0445406353688629561,1.78596578656278109e-09,-0.000611756345505213715,8.61868943159197994e-08,2.45968452142520012e-05
0.4,31.2221814256617982,131.010396387955836,5.84373750626454935,4.59349479979191955,0.000838670682925170751,29.5834243852937959,0.00113797512888990423,3.17521289611434332,345.465636880754005,15.505969085398343,6.45410901523083158,69.9964536498379317,1.08621525395706341e-06,113.700007600947828,147.185065961143067,15.2880000000000003,0,0,0.045569462889951777,1.97653506559195414e-09,-0.000663427505461186432,9.58835144134294998e-08,2.72901174189528038e-05
0.41,31.2221811937141673,131.010397015953487,5.98615797249314241,4.60939449845229365,0.000862163931524819621,33.360545626359837,0.00116210409424792778,3.16624854525325983,378.946870776686467,15.8471768437686258,6.60022848408685459,69.9960602026584695,1.24241947051318175e-06,113.700008093413757,153.73182724817184,15.2880000000000003,0,0,0.0465722905345462151,2.18109996727848554e-09,-0.000717942131686907965,1.06367950505874699e-07,3.01820283711074823e-05
0.42,31.2221809567080335,131.010397657635991,6.13155423418529733,4.63387609959193458,0.000887317919769279608,37.5676427387571721,0.001183742077125155,3.15743374731593907,416.232824001711379,16.155026338188506,6.73482947265292431,69.9956347739890248,1.41574639558456e-06,113.700008611107208,159.760443802515937,15.2880000000000003,0,0,0.0474770882933877245,2.400206535531791e-09,-0.00077537935552726017,1.17680930846389008e-07,3.32294321368729263e-05
0.43,31.222180714655078,131.010398312971745,6.27991949833728835,4.65367427313455995,0.000911660169575580258,33.0386483003103493,0.00120612360190941372,3.14823214930187856,375.903139513433644,16.4750454055619109,6.87353555569934649,69.9951756835756242,1.60752723178871754e-06,113.700009155418982,166.15023929888028,15.2880000000000003,0,0,0.0484176551665520677,2.63438237315801404e-09,-0.000835821567166909188,1.29864614855892046e-07,3.65287677570896608e-05
0.44,31.2221804673911407,131.010398982407111,6.43138341412837455,4.65757387742934892,0.000932929976641759203,30.4788052564327749,0.00123214974254881528,3.13809943757763454,353.075012538921555,16.8483715860516412,7.03046484016701978,69.9946811832270441,1.81916859536649675e-06,113.700009728069276,173.762989227436179,15.2880000000000003,0,0,0.0495148886868988364,2.88411342836306464e-09,-0.000899417740154189794,1.42975581697416844e-07,4.01983191819108926e-05
0.45,31.2221802146980103,131.010399666535704,6.58611776122768511,4.65827001030579346,0.000953562143933252499,35.4620561517945134,0.00125873275223327787,3.12754579585638304,397.209385356286873,17.2316459864824161,7.19073264961644831,69.9941493995125938,2.05218870761162579e-06,113.700010330973456,181.755888424112015,15.2880000000000003,0,0,0.0506413642318551335,3.14987863732273609e-09,-0.000966369542842942814,1.57083782729145849e-07,4.41725079750487196e-05
0.46,31.2221799565319174,131.010400365476642,6.74415901717088939,4.66907507286434065,0.00097630283571516251,41.3913707355688842,0.0012823814722795761,3.11722412848720953,449.71405889764344,17.5754687869478978,7.33738035579407555,69.9935783582983362,2.30821229426708146e-06,113.700010965912341,189.078525726536213,15.2880000000000003,0,0,0.0516519027755614896,3.43223060675433133e-09,-0.00103681314204437207,1.7224885851047691e-07,4.83373548649469587e-05
0.47,31.2221796928065203,131.010401079464799,6.90557672428163105,4.67806301106434042,0.000998761260684927557,28.0209900204918974,0.00130616618884544979,3.10657060381263461,331.007810630253402,17.9233234115620377,7.48533101007974988,69.9929660462147325,2.5889364060732201e-06,113.700011634803886,196.634049649816575,15.2880000000000003,0,0,0.0526742959306323727,3.73170463860384924e-09,-0.0011108841623615434,1.88532207060213475e-07,5.28148505664365441e-05
0.48,31.2221794239793269,131.010401807256216,7.07001851744381948,4.68642527483421745,0.00102109091231145262,27.6007969606275125,0.00132978852885184593,3.09563681785184297,327.203122301157407,18.2709832353803314,7.63313726727991071,69.9923104035261474,2.89614261094227829e-06,113.700012338884164,204.33305198470137,15.2880000000000003,0,0,0.0536961221459722679,4.04904859899578719e-09,-0.00118849531779471017,2.05948560519311644e-07,5.75998398329450787e-05
0.49,31.2221791502289392,131.010402548365278,7.23734841566291642,4.70156796398202914,0.00104489945272251677,34.6487244505178253,0.00135120419031512233,3.08484494341801163,389.60000969812296,18.589315545984995,7.7707981814672209,69.9916093757078812,3.23165731652504743e-06,113.700013079832303,211.511801733856089,15.2880000000000003,0,0,0.0546317638991248022,4.38486615800834454e-09,-0.00126967773493266863,2.2453662401782158e-07,6.26054017926546362e-05
0.5,31.2221788715876762,131.010403302704333,7.40754387012007864,4.72212438923579736,0.00106996435823571525,35.6033845714535389,0.00137072557486675028,3.0741588573465477,397.970310422105001,18.8826594549893159,7.8998011517407587,69.9908609011483378,3.5973597360057951e-06,113.700013859590555,218.236320199079358,15.2880000000000003,0,0,0.0554939729313439212,4.73968531279909998e-09,-0.00135450679800636423,2.44344941868023912e-07,6.78409867869358833e-05
0.51,31.2221785881337617,131.010404070060673,7.5805467220577798,4.73558879650721298,0.00109346949398930206,27.1956639286467201,0.00139183542187690463,3.06284319292573448,323.39843497208409,19.200774511812984,8.03722958125224807,69.9900628955037689,3.99519228958782199e-06,113.700014680103109,225.647740475438098,15.2880000000000003,0,0,0.0564289867670437692,5.11403675587933804e-09,-0.00144303978709531136,2.65418546512062939e-07,7.34915902759761199e-05
0.52,31.2221782998783155,131.010404850466045,7.75636858307395194,4.74514875000908454,14.3926917902440845,32.9068149885903551,-0.843460968302692793,3.05079101879002312,372.098451184341457,20.1604067121878856,8.17728644592739329,69.9892125255241098,8.88034658211434618e-06,113.70002028280571,248.762401502318852,15.2880000000000003,0,5.0128861411609531,0.0592493588880123045,5.50882473502556868e-09,-0.00154722581595822758,5.82495896933280061e-05,8.27344249456959523e-05
0.53,31.222178007156149,131.010405644563264,7.93512843419652558,4.75549269164999266,14.1952490250076728,34.5505726433560554,-0.865214597678054864,3.03880049577832656,386.55624643486243,20.4778597222263272,8.31688855256948933,69.9883021132075811,0.000312399106050013323,113.700343714362432,256.653880571246759,15.2880000000000003,0,5.03195012401478436,0.0601824419499321847,6.03151464406373071e-09,-0.00164359919418038221,0.000358901299976108418,8.92701550533678138e-05
0.54,31.2221777100732965,131.010406452740455,8.11690370920199733,4.76560516082547192,14.0044073375201741,30.3484328015576068,-0.887229795469801963,3.02655205819479134,349.270324209843579,20.793636569452481,8.45575518090055667,69.9873354274527912,0.001094322017301566,113.701176300989204,264.62570360883592,15.2880000000000003,0,5.05097530792080285,0.061110604764405857,6.74258490380508831e-09,-0.00174412871741209388,0.000667316680237074614,9.61893981773612509e-05
0.55,31.2221774089025033,131.010407274293698,8.30149376384878224,4.7768328274495957,13.8234521414644931,32.1641720566585363,-0.909249990263226837,3.01414002487140031,365.250000591990727,21.1021847428439564,8.59193110363764134,69.9863100848126436,0.00236658141333129061,113.702530747940443,272.532482051466502,15.2880000000000003,0,5.06993035196212372,0.0620175288971373667,7.641834708999257e-09,-0.00184878170933351952,0.000983180154745113373,0.000103472176526778588
0.56,31.2221771036594724,131.010408109220464,8.48889873091158442,4.79014021080836283,13.6545295250666605,30.0231094176650615,-0.931071276577419282,3.00164517476475279,346.226561946578727,21.3992237056020933,8.72391053101198999,69.9852236795967855,0.00414090510911019165,113.704419544015181,280.253891945427995,15.2880000000000003,0,5.08881559290966567,0.0628906341412294179,8.72858749897446559e-09,-0.0019576674800630238,0.00130660486791652516,0.000111106548912571853
0.57,31.2221767944262858,131.010408957336779,8.67906706764824953,4.80097544429126177,13.484776018106702,29.6880430298740734,-0.953566602207074454,2.98873246861907393,343.182829683302316,21.7038099088496885,8.85843472037090862,69.9840737601229961,0.00642900742324724328,113.706855164453231,288.283401998852355,15.2880000000000003,0,5.10763010663640493,0.063785925858401149,1.00020478389474066e-08,-0.00207084822282334151,0.00163756353955762457,0.000119200761279332647
0.58,31.2221764811970424,131.01040981869744,8.87201535119484319,4.80636709212297308,13.3062373176869073,39.0811325296162622,-0.977375584897328342,2.97514283755051068,426.12500585731533,22.0291900590647671,9.00017567104099392,69.9828578143125384,0.00924270078435029778,113.709850189999997,296.98649288541975,15.2880000000000003,0,5.12637233534800263,0.0647423354832478426,1.14611992418933197e-08,-0.00218843849049615976,0.00197617935027082211,0.000127855557574566719
0.59,31.2221761636127901,131.010410694319063,9.0680344392805754,4.81742773842717042,13.1484756638756473,31.6869634802932119,-1.00027934544789598,2.96174776598603984,360.68438819711065,22.3274935252505529,9.13222773171129276,69.9815731838947244,0.0125945519636015534,113.713418005782401,305.078363340356361,15.2880000000000003,0,5.14507000037173956,0.0656191747848850482,1.31046388687144704e-08,-0.00231079184072427533,0.00232323898075983146,0.000136829380013977385
0.6,31.2221758418850222,131.010411583666553,9.26697278328953544,4.81932691206707453,12.9720916930798573,28.165023915242962,-1.02533726454041352,2.94732672006324004,329.48595949860578,22.6636669368494843,9.27751046771137844,69.9802171371869974,0.0164972841942867404,113.717572163767983,314.328330511831666,15.2880000000000003,0,5.16370389724928369,0.0666073179204445531,1.49315935317039655e-08,-0.00243789644062670802,0.00267848984585621498,0.000146526338714812206
0.61,31.2221755159835901,131.010412486862151,9.46886629735255347,4.81950071009408987,12.7967871574383203,32.9994685234989049,-1.05108178439739941,2.93245206305521577,372.09845118432969,23.005873197397424,9.42478274714712683,69.978786813717619,0.0209639206951141924,113.722326539576713,323.886011540317327,15.2880000000000003,0,5.18227601526688275,0.0676131980093876289,1.69408973301491067e-08,-0.0025699016295906334,0.00304213067611391365,0.000156789533333403705
0.62,31.2221751860292542,131.010413403618031,9.67363403714855963,4.83279285770128375,12.6600044091630508,41.0252916791941189,-1.07423423290590625,2.91846813857670551,442.86563930529212,23.2863207147827858,9.55017223191434361,69.9772793699530098,0.0260077443750017304,113.727695277851893,331.824124909723025,15.2880000000000003,0,5.20078520819988288,0.0684375783946902794,1.91315058867306219e-08,-0.00270688468002019088,0.00341416122409500316,0.000167156756414366727
0.63,31.2221748518659439,131.010414334395421,9.88140866219591274,4.84150131115545701,12.5160437469632626,23.2753153440845963,-1.09861558773934953,2.90381984234172474,286.112512747078938,23.5847737908054214,9.68178588514176575,69.9756918643793995,0.0316415620656982366,113.733692026777334,340.377601842193258,15.2880000000000003,0,5.21923426206082564,0.0693148826894793846,2.15015780669885873e-08,-0.00284905612365323911,0.00379492665259007714,0.000178187552020644236
0.64,31.2221745140468769,131.010415277728896,10.0917735896113232,4.84309550484186158,12.3587478517158029,22.8507548854131883,-1.12487059503264564,2.88821739704749181,282.307824417967538,23.9139500418792785,9.82409961342002269,69.9740213204027128,0.0378782830120675262,113.740330541185216,349.938242409056272,15.2880000000000003,0,5.237570419676147,0.0702824877745914789,2.40508319833827562e-08,-0.00299614998241343709,0.00418352274536622389,0.000189998746703509821
0.65,31.2221741725673674,131.010416233666774,10.3047438752907023,4.85437634749098201,12.2296193084297684,40.3710598564288219,-1.14914244463997162,2.87328247337251108,436.778144778747503,24.1952076763116182,9.94944095623248259,69.9722647137201506,0.0447304992906720628,113.747624243537345,358.210735746140472,15.2880000000000003,0,5.25584258924089376,0.0711092676194202272,2.6777391099802654e-08,-0.0031483142524253863,0.0045801453189155978,0.000201992115175215976
0.66,31.2221738269731759,131.010417203476408,10.520682086402207,4.86280696799251455,12.0973691929510725,34.3415030951223272,-1.17431003471155382,2.85780474449019906,383.512515171600171,24.4870595300119973,10.0783959123814135,69.9704190598197329,0.0522108954889633561,113.755586648490649,366.89699780623198,15.2880000000000003,0,5.27403115130918909,0.071967190136386569,2.96779841422122569e-08,-0.00330599850431171184,0.00498574377017433051,0.00021466303819428587
0.67,31.222173477448198,131.010418186694977,10.7394576144695133,4.86492303855864083,11.953830015926636,23.6467000676438204,-1.20127298488844803,2.84138536997723001,289.156244010342505,24.8068243507181769,10.2170470739018526,69.9684810401598156,0.060333055957167564,113.764232240708026,376.533918023429806,15.2880000000000003,0,5.29214198615085074,0.0729071552606799095,3.27514375943916563e-08,-0.00346919876503660541,0.00540009830555854536,0.000228196622867124559
0.68,31.2221731241604878,131.010419182902069,10.9609520037688046,4.86831865401173047,11.8172488371656037,29.5253421765193771,-1.22822798776425279,2.8247945029935333,340.899992485846269,25.1182315288609317,10.352644956675519,69.9664474335450279,0.0691104773447126092,113.773575401881004,386.038519679211731,15.2880000000000003,0,5.31018806608976757,0.0738225641517995523,3.59963942217985419e-08,-0.00363793450765173684,0.00582305781608178762,0.000242294500418769568
0.69,31.2221727671954277,131.01042019190001,11.1851103381815769,4.87700168755168129,11.6965844120541806,36.3573290079692342,-1.25409764366130339,2.80850559520010323,401.014072685363431,25.4010223823768264,10.4780854413319116,69.9643148370982004,0.0785564714411495224,113.783630330662589,394.771297546302435,15.2880000000000003,0,5.32812885305054529,0.0746538761805977252,3.94111805111389607e-08,-0.00381226727191611185,0.00625457906601094293,0.00025675848863602617
0.7,31.2221724064382329,131.01042121403205,11.4120318940110348,4.88489165620618948,11.577321595187497,30.4915854286669799,-1.28040405082713216,2.79185722423018312,349.270324209852845,25.684904462192705,10.603802698834599,69.9620799630864525,0.08868414681165597,113.79441100018235,403.635746043958136,15.2880000000000003,0,5.34598502903904826,0.0754884019016048291,4.29930792043706688e-08,-0.00399241966845594563,0.00669500553775653762,0.000271891073999297374
0.71,31.22217204194936,131.010422249166311,11.6416805882825436,4.88855143352332266,11.4515916326258846,25.0547208906617129,-1.30809413673374064,2.77442169251200799,301.331264063405797,25.9874787657299855,10.7359716392232762,69.9597392601294672,0.0995069556158634377,113.805931762990397,413.192498873855868,15.2880000000000003,0,5.36377144365750436,0.076377871172447806,4.67402205142367837e-08,-0.00417847147032632781,0.00714432943845328371,0.000287907395283783251
0.72,31.222171673741542,131.010423297300434,11.8740572668685331,4.88723778483210225,11.3178690025606024,30.6812587219673354,-1.33744642476789588,2.75605655042810271,350.79220534145287,26.313299624553192,10.8761842113461498,69.9572891887462447,0.111038590518099528,113.818207221036914,423.608888755872272,15.2880000000000003,0,5.38147384272694485,0.0773356698362160921,5.06504636296120625e-08,-0.00437056088825877806,0.00760268298685923879,0.000304911655864053275
0.73,31.2221713018229821,131.010424358444965,12.1091665344828137,4.89609526462878453,11.2100587812874046,38.8185912821492423,-1.36428255443501545,2.73865329423138881,422.320318528233997,26.5841805203560071,10.9970207559749653,69.9547260210344177,0.123293235588458741,113.831252505366578,432.365658592562284,15.2880000000000003,0,5.39907525185756043,0.0781320051145759781,5.47216106152389071e-08,-0.00456884600309449829,0.00807024171633310972,0.000322019026452721681
0.74,31.2221709261446918,131.010425432761764,12.3470560972580703,4.90101856299699623,11.0963047714190139,24.2953921449152617,-1.39246883367178365,2.72046234938902387,294.482813471059444,26.8727092827181657,11.1239391351311578,69.9520460481639645,0.136284540663819398,113.845082180735247,441.791772502247454,15.2880000000000003,0,5.41660872391078385,0.0789802150420963051,5.89511860231294483e-08,-0.00477348330580532401,0.00854716592269608687,0.000340085938790402954
0.75,31.2221705470517961,131.010426519347391,12.5874701794148045,4.90325799673357565,10.9794507637687619,28.368584092311032,-1.42171514677990785,2.70160274780004661,330.246885564414924,27.1729139827252304,11.2548478986643143,69.9492454761468281,0.150026247474665142,113.859710911969344,451.707308654968415,15.2880000000000003,0,5.4340557044924287,0.0798627480452187288,6.33391182797077626e-08,-0.00498429458568029529,0.00903285151491367393,0.000359063867117139174
0.76,31.2221701644502971,131.01042761848413,12.8304908829176227,4.90879908166920131,10.8724509938500571,30.5396141317133676,-1.45026996566386845,2.68288350977987866,349.270324209861712,27.4529654575974895,11.3785923262805966,69.9463204617674279,0.164531962735502357,113.875153223748015,461.055366535631435,15.2880000000000003,0,5.45140408448074343,0.0806860565674978464,6.78822314991262769e-08,-0.00520152250532208808,0.00952766255370138433,0.000378565818177097394
0.77,31.2221697782953314,131.0104287303202,13.0761621679217619,4.9148116217181661,10.768933034970944,28.5557253109328393,-1.47893750397356261,2.66393350958539088,331.76876669607077,27.7276516807661189,11.5003566953803116,69.9432670234462393,0.179815432863448588,113.891423795914633,470.316795044882952,15.2880000000000003,0,5.46865326227678494,0.081493603174036866,7.25777615124592308e-08,-0.00542535351356461353,0.0100318234912060763,0.000398797601661078378
0.78,31.2221693886557858,131.010429854696042,13.3244403213236566,4.91709842018369958,10.6599337950684241,23.4528259483406778,-1.50901424597916667,2.64413682491148938,286.873437812889904,28.0199039231409301,11.6281725633209145,69.940081224425299,0.195890407251487791,113.908537305086554,480.271966031571878,15.2880000000000003,0,5.48582162269698248,0.0823527846425477633,7.74239199235136064e-08,-0.00565584831617038132,0.0105452740842612441,0.000420112348379944134
0.79,31.2221689956225816,131.010430991392781,13.5752647673020093,4.91709603433341069,10.5485913899381369,33.3347989313548752,-1.54012108036343753,2.62366065499000278,373.620332315953419,28.3223728459066102,11.7594645599611454,69.936758870861766,0.2127708147601233,113.926508634331213,490.684979615032375,15.2880000000000003,0,5.50290559507740173,0.0832420010581287895,8.24190969696529001e-08,-0.00589306326264365729,0.0110679484444583427,0.000442447076249494133
0.8,31.2221685989967455,131.010432140972057,13.8287973322305895,4.9230541436119486,10.4520657296965727,33.7761597179467472,-1.56962960976573673,2.60376805702332614,377.42502064505743,28.5890939666611033,11.8781372150500708,69.933295736363263,0.230470941942673396,113.945353043120662,499.958208075255072,15.2880000000000003,0,5.51991837224889537,0.0840261587719228764,8.7558841711785399e-08,-0.00613738199974814876,0.0116004886198735908,0.000465118446571846113
0.81,31.222168198882148,131.010433303178303,14.0849670711264832,4.92453166193595493,10.3484078002523763,21.9952676826592644,-1.60085109053780794,2.582858389612118,273.937492693991885,28.8781500107546485,12.0045298454209934,69.9296875016955255,0.249004952210437169,113.96508566582618,510.106632930013291,15.2880000000000003,0,5.53682065801162526,0.0848759682218649253,9.28420625882860789e-08,-0.00638881609850439677,0.0121427191071806391,0.000489056558974628819
0.82,31.2221677954634416,131.010434477538894,14.3436412021173929,4.92393723285948059,10.2427332499337869,28.2432310257044428,-1.63308196831323915,2.56126201213543236,328.725004432770049,29.1765391487596233,12.1340905566618424,69.925929759808497,0.268386986457596677,113.985721617468272,520.689712664665763,15.2880000000000003,0,5.55363218561246796,0.0857532160472408711,9.82682597682179378e-08,-0.00664731671243902911,0.0126943435547092268,0.000514089449397688351
0.83,31.222167388732359,131.010435664099333,14.6048346361270323,4.93067827229066236,10.1540208952833684,35.8821911024827003,-1.66312492191382955,2.54055173837334847,395.68750322465047,29.4302200178539586,12.2479101157130721,69.9220179927050793,0.288631263526606396,114.00727610157827,529.77025475724281,15.2880000000000003,0,5.57036197551277201,0.0864990683065357535,1.0383467896069246e-07,-0.00691306849391166902,0.0132555639794274746,0.000539277150162000463
0.84,31.2221669785952152,131.010436863131133,14.8686266172373109,4.93549967507089615,10.0633291772274109,22.1828236291804934,-1.69405965053370933,2.5192170848524813,275.459374825645227,29.691879945857405,12.3644248494304279,69.9179477427983755,0.309751609397807492,114.029763901821951,539.218696314692579,15.2880000000000003,0,5.58701116573663015,0.0872683790343758703,1.09538025037009989e-07,-0.00718630102619771845,0.0138266645197556107,0.000565561385227183609
0.85,31.2221665653370941,131.010438073889844,15.1348070698594661,4.93364103898895667,9.96127407785137464,24.1834763111682243,-1.72762776091366854,2.4963735577086279,292.960932339393764,29.9898071235100474,12.4935344235184669,69.9137143371666951,0.331761790172406201,114.053199753242851,550.079922471153964,15.2880000000000003,0,5.60356619635985087,0.0881442912989119226,1.15379502017513424e-07,-0.00746681516382146932,0.0144070424559214188,0.000593518991206374268
0.86,31.2221661487997508,131.010439296819754,15.4035045407981173,4.93612796669637888,9.86973502035089467,30.2650325980419055,-1.75995908393912637,2.47395134781617365,346.226561946558718,30.2596022237322302,12.612707807368853,69.9093130754680629,0.354676021470656355,114.077598863556062,560.007277836749381,15.2880000000000003,0,5.62003858446847104,0.0889375269422053583,1.21354334239823783e-07,-0.007754987114934748,0.0149972836657543528,0.000621954529408101642
0.87,31.2221657290118451,131.010440531862315,15.674704392772334,4.94048585086342751,9.78356957069848576,28.1876478296393067,-1.79186669553838396,2.45154736283469132,327.964078366998024,30.5153226336861145,12.7268661710648594,69.9047391225119554,0.378508361878081234,114.102976283739366,569.497553167448814,15.2880000000000003,0,5.6364068118749886,0.0896894021689712551,1.27460547553449822e-07,-0.00805093223103725032,0.0155974283458928161,0.000651129190396437514
0.88,31.2221653060125668,131.010441778929646,15.9483836317156289,4.94133809800094159,9.69231893320263005,24.3720511594303737,-1.82534175406741439,2.42814805498669539,294.482813471041823,30.7891047686230941,12.847248665686708,69.8999875680757157,0.403272744118893189,114.129346936371149,579.747171577859262,15.2880000000000003,0,5.65268503575800274,0.0904943709834975796,1.33696759193869624e-07,-0.00835472173023398337,0.0162074263267109123,0.000681742964118297614
0.89,31.2221648798846942,131.010443037817453,16.2244861496357835,4.93875690233417775,9.59624731666148811,26.7226829715600758,-1.86042974286728535,2.40371440363710276,315.028134248086985,31.0810648376419287,12.9738957989263213,69.8950533572685515,0.428983171544277786,114.156725827520773,590.778631388069584,15.2880000000000003,0,5.66887602253310252,0.0913527754465957575,1.4006173129532982e-07,-0.00866642128013893863,0.0168272186913544716,0.000713864497133647542
0.9,31.2221644505619622,131.010444308719002,16.5030691003923309,4.94369030869087211,9.51611795913836644,29.5089575387031218,-1.89291897268884535,2.38041811714781248,339.378142354214447,31.3243265804060975,13.0834231124568703,69.8899314045776805,0.455653996528210592,114.185128330168695,600.046444423159755,15.2880000000000003,0,5.68498598877606298,0.0920680543507559346,1.46551830508705508e-07,-0.00898629510031745578,0.0174571366183755815,0.000745986378990460565
0.91,31.222164018115663,131.010445591457511,16.7840842515785909,4.94516407825582238,9.43097838610089845,22.4739898061912271,-1.92700844317495101,2.35609053934415957,277.742181023078899,31.5857507850988206,13.1992109091762124,69.8846164939935477,0.483298932637092116,114.214569154938189,610.087417599567971,15.2880000000000003,0,5.70101008726332914,0.0928367233404273351,1.53166269857528539e-07,-0.00931438053971225637,0.0180970576883095063,0.000779654049376421747
0.92,31.2221635827422475,131.010446885524487,17.0673889452629446,4.94327545944795066,9.34111333419287604,26.7386415744823118,-1.96272989470596371,2.33069770940734688,315.028134248062145,31.8652832876608265,13.3212442976738217,69.8791033783534772,0.51193171328380338,114.24506303364997,620.916799761651419,15.2880000000000003,0,5.71694064605464636,0.093658623636728458,1.59906416417291976e-07,-0.00965054592201592017,0.0187465410333872706,0.000814919305308104964
0.93,31.22216314435952,131.010448191150942,17.3530511396625364,4.94825826425882909,9.26543161494190137,31.7881968768236405,-1.99592516891567606,2.30642595382010374,359.162507065472823,32.0988090168060367,13.4271061899896296,69.8733866872693028,0.541566080328947708,114.276624715356434,630.033678821381955,15.2880000000000003,0,5.73278593849908003,0.0943453078932366684,1.66767795520990483e-07,-0.0099951016900073162,0.0194059967323463554,0.00085017662800010755
0.94,31.2221627028653366,131.010449508616375,17.6411525646208531,4.9464615379307606,9.17871156269577426,23.0949367963748031,-2.03217877453776108,2.28032506727448281,283.068750483778672,32.3719889282135753,13.5467431423464983,69.8674610149976161,0.572215406653126091,114.309268563042309,640.78550270423716,15.2880000000000003,0,5.74854576087955049,0.0951485517476665099,1.73747233899064751e-07,-0.0103482875976061428,0.0200756854870949332,0.000887685002346216574
0.95,31.222162258539857,131.010450837191001,17.9314876690643636,4.94530357574597357,9.09459554277421489,29.8865428021589175,-2.06846243458527512,2.25398707117288088,342.421873617487279,32.6383617586745842,13.6639182563818959,69.8613207515113857,0.603893531163591124,114.343009442678365,651.356130121162664,15.2880000000000003,0,5.76421370400471567,0.0959317956372104652,1.80847476611716062e-07,-0.0107098924426578673,0.0207550236054088455,0.000926237500623894663
0.96,31.2221618111051136,131.010452177617708,18.2242701668534473,4.94746094540610049,9.01781200236384528,29.2829720425688933,-2.10359691713676833,2.22804946994921327,337.095335156783449,32.880352233798547,13.7724813231069003,69.8549602170762256,0.636614070146323319,114.377861991396088,661.032042492049982,15.2880000000000003,0,5.77980216961827598,0.0966433816360188908,1.88060644142240454e-07,-0.0110804881678682448,0.0214448866775093332,0.00096536609723019346
0.97,31.2221613605821737,131.010453529847922,18.5194884526570505,4.94759517602570309,8.93869309478745322,18.7534359789286889,-2.1398679899582409,2.20128251166856215,245.021887192993233,33.1322000329552893,13.884403604846705,69.8483735699739299,0.670390856470346685,114.413841084424632,671.178173177236999,15.2880000000000003,0,5.79530960518771998,0.0973839481913179594,1.95385451471448077e-07,-0.0114601957407399167,0.0221452985269313049,0.00100606648923258447
0.98,31.2221609072493891,131.01045489315598,18.8169382471965854,4.9412822100319147,8.84948996628856399,27.290904337938624,-2.1793213303844805,2.1725559572157298,319.593746642958081,33.423374081212053,14.0099959154052911,69.8415548921363722,0.705237502915747494,114.450961370362833,683.007460797287422,15.2880000000000003,0,5.81072540580287011,0.0982401123712545871,2.02826629592236038e-07,-0.0118487185795109733,0.0228555254794967494,0.0010492854255427478
0.99,31.222160450966804,131.010456267917618,19.1167287719961116,4.94523649303945323,8.77960354099730189,29.8219057191003216,-2.21439401871645192,2.14599466623334667,341.660948551705417,33.6439227217364945,14.1108124455336235,69.8344980901388084,0.741167867015412485,114.4892377675951,692.031107919980855,15.2880000000000003,0,5.82606073409233005,0.098888697512623594,2.10377688699613731e-07,-0.0122465058214172445,0.0235761952581311669,0.00109163708644343499
1,31.2221599917333279,131.010457654137525,19.4188636212052295,4.94291450862866721,8.69992685925566533,26.6903962035226741,-2.25259961323283386,2.11748770644616213,314.26720818227642,33.9027707505110385,14.2249383682598314,69.827197141433345,0.778194863761334954,114.528684199049806,702.700313025957939,15.2880000000000003,0,5.84130867550235067,0.0996498624448716036,2.18038108789328012e-07,-0.0126536394583025517,0.0243072564093926927,0.00113657345277279852
1.01,31.2221595297233847,131.010459051363341,19.7232163737952035,4.94139858088725248,8.62283889776172074,27.9151002970114313,-2.29068779572329673,2.08881130932903059,324.920316103697928,34.1531863251168843,14.3360384844390722,69.8196457834363855,0.816331931513683884,114.569315154069116,713.098496562044147,15.2880000000000003,0,5.85647152683245764,0.100386249620702639,2.25809585003554109e-07,-0.0130700305356604308,0.0250483601429892337,0.0011826112159835137
1.02,31.2221590648637282,131.010460459788561,20.0298443919119258,4.94125307088544297,8.54923094674071393,23.2991708801587976,-2.32835913112188164,2.0601339771152718,284.590631615404163,34.3911192158946406,14.4426946659574238,69.8118376891655714,0.85559201835268861,114.611144612424425,723.04761013037637,15.2880000000000003,0,5.8715529878902073,0.10108595404940085,2.33688446167118539e-07,-0.0134959471935157706,0.0257997890199699494,0.00122962038282215186
1.03,31.2221585972194688,131.010461879242996,20.3387015599947318,4.9367558222643142,8.46935273203357042,19.0295285962329253,-2.36840994984099718,2.02988596222704443,247.30469339049705,34.655480656132994,14.558518319138571,69.8037665744667493,0.895987744744919046,114.654186205799732,734.184558181407169,15.2880000000000003,0,5.88655033291958141,0.101863347693194661,2.41674998986965217e-07,-0.0139314119666700837,0.0265613886506590839,0.00127901474774371349
1.04,31.2221581268498412,131.010463309573993,20.6497467869296045,4.93601379209764257,8.39691177367108743,30.2842324882569223,-2.406873342059348,2.0002873274179076,345.465636880722968,34.8909849701868851,14.6641747606580228,69.7954258211103564,0.937532144920576793,114.698454025368818,744.174659447937415,15.2880000000000003,0,5.90146569248832531,0.102555928831542825,2.49768305196675371e-07,-0.0143765194819766139,0.0273331347001140972,0.00132880882231281258
1.05,31.2221576534795418,131.010464751493316,20.9631848736655755,4.93171977675313844,8.31960369993404392,18.2487406649333188,-2.44737914609863472,1.96928880303571363,240.456258798199826,35.1476869690353553,14.7771667936453746,69.7868088004477016,0.980237809515282055,114.743961697908631,755.142377880677031,15.2880000000000003,0,5.91630562661997139,0.103310824716500244,2.57959703488605817e-07,-0.014831887786948059,0.0281158909538158884,0.00138094258478366682
1.06,31.2221571773353865,131.010466204410989,21.2788503607267145,4.92438319408510594,8.23836100958687823,26.0179950251179584,-2.4897691525840373,1.93695870949239635,308.179683655939243,35.4226524533285527,14.8964774339264512,69.7779086104860369,1.02411789210303938,114.790723460379311,766.980517209895197,15.2880000000000003,0,5.93106134429122633,0.104119411250623975,2.66254347767037446e-07,-0.0152972748395538063,0.0289090441295954126,0.0014353718395190649
1.07,31.2221566983048326,131.010467668616684,21.596828027048069,4.92341378438796529,8.16865012683978975,30.6485766972397435,-2.52910584762418544,1.90611984853135819,348.509368144030759,35.6496546520247222,14.9989305060674365,69.7687181567246171,1.06918571715220434,114.838753743844862,776.81851126219965,15.2880000000000003,0,5.94574398624199585,0.104787025114509907,2.74646324833179505e-07,-0.0157731140524985693,0.029713130732432546,0.00148945978065812457
1.08,31.2221562162877753,131.010469144361821,21.9171917168410175,4.92085272117962447,8.09729685166130864,20.6118604864952566,-2.56951604176426773,1.87441341766881098,261.001578574662346,35.8843102552419424,15.1039836986787126,69.7592303349576639,1.11545396118202622,114.888066300767122,787.054405331951898,15.2880000000000003,0,5.96035448236906351,0.105477142771655916,2.83132374004939688e-07,-0.0162597059880640639,0.0305284449596567656,0.00154546771658093805
1.09,31.2221557315471756,131.010470630962772,22.2397493749028037,4.91104233201730711,8.01522709587083249,18.9543612082683701,-2.61414206955193507,1.83999948411990411,246.543753324744074,36.1676089914342924,15.2259962928460251,69.7494378969982307,1.16293522960249973,114.938674819642358,799.505932708466275,15.2880000000000003,0,5.97488413005243935,0.106310248568808108,2.91720305670030552e-07,-0.0167566875902394469,0.0313541781704732084,0.00160522961198972269
1.1,31.2221552441544858,131.010472128231271,22.5644499131935454,4.90467367475388194,7.93973422983866062,38.0895147553292119,-2.65720017532859787,1.80621875973026169,413.189061738584087,36.4232375443815499,15.3382593844698434,69.7393334499064395,1.21164204047237312,114.990592908884764,810.82221802334368,15.2880000000000003,0,5.98933578366871888,0.10706202961676857,3.00409589975550364e-07,-0.0172641454165474093,0.0321902793070514975,0.00166547944792309519
1.11,31.2221547537168043,131.010473637165887,22.8915795896609637,4.90540607933947914,7.87646367199894915,27.8713457784573144,-2.69647981135100823,1.77438634458925515,324.159391037639693,36.6235482860977655,15.4310754863593829,69.728909416722118,1.26158697302350831,115.043834255981366,819.739267997179695,15.2880000000000003,0,6.00372332675760578,0.107651218016548061,3.09185663006294006e-07,-0.0177830382989467156,0.0330381099749135487,0.00172491771570989138
1.12,31.2221542602888711,131.010475157611609,23.2210966396980716,4.89230364672982709,7.79225579888047371,10.4800691243630908,-2.74395470448319889,1.73745800954516527,172.73281794065943,36.9216699544913638,15.5580760198755286,69.7181582025100539,1.31278195298444023,115.098411864890508,833.112839673031317,15.2880000000000003,0,6.01804042588815058,0.108527920084521085,3.18051902952357031e-07,-0.0183133438515079433,0.0338974089276976032,0.00179075940081697168
1.13,31.2221537644434797,131.010476688103495,23.5525871708509946,4.88641712276433893,7.72035680292305138,32.8627261195058864,-2.78754823030105792,1.70253013005785636,367.532807790070478,37.1636572948325821,15.6653613114256274,69.7070717334572265,1.36524014529944382,115.154340074220087,844.042316960626749,15.2880000000000003,0,6.03227750954662678,0.109239628696857452,3.27024927935264033e-07,-0.0188541544049759258,0.0347665184274523198,0.00185566651795885632
1.14,31.2221532655294425,131.010478230283553,23.8865201861478447,4.88554473271495926,7.65709774688453937,18.1749799691600167,-2.82836173488768061,1.66898188602697828,239.695317731955441,37.3643600155166808,15.7581055423251719,69.6956422244177105,1.41897276481042445,115.211631159905835,853.156086626621914,15.2880000000000003,0,6.04645356745578244,0.109829992337398125,3.3608044294484158e-07,-0.0194069668189481119,0.0356476185777224522,0.0019203292932672368
1.15,31.2221527640147301,131.010479782947073,24.2225556472079724,4.87064366444198349,7.57305306635410425,17.9131242448946146,-2.8779123180776871,1.62991948379275287,237.412511535467729,37.6670319039948893,15.8865315499330606,69.6838617733642991,1.47399075468765317,115.270297121679107,867.006152304651891,15.2880000000000003,0,6.06055128156879164,0.110720095611614056,3.45237433195867309e-07,-0.019970856424945619,0.0365390248881231963,0.00199206986969964949
1.16,31.2221522600310912,131.010481345753618,24.5605993271317473,4.87063365591052477,7.51269830319213572,46.9649531585638798,-2.91855816227611564,1.59590907955398409,490.043774384589426,37.8535945284985189,15.9742019667921085,69.671722000936839,1.53030620628463865,115.33035119960212,875.587452072276619,15.2880000000000003,0,6.07457668006394602,0.111268910295167278,3.54495411677193664e-07,-0.020545857194718662,0.0374405992333210272,0.00205950934290361539
1.17,31.2221517527150496,131.010482920858465,24.9012657378123912,4.86313075960322028,7.44171547872036587,8.28766429057660758,-2.96404856247650228,1.55869151866369049,153.709379294867944,38.0930226835447598,16.0803294580619287,69.6592147916695978,1.58792937533646517,115.391804693727337,886.669840723522157,15.2880000000000003,0,6.08854836168703084,0.111973128884383419,3.63823436301861057e-07,-0.0211339300019796859,0.0383551677737997906,0.00213178726709947015
1.18,31.2221512431896677,131.010484505418418,25.243749666532473,4.84570592596320537,7.35666352838580107,22.817963963198828,-3.01619535520889803,1.5171105529762603,280.025018221967457,38.4060045923911915,16.2122235129202679,69.6463316439819948,1.64687125505582266,115.454669704467364,901.2702537983821,15.2880000000000003,0,6.10243602712155209,0.112893564764033782,3.73266134419794252e-07,-0.0217326716112746128,0.0392787963246893912,0.00221012136916734969
1.19,31.2221507309405943,131.010486100713393,25.5884170987296677,4.84939756659060084,7.30401101981108525,39.8958271063154655,-3.05484465974204911,1.48345746087262875,428.407813052929214,38.5512719246326654,16.2852141216307267,69.6330637879808023,1.70714306613032352,115.5189585942409,908.071033828636814,15.2880000000000003,0,6.11625215057267901,0.113321015517283616,3.82795793664069859e-07,-0.0223436278402497218,0.0402136633738016946,0.00228077213409242892
1.2,31.2221502155159634,131.010487707842543,25.9355822348522516,4.83565169151023522,7.22613855776042158,4.07730917561978234,-3.10513443375486142,1.44236587269996197,117.184374136023607,38.8284917678375052,16.4044472183623107,69.6194028332913888,1.76875375543879887,115.584681317650237,921.147037446575041,15.2880000000000003,0,6.12999713682719527,0.114136347194981974,3.9239995854128444e-07,-0.0229677802074010687,0.0411610181555532653,0.00236126407544521395
1.21,31.2221496980510338,131.010489323958836,26.2844392786598959,4.82256391753941305,7.15009284130462319,32.0227166341420642,-3.15529642946324929,1.40101353127091866,359.923432132008998,39.0977106238301815,16.5208490589593602,69.6053396745229946,1.83171418181671242,115.651849884797784,933.933640592365919,15.2880000000000003,0,6.1436597450820587,0.114928168464468003,4.02123364392300322e-07,-0.0236026776471537358,0.042116952747742166,0.00244327901120942664
1.22,31.2221491776668429,131.010490951228093,26.6356053250034392,4.8239973499974127,7.09600006718947185,23.1754632408855308,-3.19564995662989393,1.36542802554155607,283.068750482576149,39.2471468063399413,16.5951164339761306,69.5908654127799338,1.89603357272672257,115.720474586837312,941.054753709436909,15.2880000000000003,0,6.15726799125586588,0.115367895049122815,4.11923402342047367e-07,-0.0242507061369208049,0.043084834300239086,0.00251987089283992006
1.23,31.222148654699911,131.010492588783279,26.9888364322627723,4.8090559074652699,7.01879468614530833,8.97636276248560705,-3.24750551878835925,1.32236432394602499,159.796873822227951,39.5235189296732514,16.7139364769878611,69.5759713594256937,1.96171954948809457,115.790564018573988,954.322549711487682,15.2880000000000003,0,6.17080598732367225,0.116180760438936534,4.2182015395991499e-07,-0.0249109898623139925,0.0440631229581303421,0.00260661964686558899
1.24,31.2221481296298542,131.010494235421504,27.343793741995345,4.79951089021785648,6.95013750988952772,38.7847831679475163,-3.29576870229971464,1.28120329166841551,418.515630199805003,39.7530229823101067,16.8162609991070653,69.5606482485599003,2.02878103379352259,115.862128181484195,965.404875814467573,15.2880000000000003,0,6.1842689432104887,0.11685586371261987,4.31830740564734608e-07,-0.0255825648570023288,0.0450502015133111902,0.00269234375922832499
1.25,31.2221476016306028,131.010495893149653,27.7010487273440162,4.79820410844042566,6.89389022689051867,18.7070828776567772,-3.33815758717566435,1.24341911702548913,244.260946125734876,39.9108528403080811,16.89331933484074,69.5448869794511779,2.09722548626947702,115.935175539624851,973.05251665614901,15.2880000000000003,0,6.1976797020596317,0.117320284959812587,4.41914182599813617e-07,-0.0262677272088995863,0.0460492083466100544,0.00277533151646018475
1.26,31.2221470712315963,131.010497560632331,28.0602247533100595,4.77978694578657937,6.81400761745354977,10.9870720824261632,-3.39319838935445306,1.19729319544990065,177.298446336408631,40.2048944574058709,17.0182658482473457,69.5286784884769133,2.1670593962817053,116.009713538951601,987.409114922018375,15.2880000000000003,0,6.21100490982026265,0.118185116558935543,4.5210055564149943e-07,-0.0269650622255930249,0.047057853691898216,0.00286989977597856306
1.27,31.2221465386059407,131.010499237427297,28.4211988639121245,4.77492768021917691,6.75390176442472878,37.307626712752139,-3.4382936605985841,1.15712618867820938,405.579686079964688,40.3831634466978642,17.102443518251917,69.5120129401748699,2.23829114335927715,116.085751664294676,996.15035209948951,15.2880000000000003,0,6.22424509221417921,0.118709634414267462,4.62390207514002207e-07,-0.0276744848853483771,0.0480758187636045192,0.00295836121413080256
1.28,31.2221460030827132,131.010500925133329,28.7844262777156743,4.766715207822803,6.68969171003189977,12.0370283585052125,-3.48594683892834922,1.11499269154889991,186.429688124688823,40.5845329224103253,17.1946998942001414,69.494881112569928,2.3109260550539954,116.163296165293701,1006.07456515073557,15.2880000000000003,0,6.23743117162931515,0.119302065638003857,4.72753237039627203e-07,-0.02839776460218809,0.0491053952397671536,0.00305070961141049165
1.29,31.2221454654642621,131.010502621767301,29.149347098392262,4.7498391497998691,6.61413221883009328,19.847086006292308,-3.54040588624383412,1.06812695379615308,254.153128984572163,40.8548025438660716,17.3112177790448669,69.4772733945625589,2.38496996351695634,116.242353849987481,1019.4831971854436,15.2880000000000003,0,6.2505444814986193,0.120097043329051398,4.83230320089418478e-07,-0.0291328185797648624,0.0501434057119787974,0.00315040623814111676
