Time,Latitude,Longitude,Altitude,Angle of Attack,Angle of Sideslip,X-Acceleration,Y-Acceleration,Z-Acceleration,Thrust,True Velocity,Ground Velocity,Pitch,Roll,Yaw,Dynamic Pressure,cp,parachute_deploy_gain,Wind Speed,Mach,omega_x,omega_y,omega_z,Cmq,Angle of Attack(total),Angle of Attack(gust),True Velocity(gust),Acceleration
0.0,31.222186000000004,131.010384,3.000000003643237,0.0,0.0,0.0,0.0,0.0,2.2828121974499247,0.0,0.0,69.99999999623421,0.0,113.69999999388332,0.0,15.288,0,0.0,0.0,0.0,0.0,0.0,-0.0,0.0,90.0,0.0,0.0
0.01,31.22218600000153,131.01038399999584,2.99999882256592,0.0,0.0,0.0,0.0,0.0,34.24218696174923,7.502283530665459e-11,7.190531319924593e-11,69.99999999623329,-4.83564628150269e-13,113.69999999388072,3.446445726795683e-21,15.288,0,0.0,2.204725565824978e-13,-3.659182332138578e-19,7.589415207398531e-19,4.811147140404426e-19,-1.5108918610345807e-31,0.0,89.9999999995224,7.502283530665459e-11,0.0
0.02,31.22218600000288,131.01038399999217,2.999997775701936,0.0,0.0,0.0,0.0,0.0,25.871876237766408,1.5320717031631675e-10,1.4674636035870463e-10,69.99999999623222,-9.67129256300373e-13,113.69999999387804,1.4372842949972735e-20,15.288,0,0.0,4.5023593667086093e-13,-7.284483346386986e-19,1.5178830414797062e-18,9.757819552369542e-19,-6.170906918166791e-31,0.0,89.99999999902465,1.5320717031631675e-10,0.0
0.03,31.22218599928065,131.01038400193067,3.000201659671132,18.81500467334555,-0.00012974450181,11.96616230539064,-1.8916256735984712e-05,3.349833086198469,180.34219359854663,0.0882870268161719,0.0553390044312322,69.99999999799445,-4.212591857125379e-12,113.69999999488518,0.0047728553458352,15.288,0,0.0,0.0002594525584132,3.2187251995663407e-17,-7.20264389268894e-10,1.2365134327422308e-11,1.6874092354518158e-13,18.815004673776716,89.46786891739345,0.0882666465974854,12.426199017587786
0.04,31.22218599548236,131.0103840121632,3.001799604587872,9.46752327608497,-4.6177622759613696e-05,55.21900012092241,3.931876292165237e-06,3.349616504302861,548.6359724538078,0.3767519978512604,0.1853356633749705,70.00000000507204,-2.4624598767003407e-11,113.70000000019972,0.086915163246288,15.288,0,0.0,0.0011071759353184,1.6174128009138757e-15,-1.3693172015529268e-08,2.7753303060112748e-11,1.3689612277852356e-11,9.467523276196548,87.63554493451223,0.3767447442872393,55.32050167054111
0.05,31.222185984749512,131.01038404118162,3.00777936418888,5.376730308971262,-2.257790939128127e-06,80.28807156553681,5.266841443842784e-05,3.348887800834877,761.6984298824644,1.018787885905993,0.4366201147110198,70.00000000894464,-1.1355399380652658e-10,113.70000001523856,0.635552918586145,15.288,0,0.0,0.0029939522895272,1.6418815498809788e-14,-9.32122351075408e-08,4.303264669380585e-11,2.5199270302492604e-10,5.3767303089717045,83.57022052969386,1.0187875312530217,80.35788377762394
0.06,31.22218596447235,131.01038409608267,3.0201664202003013,4.296730121134882,2.4863835723705905e-05,60.21296515808257,0.0001057204249726,3.347700952379021,590.4875390737208,1.721098934225416,0.7081674028809783,69.99999995523842,-3.0560354507026086e-10,113.70000004366592,1.8138247671743823,15.288,0,0.0,0.0050578622752421,8.328976953118383e-14,-3.2824985336199985e-07,5.923438275930214e-11,1.4991363363716091e-09,4.296730121206683,79.20467073327266,1.7211028398275985,60.305955550063224
0.07,31.22218593493329,131.01038417609837,3.038741944736831,3.8204913578752526,4.8016684030909405e-05,91.4060317508128,0.0001597686613101,3.346072557365335,855.2937749779139,2.4375792548422868,0.9844712334613328,69.99999973536046,-5.939103491363046e-10,113.7000000850886,3.6383156301599167,15.288,0,0.0,0.007163413150771,2.709313825263564e-13,-7.906546256197275e-07,7.920022733617308e-11,5.114174483651565e-09,3.820491358176508,74.87999294483174,2.437586797285377,91.46725557277466
0.08,31.222185894468456,131.01038428575305,3.0647976109320942,3.588632851766762,7.220043782492885e-05,19.18449428359557,0.0002119618497595,3.3440615022685813,241.2171988638848,3.1292508166901074,1.2522236515868983,69.99999919480445,-9.914748373602156e-10,113.7000001418522,5.996012698481753,15.288,0,0.0,0.0091960591623389,6.80386533246681e-13,-1.5973238302190878e-06,1.0839624626357699e-10,1.3263625118823921e-08,3.58863285249208,70.86684630658345,3.1292621579083604,19.473766155861934
0.09,31.22218584634549,131.01038441616095,3.0957981580345013,3.551302481506045,9.685468678862004e-05,57.102946699906326,0.0002554087225869,3.341892818148368,563.0937377043176,3.701810007254615,1.479132491047967,69.99999812344194,-1.4359264356978275e-09,113.7000002093888,8.390904013834115,15.288,0,0.0,0.010878666406854,1.440096519545733e-12,-2.748643691533636e-06,1.5214952332699618e-10,2.6999776649034504e-08,3.5513024828250237,67.68737872952666,3.701825221153239,57.20065357568538
0.1,31.222185790329306,131.01038456796124,3.1319266121977414,3.608446747536112,0.0001234669721807,54.26147302645416,0.0002914860332524,3.3396271157106168,538.7437595981919,4.174070299823608,1.6716491241860567,69.9999963052332,-1.902380107712657e-09,113.70000028805804,10.668380938744466,15.288,0,0.0,0.0122665227999911,2.687800116751415e-12,-4.315796035622946e-06,2.1749089204950437e-10,4.7802076800548326e-08,3.608446749645647,65.17160335282355,4.174089693970246,54.36414778470795
0.11,31.222185727066616,131.0103847393952,3.172681775073216,3.633547373470009,0.0001485939126744,42.987553988990406,0.0003293995000288,3.337005588796181,442.8656393052949,4.672024955140527,1.8729475711242067,69.99999349387662,-2.3433348587116544e-09,113.70000037699285,13.365573690709628,15.288,0,0.0,0.0137298902182575,4.5789425819531184e-12,-6.340230783164189e-06,3.1157625832417107e-10,7.860218435507205e-08,3.6335473765043056,62.62546922225161,4.672048296217748,43.116880735560244
0.12,31.22218565692512,131.0103849294629,3.2177790417108385,3.650108937861461,0.0001727442530266,46.86777100765684,0.000367618259785,3.334068179146888,475.58594813540446,5.17479364099247,2.0758708919414386,69.99998941286465,-2.702771525550512e-09,113.70000047573096,16.396890189902592,15.288,0,0.0,0.0152074069417046,7.288473386564583e-12,-8.86736416607888e-06,4.42271554299792e-10,1.217615295152289e-07,3.6501089419435786,60.16906436414164,5.174820775596283,46.986210423745625
0.13,31.222185580265183,131.0103851371844,3.2669395832841857,3.7280113734654137,0.0001995014041665,51.64515456841877,0.0003986198234033,3.3311573548369657,515.9156326236895,5.579364582999854,2.2451120211463422,69.99998375846928,-2.9114380666036422e-09,113.70000058383452,19.060875702782603,15.288,0,0.0,0.0163963474924215,1.100846422415094e-11,-1.1941028436408576e-05,6.179653149059831e-10,1.7678562106638216e-07,3.728011378795934,58.279338776943774,5.579395920607139,51.75247433579817
0.14,31.22218549718016,131.01038536230575,3.320091807147376,3.768719651034081,0.0002242721760019,48.1660778383537,0.0004326225136175,3.32784677779744,486.2390860568404,6.025734265159953,2.428648685938864,69.99997621008868,-2.890941335368725e-09,113.70000070125378,22.232643351545065,15.288,0,0.0,0.0177081261985351,1.5941871344608664e-11,-1.560901486259027e-05,8.477542742712431e-10,2.495765160917323e-07,3.7687196576976176,56.27980129251342,6.025769493750979,48.280903250602165
0.15,31.22218540777004,131.01038560455507,3.377159065217065,3.821894709649632,0.000249725644238,46.56959330999435,0.0004643042952466,3.324387732286376,472.54218587214,6.441023336496372,2.6014999612196745,69.99996641132823,-2.546763407193136e-09,113.70000082794672,25.402620271850456,15.288,0,0.0,0.0189285691155931,2.2314099732464315e-11,-1.992367942778425e-05,1.1417519574710292e-09,3.4051816697623295e-07,3.821894717796148,54.501255563441134,6.441062563308839,46.68809885900716
0.16,31.22218531193176,131.01038586421257,3.4382223512025254,3.8463320955387794,0.0002733212404609,36.974247749122085,0.0004987816203583,3.3205066466509234,391.1218908297564,6.895451966878468,2.7877331692857847,69.99995397923414,-1.77088415515292e-09,113.70000096417354,29.113317717489338,15.288,0,0.0,0.0202640360420561,3.0367358387834494e-11,-2.4945905791363795e-05,1.5114297685186711e-09,4.5643121540033697e-07,3.846332105235269,52.641145594326446,6.895494900078523,37.12304892183151
0.17,31.222185210004127,131.010386140357,3.503019838429153,3.8860314262554336,0.000297865039677,46.520531453299206,0.0005306403365217,3.31650761597812,471.78125980632376,7.314788342774694,2.9619016331667103,69.99993849340957,-4.3039914767238207e-10,113.70000110959404,32.761746921137856,15.288,0,0.0,0.0214963781445172,4.0366633128431416e-11,-3.0713078585132897e-05,1.96747427715988e-09,5.961228045584824e-07,3.886031437653654,51.00464968745696,7.314835131305714,46.63860064094784
0.18,31.22218510147516,131.01038643438045,3.571950002194137,3.9107265153396016,0.0003214293682635,38.895647526122765,0.0005639254295027,3.312149448254175,407.10156721191447,7.754626295791602,3.1430587898572058,69.9999195084231,1.6149322372810674e-09,113.70000126508234,36.81988229018681,15.288,0,0.0,0.0227889722876034,5.2593391349219385e-11,-3.731786027786564e-05,2.525509173087448e-09,7.6786585232224e-07,3.9107265285284982,49.36615848311875,7.754676785798701,39.036415444581515
0.19,31.222184986476247,131.0103867459258,3.644912152926752,3.920599115663931,0.0003437679584038,43.86258669386953,0.0005989384366483,3.307389681300437,448.9531328318269,8.219206165926856,3.332657190859447,69.99989653019398,4.538529095696477e-09,113.70000143063515,41.36350714675367,15.288,0,0.0,0.02415428010977,6.735860419174937e-11,-4.481243905342629e-05,3.199401151670645e-09,9.773118416308382e-07,3.92059913071168,47.71893898797248,8.21926016487149,43.987104227715655
0.2,31.222184864792144,131.01038707557822,3.722074668489528,3.943376465171875,0.000367328732016,40.28070981710589,0.0006315894240138,3.30251450988504,418.51563019916136,8.65238089736321,3.511445117640573,69.99986902534273,8.534090245934178e-09,113.7000016067622,45.83799876721736,15.288,0,0.0,0.025427299120469,8.499785987217288e-11,-5.328041996372527e-05,4.006766070954748e-09,1.2232205148646746e-06,3.9433764822533854,46.2587826635041,8.652438597225508,40.41586552155969
0.21,31.22218473678744,131.01038742234647,3.803156063113743,3.9664546506877016,0.000390962054969,38.67679184347145,0.0006636984664108,3.297405915846789,404.8187610144644,9.079179692250786,3.688002035198235,69.99983642883521,1.3827831253856693e-08,113.70000179318536,50.47126980736161,15.288,0,0.0,0.0266815841422463,1.0586558589671407e-10,-6.275155280099118e-05,4.961340042512481e-09,1.5117124669161171e-06,3.9664546699249135,44.88773728276958,9.079241104426773,38.817098210937615
0.22,31.2221846022986,131.01038778667507,3.8882846911135607,3.956175711337521,0.0004112685792646,46.713636108302936,0.0007011135033803,3.291572407481395,472.5421858721365,9.580256326712124,3.889976788904857,69.99979815126248,2.0662823443484168e-08,113.70000199039316,56.195522894218605,15.288,0,0.0,0.0281541581291438,1.3033127211465288e-10,-7.330053770532661e-05,6.0817207473359025e-09,1.8632831045819008e-06,3.956175732680424,43.35679625546934,9.580320928629488,46.8294591882524
0.23,31.222184460898035,131.01038816972698,3.977794004014759,3.9879066397329104,0.0004360962274406,38.89105719050748,0.0007308686121188,3.286096544282012,406.3406421461021,9.977039034039262,4.056142701351626,69.99975353557706,2.9316661139418326e-08,113.70000219928508,60.9462612310605,15.288,0,0.0,0.0293202403623685,1.5880617816859538e-10,-8.505067486192354e-05,7.393319440773217e-09,2.2514912291167663e-06,3.987906663538912,42.20670487756048,9.97710753587448,39.0296395118868
0.24,31.222184313516166,131.01038856897196,4.070963590490852,4.003523997322975,0.000459165577055,40.0792299321398,0.0007630441688766,3.280134925833028,416.2328240017114,10.408422364424831,4.234121060914368,69.99970190737699,4.010976417051318e-08,113.70000241888,66.32994780718496,15.288,0,0.0,0.030588009649109,1.91711512587616e-10,-9.795845222523724e-05,8.904557280909524e-09,2.7052895870113487e-06,4.003524023611085,41.011349410369874,10.408494489985014,40.21323112692186
0.25,31.22218416001652,131.01038898478134,4.167901030441617,4.0261356185860135,0.0004830526730531,41.17760020658354,0.0007934613160587,3.2740610008587527,425.36408079150686,10.816813039390448,4.4041629376391525,69.99964258149416,5.3372865854010094e-08,113.70000264972064,71.63651430352668,15.288,0,0.0,0.0317882126436337,2.2947426169209347e-10,-0.0001121037688082,1.0637152702866709e-08,3.217380562698304e-06,4.026135647516394,39.93186687113378,10.816888917126896,41.30755663120434
0.26,31.222184000702686,131.0103894163294,4.26837241014618,4.053359329950934,0.000507503069958,44.80261175215926,0.0008224724146494,3.2678597736729302,455.8015834241788,11.207047269494833,4.567925492611352,69.99957484039399,6.947299261165984e-08,113.70000289176392,76.89781807056055,15.288,0,0.0,0.0329350617559806,2.7254099134167665e-10,-0.0001275114371842,1.260720913253598e-08,3.7915697709142366e-06,4.053359361668992,38.945390435244384,11.207126987890645,44.921630958721536
0.27,31.22218383516388,131.01038986473338,4.372698316214008,4.0614460923241,0.0005296455772492,41.029837477288126,0.0008548809954683,3.2610328932384265,423.84219965987256,11.645685385842508,4.748226940060522,69.99949794024376,8.879821051920497e-08,113.70000314600205,83.0342688744587,15.288,0,0.0,0.0342241635563461,3.2137296827284217e-10,-0.0001442952656441,1.4842505534226832e-08,4.458527942364847e-06,4.061446126801262,37.8838346421185,11.645768582375233,41.15922617924542
0.28,31.222183663504484,131.01039032970942,4.48079961904222,4.081133040992532,0.0005533279247169,47.27661484082626,0.0008845140695959,3.254218495915602,476.3468732012221,12.047344998676092,4.915789434712848,69.99941106884992,1.1178948978424788e-07,113.70000341275257,88.85982357848233,15.288,0,0.0,0.0354045979054623,3.764736350660473e-10,-0.0001625146963723,1.7365685655384934e-08,5.194620655212288e-06,4.081133078439725,36.956255322213885,12.047431915223257,47.38848224631549
0.29,31.22218348566054,131.0103908114315,4.592727908358551,4.1001100265020245,0.0005770279952742,37.989969791857405,0.0009138463939581,3.247164755122801,397.97031042211177,12.446314684600782,5.082367374004485,69.99931338876085,1.3891902435864665e-07,113.70000369260468,94.8417675268915,15.288,0,0.0,0.0365771315767517,4.3836067907166327e-10,-0.0001822432988888,2.0202163500922312e-08,6.018074062137429e-06,4.100110067036654,36.07377590258778,12.446405323946324,38.12849176886316
0.3,31.222183301933686,131.01039130907952,4.708251093558373,4.112858061667493,0.0005998635114143,35.655053282557844,0.000944131403186,3.2397207148238625,378.1859457108711,12.860033399289696,5.253940723820665,69.99920403105713,1.707002607527005e-07,113.7000039856728,101.2505662360602,15.288,0,0.0,0.03779301412572,5.075709863465428e-10,-0.0002035013069687,2.3370674033523645e-08,6.94335970778e-06,4.112858105337573,35.19685285507256,12.860127625629724,35.80193592228613
0.31,31.222183112488807,131.0103918222051,4.827243246502713,4.136140889545823,0.0006242383343011,37.56633644061071,0.0009716215464757,3.232339252743767,394.1656220930212,13.2364445751808,5.4126574282679245,69.99908210036875,2.0768081583188525e-07,113.7000042923011,107.26326115439352,15.288,0,0.0,0.0388992619788015,5.846561731689753e-10,-0.0002263323252403,2.6893437641668458e-08,7.948283231812338e-06,4.1361409365698805,34.43286455705216,13.236542630309057,37.70514091683033
0.32,31.22218291741533,131.01039235056504,4.949637017503345,4.1622282001352975,0.0006491019906456,40.83513712643371,0.0009979686925508,3.224840963348891,421.55939346242695,13.59846554462374,5.566374262777002,69.99894668612772,2.504388718903276e-07,113.70000461297312,113.2095365840355,15.288,0,0.0,0.0399632243410653,6.701756367872645e-10,-0.00025078340164,3.0793566854276295e-08,9.047716714467492e-06,4.16222825066026,33.72644865222576,13.598567505326,40.96227562489027
0.33,31.222182716732533,131.01039289410716,5.075419569102976,4.187801887681037,0.0006739743721461,40.48743503284469,0.0010239291638211,3.217136801802925,418.5156301991682,13.956637761217308,5.718704299733134,69.99879684673242,2.995902922462564e-07,113.70000494831164,119.25032483364384,15.288,0,0.0,0.0410158804634189,7.647061680070125e-10,-0.0002769136723495,3.509664608790402e-08,1.0253455741189656e-05,4.187801941818244,33.053267359159875,13.956743628864118,40.61505097607
0.34,31.222182510255863,131.01039345333336,5.204736257784645,4.19642921746386,0.0006961879027693,31.814592723444047,0.0010535137542081,3.208669900766693,345.46563688075645,14.367047160772364,5.88887983533068,69.99863160305904,3.557915789971256e-07,113.70000529927128,126.36523219087664,15.288,0,0.0,0.042222056531773,8.688448410811866e-10,-0.0003048202762282,3.9835373705550826e-08,1.1618525957862828e-05,4.196429275109305,32.30947868183619,14.367156517712404,31.97598901989736
0.35,31.222182298183583,131.0103940277045,5.337435501771672,4.210915783240843,0.0007193441544952,34.813487415034444,0.0010813034848195,3.200164272309822,370.5765700527033,14.754132934586384,6.050986755458457,69.99844991734221,4.1975736284587617e-07,113.70000566632532,133.26448209504355,15.288,0,0.0,0.0433596939127697,9.832256819293898e-10,-0.0003345386312107,4.503361101379695e-08,1.309465610343774e-05,4.210915844572415,31.63649055965014,14.75424592890194,34.96026256388454
0.36,31.222182080444604,131.0103946174141,5.4735747500461605,4.22903876037745,0.0007431682866607,39.2632255716727,0.0011077666085529,3.1915717453569297,407.8625232777193,15.124417129017054,6.2072589919251575,69.99825073022951,4.922382611919288e-07,113.70000605036684,140.03566173682628,15.288,0,0.0,0.0444479595865755,1.1084921261805627e-09,-0.0003661511460057,5.0723697896912267e-08,1.4691545926915382e-05,4.229038825557203,31.017264542603208,15.124533865618538,39.39272792946638
0.37,31.22218185710795,131.01039522227452,5.613102797925907,4.249164960780052,0.0007674149135003,37.28328237034959,0.001133274451316,3.1828514669894137,391.1218908297666,15.483077353331511,6.359470679857624,69.99803294268581,5.740349991123437e-07,113.70000645214331,146.75405277514704,15.288,0,0.0,0.0455020695186381,1.245311285088233e-09,-0.0003997125883071,5.6934243389647934e-08,1.641828325195534e-05,4.2491650299519,30.439178816713017,15.483197898584232,37.418894813348615
0.38,31.2221816281124,131.0103958424523,5.756069531572451,4.260095806433531,0.0007900626414612,38.9278000801764,0.0011607546399008,3.1735466295306622,404.8187610144602,15.87126705947922,6.521735074464384,69.99779542676283,6.659911329739736e-07,113.70000687263192,154.20298254405043,15.288,0,0.0,0.0466429667223463,1.3943646956867835e-09,-0.0004353006984059,6.369875435270817e-08,1.8328108041903096e-05,4.260095879559656,29.83470194713067,15.87139116222873,39.05694584372078
0.39,31.22218139339905,131.0103964781077,5.9025231349944285,4.274091258047817,0.0008133283308351,33.320076729592266,0.0011870382950339,3.164143363712209,357.64062493382744,16.24457853509073,6.678818328235205,69.9975369905506,7.690136753559805e-07,113.70000731287368,161.54010621938565,15.288,0,0.0,0.0477401448128051,1.5563705124515804e-09,-0.0004730068442167,7.105463478762673e-08,2.0383860516746246e-05,4.274091335289374,29.274934656826048,16.244706292406182,33.46997636540994
0.4,31.22218115316572,131.01039712870306,6.0523126585892895,4.286421841403391,0.0008363022448449,31.88018820767003,0.0012133780841982,3.1544430614236454,345.465636880754,16.62063299903514,6.836764518435374,69.99725641601981,8.840594270905819e-07,113.70000777359816,169.10340080049767,15.288,0,0.0,0.0488453895716005,1.7320643186450851e-09,-0.0005128553637434,7.9027539265021e-08,2.2612406375611563e-05,4.286421922834417,28.730746964325096,16.620764365084565,32.03586915718869
0.41,31.22218090752676,131.01039779392735,6.205351877049411,4.30025870409831,0.0008595777771371,35.882550741685804,0.0012389121673015,3.1445895889870297,378.94687077668647,16.987310563534386,6.99141560549392,69.9969524610574,1.0121301778427253e-06,113.70000825570062,176.64448930727934,15.288,0,0.0,0.0499230826371405,1.922193031274436e-09,-0.0005548883906878,8.764667734700782e-08,2.5005077415911235e-05,4.300258789847355,28.21875643368965,16.987445585695873,36.020076248499606
0.42,31.222180656535848,131.0103984736348,6.36160173428776,4.322008670726048,0.0008844838439129,40.34064925656127,0.001261804338223,3.134918999355981,416.2328240017114,17.318628721060172,7.133856886815013,69.99662385300175,1.154276942054023e-06,113.70000876021427,183.59942989625057,15.288,0,0.0,0.0508968652507098,2.1275184665783874e-09,-0.0005991661829955,9.694534598491077e-08,2.752657757470936e-05,4.322008761057615,27.772396468009568,17.318767655457478,40.462275036947325
0.43,31.222180400205527,131.0103991677914,6.521055075967404,4.339436441324956,0.0009085827200945,35.541853595187746,0.0012854696362701,3.124839917627212,375.9031395134336,17.662848429084132,7.280642039343927,69.99626930133451,1.3115939750280808e-06,113.70000928827632,190.96736675963504,15.288,0,0.0,0.0519085689713619,2.3488101247838237e-09,-0.0006457514522491,1.0695800287133593e-07,3.0255957891170616e-05,4.339436536261635,27.322335771349252,17.662991148924057,35.67895714766603
0.44,31.22218013836212,131.0103998768696,6.683849332059896,4.342209064313268,0.0009296474314902,32.82948243168077,0.0013129688908547,3.113754688841357,353.0750125389216,18.063580761318697,7.446730341918701,69.99588746395321,1.4852372182848018e-06,113.7000098413532,199.7278270846888,15.288,0,0.0,0.0530863610987301,2.586862292117705e-09,-0.0006947575786514,1.1773083546077225e-07,3.329010177793299e-05,4.342209163639375,26.81344244367223,18.06372678999575,32.9768158972058
0.45,31.22217987077456,131.0104006014978,6.850166573233225,4.3420317510315165,0.0009500780330031,38.11022602597878,0.001341042003417,3.1022288449712887,397.2093853562869,18.47486275310604,7.616350301328129,69.99547690348253,1.6764536248320808e-06,113.70001042108892,208.92306716049887,15.288,0,0.0,0.0542951637545535,2.842521175226318e-09,-0.0007463379956615,1.2932090054593452e-07,3.657529369088674e-05,4.342031854775571,26.30944884471334,18.47501199101448,38.23628058998621
0.46,31.22217959739673,131.01040134180155,7.020045503401754,4.351169003849846,0.0009725797783515,44.3937050866137,0.0013660055515545,3.09098240974522,449.7140588976434,18.844323061800488,7.771531995684422,69.99503610583268,1.8865779683531e-06,113.70001102895836,217.3591612614144,15.288,0,0.0,0.0553810645782081,3.1166808800591503e-09,-0.000800596194505,1.417768495237597e-07,4.001824400409673e-05,4.351169112337076,25.873596578896564,18.844475834274814,44.50118229261506
0.47,31.22217931813738,131.01040209802923,7.193559875579052,4.358630093683735,0.0009947969928181,30.22514089990685,0.0013910994973101,3.079396422776949,331.0078106302534,19.2180591098146,7.9280875671397615,69.99456352718363,2.1170044481277104e-06,113.70001166656292,226.0625808853568,15.288,0,0.0,0.0564795377574197,3.4102493884459798e-09,-0.0008576351980594,1.551487523304888e-07,4.3718862242359527e-05,4.35863020698899,25.44665981168229,19.218215372160817,30.381603425148434
0.48,31.22217903348153,131.01040286886197,7.370336324605091,4.365514409145237,0.001016880998596,29.779838936311712,0.001416009414045,3.067527859335786,327.2031223011574,19.5915905767454,8.084483592791102,69.99405758812365,2.369198154608765e-06,113.70001233476164,234.93171707892955,15.288,0,0.0,0.057577416115756,3.7241711041759195e-09,-0.0009173883913609,1.6944871263079066e-07,4.767297940601472e-05,4.365514527349481,25.03354780044292,19.59175030803913,29.937410312943754
0.49,31.22217874361868,131.01040365378466,7.5502307795521535,4.3786401372577615,0.0010404145545081,37.2489281064929,0.0014385799934191,3.0558405437943126,389.60000969812296,19.93403005898306,8.23012235628909,69.99351671352461,2.644660619562788e-06,113.700013034871,243.21198709852868,15.288,0,0.0,0.0585839249886784,4.059374595909599e-09,-0.0009798792959512,1.8470833984680338e-07,5.180951737438081e-05,4.378640260624215,24.667474291142685,19.934193486919103,37.37406598941686
0.5,31.22217844858332,131.0104044527036,7.733219389747018,10.862307820948187,-7.051839932046724,38.426675008982514,0.5181711687275226,2.551037203767952,397.97031042210494,21.64840479342592,8.366269437912349,69.99293932307316,2.9449363413826395e-06,113.70001376847225,286.8394807339571,15.288,0,3.7577354668479273,0.0636224153765628,4.41672905964163e-09,-0.0010516197388721,1.555754818850547e-05,6.0383579591894485e-05,12.927504453560283,18.593825488048864,20.543498852009037,38.51474580496501
0.51,31.222178148373235,131.0104052650658,7.919260935485681,10.781759799293743,-6.95317478597436,29.51799237630024,0.5301154410119367,2.5271624482639066,323.3984349720841,21.993040099872903,8.507441348425994,69.99228992717845,-5.948394246586287e-05,113.69994775074916,296.0396633314258,15.288,0,3.772648612200781,0.0646353984324703,4.795296286412569e-09,-0.0012373848569242,-0.0001077260806104,7.217994227094229e-05,12.8070454376258,18.37927345889563,20.90351683692291,29.630717951950363
0.52,31.22217784277339,131.01040609060297,8.108379131733198,10.699089577842097,-6.855990726499848,35.35673485328779,0.542536401975587,2.5025046104967807,372.0984511843415,22.34638877312051,8.651551195965324,69.99153262339448,-0.0003179823678479,113.69967307595036,305.62310479126575,15.288,0,3.787511409646028,0.06567399580835,5.170307742630565e-09,-0.0014289721827023,-0.0002339985739068,8.469342689236195e-05,12.685700133115272,18.16278291080481,21.27202043419724,35.44933813992473
0.53,31.22217753164601,131.01040692968667,8.300686163762089,10.620059386018308,-6.762518045544967,37.09972254773844,0.5550146948459311,2.477570058009401,386.5562464348624,22.69615547302113,8.794210426072352,69.99066398544338,-0.0007773632124532,113.6991846200246,315.25941049812974,15.288,0,3.802326115896748,0.0667020729005673,5.5421622147241645e-09,-0.0016266443619607,-0.0003633966208648,9.791640760959456e-05,12.569482814988756,17.954365018925156,21.63636622086845,37.18650034384805
0.54,31.222177214890767,131.01040778256464,8.496259647629838,10.543691150118947,-6.672076795668754,32.64694880781906,0.5675948470087179,2.4522883278860665,349.2703242098436,23.04397623882725,8.93598983396738,69.98968048344723,-0.0014425569020328,113.698477133211,324.9901103217239,15.288,0,3.817103440868309,0.0677244380019158,5.9112797765980925e-09,-0.0018306168831606,-0.0004960219181393,0.0001118812443362,12.45720418881519,17.75252945139872,21.998295941469014,32.743841381453635
0.55,31.22217689278085,131.0104086484691,8.694887513779316,10.472547145787944,-6.586165848193281,34.57224402334426,0.5801241982461285,2.4269070370604635,365.2500005919907,23.383918933559684,9.074822925204383,69.98857853743044,-0.0023185136395059,113.69754534358448,334.6429023210766,15.288,0,3.831826054134473,0.0687236568990084,6.278123205607713e-09,-0.0020407409557189,-0.0006317438333123,0.000126560825782,12.351811972190172,17.560981486806728,22.35164327133922,34.66217648477353
0.56,31.222176565315507,131.0104095273783,8.896570303010689,10.408363172871317,-6.50575624424707,32.303815152752286,0.5924799000105176,2.401631528581724,346.2265619465787,23.711418016201865,9.209113813491827,69.98735458148909,-0.0034100930537189,113.69638407537182,344.07543523562856,15.288,0,3.8464936621255794,0.0696863117125929,6.643159142994868e-09,-0.0022571421200286,-0.0007706067798403,0.0001419391316817,12.25527980179412,17.3821986641009,22.69169072095761,32.39838483403428
0.57,31.222176232564728,131.01041041907845,9.101253779861771,10.341742471313315,-6.425009515162714,31.94950394404533,0.6051838171626026,2.375604561449978,343.1828296833023,24.046863720846616,9.346008469558644,69.98600501865818,-0.00472214165857,113.69498816598404,353.87262091602474,15.288,0,3.8610998095289113,0.0706723279565037,7.0068803416724115e-09,-0.0024798556946277,-0.0009125979190641,0.0001581473896658,12.156592214271146,17.202443834683876,23.039739423869552,32.043416589925386
0.58,31.222175894505483,131.01041132360896,9.308955896784262,10.266744927456507,-6.34031904320565,41.90640448754668,0.6186153715489997,2.3481882782881502,426.1250058573153,24.404413391737258,9.490458786001245,69.98452619436875,-0.0062595381841972,113.6933524179574,364.4669585589443,15.288,0,3.875644446934572,0.0717233136125827,7.369793293546185e-09,-0.0027090151048643,-0.0010577657946553,0.000175326803193,12.048824561925228,17.013015761408365,23.41050978355333,41.97670080225552
0.59,31.22217555073984,131.01041224202783,9.519985350797182,10.205484974336668,-6.265075857341822,34.06992433534855,0.6314448642666617,2.3215899637860486,360.68438819711065,24.732895701371906,9.624539580496885,69.98291423878027,-0.0080274612691504,113.691471314401,374.3368214340907,15.288,0,3.890144573513776,0.0726888792454473,7.732395127097965e-09,-0.0029451922043786,-0.0012064293905535,0.0001931738442335,11.957708330072055,16.846067732829685,23.750739826761244,34.15476901975676
0.6,31.2221752014746,131.01041317374867,9.734181907814282,10.128457813823829,-6.181422627551542,30.33758339333272,0.6454952494421807,2.292763554438985,329.4859594986058,25.1017249665726,9.772547722773444,69.9811652062744,-0.0100311442665855,113.68933927850264,385.5767312190616,15.288,0,3.904589126691388,0.0737730303002601,8.095254231067955e-09,-0.0031882786690854,-0.0013584839854014,0.0002122318803845,11.84890255010576,16.658590166904965,24.13263187487137,30.430944694193006
0.61,31.222174846660444,131.01041411888176,9.95158403328745,10.050434770216627,-6.098291332002308,35.46284951634481,0.6598886821201145,2.26316281229675,372.0984511843297,25.47686917700612,9.922569158590855,69.9792750427532,-0.0122759307585511,113.68695061560744,397.17941451845246,15.288,0,3.9189817643583984,0.0748757487353621,8.458939553231338e-09,-0.0034384629991083,-0.0015140084974936,0.0002323015606957,11.739586480107429,16.472037049962502,24.520759412668227,35.541117804687445
0.62,31.222174486407766,131.01041507710235,10.172106321540255,10.00011692293841,-6.032677530447149,43.97130489875404,0.6726831481038866,2.2360768531383943,442.86563930529206,25.785944171333387,10.04930083937742,69.97723954852967,-0.0147672621065688,113.68429952865333,406.86609144645007,15.288,0,3.933326909746949,0.0757842993414638,8.824058509232448e-09,-0.0036958012682438,-0.0016730001756616,0.0002527110120458,11.66297432687652,16.328105291528274,24.84008329969613,44.0332623911751
0.63,31.222174120535257,131.01041604888138,10.395889775242052,9.9428016404699,-5.963812642656008,25.156749090245608,0.6861382799661642,2.2076911655797367,286.11251274707894,26.11414146013045,10.18253222840426,69.97505471832521,-0.0175103891709873,113.68138041422122,417.2800223639592,15.288,0,3.947601550330479,0.0767490574176045,9.19120279568148e-09,-0.0039605857850538,-0.0018355982714766,0.0002742574053735,11.578789440275138,16.176300601917127,25.179038635608062,25.262753428939348
0.64,31.222173749612377,131.01041703264704,10.622493180089732,9.87376755805549,-5.888978453750534,24.707371240209884,0.70064313569146,2.177326345061217,282.30782441796754,26.4750422516582,10.327022406188908,69.97271636775395,-0.02051057368522,113.6781876637054,428.88411569852354,15.288,0,3.961817857946481,0.0778099381717429,9.561070782657917e-09,-0.0042322623751025,-0.0020014318818488,0.000297113907829,11.481599474342874,16.009633368940197,25.55163152731209,24.813017640304043
0.65,31.222173373618816,131.0104180284331,10.851932845965337,9.825032883624525,-5.826917769657544,43.28098667883295,0.7139119999866663,2.148890244927195,436.7781447787475,26.784688982215688,10.453434167979305,69.97022039058203,-0.0237729425205283,113.6747158089144,438.96539541016045,15.288,0,3.975950144707971,0.0787201912076213,9.934312669423328e-09,-0.0045110171925772,-0.0021705786659522,0.0003203798971965,11.40835493518891,15.87464779140975,25.87097582028244,43.34018005871438
0.66,31.22217299205929,131.01041903756672,11.084593481773764,9.772555359733593,-5.763489602749321,36.8901759361561,0.7276441813608738,2.1194784604698262,383.51251517160017,27.105556981668,10.583581435119942,69.96756257541057,-0.0273026508894757,113.67095935384212,449.5355461690279,15.288,0,3.990026250168924,0.0796634312416999,1.0311563415286964e-08,-0.004797557117968,-0.0023434233596147,0.0003448045233698,11.331270255129429,15.736334400160876,26.201756171742037,36.95817549067614
0.67,31.222172605112625,131.01042005953923,11.320337000458965,9.709889928988552,-5.694994700839359,25.5533966490366,0.7423661399816714,2.088168040454798,289.1562440103425,27.456118428233832,10.723919432662802,69.96473856344704,-0.0311052192642608,113.66691240290533,461.2281590344218,15.288,0,4.004056864819588,0.0806939485229532,1.0693538606066284e-08,-0.0050917923544769,-0.0025198745575346,0.0003706759909537,11.24293718698878,15.585269938330049,26.563023027042576,25.649320333177698
0.68,31.22217221294117,131.01042109388723,11.559038181529216,9.651252964345058,-5.629632369759476,31.786288195513784,0.7570084877275577,2.0567970645426006,340.8999924858462,27.79765371227157,10.860934220400226,69.96174381714025,-0.0351861017724466,113.6625691412423,472.76341505434834,15.288,0,4.017992101626828,0.0816979459132392,1.1080993150758068e-08,-0.0053936766996858,-0.0026998681013161,0.0003975280054965,11.159701277023895,15.442138750271065,26.914775305087428,31.8617575356957
0.69,31.22217181562052,131.0104221403841,11.800639156614269,9.603988845839114,-5.571563842461317,39.03015169226416,0.7709543953693572,2.02645567337646,401.0140726853634,28.108593628260703,10.987093385742458,69.9585739588774,-0.0395506828375561,113.65792381550966,483.38785889733447,15.288,0,4.031868795916833,0.0826120306791827,1.1474672895502968e-08,-0.0057032374484805,-0.0028833835849831,0.0004250354684348,11.089971422163732,15.317416807159695,27.234793061621826,39.09032660898409
0.7,31.222171413015644,131.01042319937807,12.045245514069324,9.556678186022252,-5.514185139192149,32.8125039363114,0.7850911109117241,1.9955996921619683,349.27032420985284,28.42062469918441,11.113458706202184,69.95522446227751,-0.0442042328812455,113.65297080392136,494.167912884032,15.288,0,4.045693354042837,0.0835293302080016,1.1875341450155724e-08,-0.006020774813025,-0.0030705591982411,0.0004536703588557,11.02060176783128,15.19450441763288,27.55579501468242,32.88250599869543
0.71,31.222171005176577,131.01042427071317,12.292819334059212,9.502946798423784,-5.453846225380446,27.0493051894938,0.7999574608414176,1.9632656105499715,301.33126406340574,28.752487177981184,11.246582027787763,69.9516908255942,-0.0491521671568094,113.64770431727943,505.7638854942291,15.288,0,4.059419660081727,0.0845049230754628,1.2283788102219014e-08,-0.006346344134449,-0.0032613894663814,0.0004837746559688,10.944269120012851,15.0642518706036,27.8970921256278,27.13225488290828
0.72,31.222170592102973,131.0104253543707,12.543361850454136,9.441573014799925,-5.389925905230142,33.01538960509291,0.815720045654468,1.9291485158201505,350.79220534145287,29.109048026384624,11.388154727148503,69.94796828417435,-0.0543999637099943,113.64211850934323,518.3731928577835,15.288,0,4.073091161571048,0.0855531141409772,1.2700841505793742e-08,-0.0066800989115988,-0.0034559256214435,0.0005155188177583,10.859604582321037,14.924772435708876,28.26364863180493,33.08176180261642
0.73,31.22217017378936,131.01042645034545,12.796878280628334,9.400022081063074,-5.337840427224836,41.64381452906013,0.8299580523834895,1.8975503504738045,422.320318528234,29.406987312828345,11.509089980383688,69.94405201001517,-0.0599533052070709,113.63620730594803,529.0260092497881,15.288,0,4.086710480685434,0.0864290215086728,1.3127338853066142e-08,-0.0070222241456676,-0.0036542364684288,0.0005474548101306,10.797995747106503,14.815678354217097,28.56973365936171,41.69528529980409
0.74,31.22216975017155,131.01042755879425,13.053419524112403,9.35254096188175,-5.2830478854362815,26.24673793615459,0.8449003516901569,1.8645063412430527,294.48281347105944,29.7236501741937,11.636392497089842,69.93993726739133,-0.0658176430572135,113.62996487717308,540.4674450365673,15.288,0,4.10024530317471,0.0873599668136881,1.3564134245602164e-08,-0.0073728987599469,-0.0038563853669446,0.000580968741977,10.729964792378,14.6998123247001,28.8949663710418,26.326440944229404
0.75,31.22216932160019,131.01042867874247,13.312714729484156,9.301445103304683,-5.2268702346279845,30.56623270128321,0.8603839347967062,1.8302969143336427,330.24688556441487,30.05267601529308,11.76785400220968,69.93561913501411,-0.0719984269720657,113.62338540097171,552.4853181303794,15.288,0,4.113703822412702,0.0883272560533656,1.4012174585799201e-08,-0.007731751233385,-0.0040621234773276,0.0006159742569028,10.658165626529176,14.580435974088918,29.23277948777499,30.633067571806624
0.76,31.22216888796428,131.0104298104753,13.57485124399578,9.257418490525277,-5.175220037000757,32.86909548868832,0.8754007296722564,1.7967352367311396,349.27032420986166,30.360166245467056,11.891636179632863,69.93109278648095,-0.0785010593242285,113.61646309600572,563.8347005240621,15.288,0,4.127100661583025,0.0892312587186515,1.4472342153515693e-08,-0.0080991036840583,-0.0042715963719156,0.0006518260485526,10.594767811833066,14.47288278734817,29.54834950765939,32.92980446636349
0.77,31.222168449204982,131.01043095413627,13.83987597464708,9.215313476678135,-5.125200459456756,30.76658520844212,0.8904139122078347,1.7629919525037372,331.7687666960708,30.661879286009263,12.01323849221338,69.9263532750164,-0.0853309721275661,113.60919214988424,575.0822928433204,15.288,0,4.140434281784724,0.0901182899384336,1.4945559750805182e-08,-0.0084751821902421,-0.0044848932996369,0.0006888542893642,10.533881836936924,14.369700266001734,29.85788788416792,30.82991636297406
0.78,31.222168005383416,131.01043210954202,14.107742870413215,9.16765656023188,-5.072683842604934,25.35681905531055,0.9061567930994112,1.7277258912579214,286.8734378128899,30.98222141470617,12.141188181886024,69.92139555377993,-0.0924935842218227,113.60156676494888,587.1463849715384,15.288,0,4.153672975062608,0.0910600822763646,1.5432800197077745e-08,-0.0088600071880662,-0.0047019873445408,0.000727637394692,10.466993909971247,14.260170307218017,30.186446658596584,25.431760251558746
0.79,31.2221675565838,131.010433276446,14.378388004549276,9.117055558528026,-5.019135637725809,35.835921563743426,0.922415920589312,1.6913177908119403,373.6203323159534,31.31337436175584,12.27275665169974,69.91621459952403,-0.0999943816836557,113.59358106069828,599.7492826696614,15.288,0,4.166845811125927,0.0920336574468775,1.5935045432414655e-08,-0.009253593221053,-0.0049228489280677,0.0007680639287408,10.397083161255228,14.147950563381318,30.52597833993318,35.88766753806723
0.8,31.22216710258648,131.01043445543183,14.651983230354432,9.077900314979487,-4.972348849984478,36.30502992401713,0.9376868299149476,1.6565228059332897,377.42502064505743,31.60640001279428,12.390851238443853,69.91080511262247,-0.1078389629376006,113.58522904416144,611.0104676130788,15.288,0,4.179962737305112,0.0928951807463004,1.6453270939863386e-08,-0.0096564762213423,-0.0051477364686811,0.0008089829928654,10.340463840359892,14.053668093256896,30.826325323659088,36.35489681158994
0.81,31.222166643489988,131.01043564621483,14.928453617642663,9.031903689835556,-4.922381177533846,23.81391621665863,0.9538629956382164,1.6198695975492308,273.9374926939919,31.923148808212307,12.517068871002255,69.90516177710789,-0.1160328566407659,113.57650479322665,623.3019703555182,15.288,0,4.193017048830864,0.0938264379262789,1.6988537869405032e-08,-0.0100685951687257,-0.005376576424504,0.0008519395001755,10.27638026365563,13.95104176530902,31.15089378014627,23.88799777506581
0.82,31.222166179477465,131.01043684827914,15.207658657503284,8.983269166025549,-4.871508027418617,30.44008425169772,0.9705347663182452,1.5820934486456593,328.72500443277005,32.24976061603369,12.646584140104034,69.89927933977903,-0.1245815873766969,113.56740237858662,636.1044014092281,15.288,0,4.2059832731926265,0.0947866926550338,1.754192184946326e-08,-0.0104897960897649,-0.005609245771272,0.000896635747128,10.209595638644844,13.846115932700837,31.48546755459361,30.49661762660468
0.83,31.2221657105303,131.01043806166052,15.48961442918368,8.948166083120444,-4.828360492848132,38.541624679748246,0.985889498597254,1.5465565656746805,395.68750322465047,32.52871999787149,12.759313264967664,69.8931523029635,-0.1334906571824054,113.55791590510228,647.1390373158877,15.288,0,4.218877065871464,0.0956068986155098,1.8114507689004643e-08,-0.0109202936720738,-0.0058458235496366,0.0009414820407532,10.158385845397085,13.761990094483048,31.771180268327303,38.585238735413505
0.84,31.22216523654211,131.01043928663677,15.774405202229849,8.910589633890444,-4.7843447107221175,24.015588637840704,1.001674441491058,1.5100289167314846,275.4593748256452,32.816116394832335,12.874833923273885,69.8867753374279,-0.1427654230772983,113.54803961969058,658.6066914990174,15.288,0,4.231707808590964,0.0964519106414371,1.8707371996324283e-08,-0.0113603695414921,-0.0060864230653368,0.0009880490665415,10.104634477363287,13.675690384895264,32.06546633550797,24.083854272895884
0.85,31.22216475780191,131.01044052240377,16.061808494751013,8.86246075949264,-4.735200079701553,26.138067186566687,1.0188732771718696,1.4706577230722873,292.96093233939376,33.142049789587,13.003674646250106,69.88014303603843,-0.1524111775772953,113.53776783757964,671.7358327104539,15.288,0,4.244465243582084,0.0974101978469276,1.9321693068807653e-08,-0.0118096379894423,-0.0063307969753653,0.0010372963107162,10.039230170195289,13.575638454622004,32.39909272845573,26.199226956970335
0.86,31.22216427413608,131.0104417694234,16.351960846434526,8.822559637270658,-4.6908623652706405,32.588366934651546,1.0352974782328013,1.4325299299779564,346.2265619465587,33.437987543933666,13.121894603507505,69.87324978627012,-0.1624333867302517,113.52709468747852,683.7666996121864,15.288,0,4.257158057540256,0.0982803316726922,1.9958584543855642e-08,-0.0122686071359592,-0.0065791805340503,0.0010872018238992,9.983360353177588,13.488671298824874,32.70197148546157,32.636262689471785
0.87,31.22216378556671,131.01044302762273,16.64484697502636,8.786587127416297,-4.649012039979238,30.386488159679327,1.05141078639161,1.3947868368905698,327.964078366998,33.7188979789324,13.234720959785983,69.86608997361623,-0.1728374299141761,113.51601438569077,695.2839616915065,15.288,0,4.269784762496042,0.0991063060823589,2.0619225937164906e-08,-0.0127373774651554,-0.0068315875986082,0.0011381931203599,9.93215253841188,13.408605502337153,32.98943393050405,30.436648265543887
0.88,31.222163292127465,131.01044429689796,16.940442726535828,8.745441873731455,-4.604862979483377,26.341126158423368,1.068323859260544,1.3553269537683268,294.4828134710418,34.01896323461969,13.354101624274056,69.85865790387277,-0.1836286046621582,113.50452123605916,707.6936283655032,15.288,0,4.28232378652313,0.0999885888857887,2.130483496962622e-08,-0.013215981598862,-0.0070879956245486,0.001191436045134,9.875348783797444,13.32245418509996,33.29641150376402,26.397597510263164
0.89,31.22216279389728,131.01044557702127,17.2386888428481,8.699318402266277,-4.558555990181727,28.83513123100332,1.086051532147171,1.3141097681885454,315.028134248087,34.33831089684865,13.480086601742777,69.85094790428307,-0.1948122356170269,113.4926095017702,721.0220639944638,15.288,0,4.294794711826326,0.1009275556616829,2.2016640691589036e-08,-0.0137044416607014,-0.0073483768120712,0.0012470333575212,9.813183854376192,13.230439007829675,33.62300980645406,28.885483993218994
0.9,31.222162290800377,131.01044686818895,17.539646149249673,8.66645190136339,-4.519518402129979,31.79136195056485,1.102251640236464,1.2755888225269618,339.37814235421445,34.60580157363479,13.587810660295824,69.8429539716818,-0.2063937436309732,113.4802733520374,732.2779744638318,15.288,0,4.307202223844489,0.1017141127129118,2.2755892660815825e-08,-0.0142030790796514,-0.0076128609921383,0.0013024368084717,9.766133149122629,13.158548178093692,33.89661326095977,31.836029592183476
0.91,31.22216178290511,131.01044817020383,17.84326372049036,8.628504142886609,-4.478236422633282,24.33168782646848,1.119266947437732,1.2353087243645346,277.7421810230789,34.892562017208604,13.702135634941168,69.83467037088182,-0.2183782874720547,113.46750721984012,744.4425691711903,15.288,0,4.319542651740598,0.1025573164890475,2.3523871562835346e-08,-0.0147118733257295,-0.0078813965028306,0.0013602333386557,9.713587762622874,13.080598860039284,34.18983828280769,24.38872236565155
0.92,31.222161270408844,131.01044948251393,18.149390520543623,8.585682577825377,-4.4348403583996205,28.855821574187846,1.1371128586715866,1.1932220978245272,315.02813424806214,35.19853041498216,13.823056319546112,69.82609120820936,-0.2307710031985572,113.45430556405164,757.53338174789,15.288,0,4.331810191185419,0.1034569857898215,2.4321926080873906e-08,-0.0152305526642165,-0.008153802057697,0.0014204959653743,9.65578915985648,12.99686539757707,34.50260270856598,28.902858740087595
0.93,31.22216075322134,131.01045080535795,18.45809880533129,8.554816386436217,-4.397913596531173,34.2126859450698,1.1534826727909964,1.1537620335881005,359.1625070654728,35.45551860867633,13.926721609584876,69.81721050877577,-0.2435770066585987,113.44066286182424,768.6126365551414,15.288,0,4.344011083465045,0.1042126991905823,2.5151344927801657e-08,-0.0157595068572292,-0.0084302410815863,0.0014805170037099,9.611582950752435,12.93130183395951,34.76537412157728,34.25156301079638
0.94,31.2221602312337,131.01045213902805,18.76947541553994,8.513456985608638,-4.356006503758553,24.993912155179675,1.1714660013327736,1.110978834589064,283.0687504837787,35.754629885454335,14.0449926019702,69.80802229227818,-0.2568012355669919,113.42657377869668,781.6123657264203,15.288,0,4.356145166751741,0.1050922318033104,2.6013458648596583e-08,-0.0162990166864013,-0.008710817696425,0.0015440723185562,9.555827482688509,12.851925189476464,35.0710489505013,25.046002702707305
0.95,31.222159704729336,131.01045348273553,19.083302619597045,8.47377832819143,-4.315312584158323,32.19851598885911,1.189389276772145,1.0680891265689243,342.4218736174873,36.04645166103872,14.16060239490602,69.7985204973655,-0.270448821427402,113.41203275857808,794.3991999139489,15.288,0,4.368207592907616,0.105950347696888,2.690970112688644e-08,-0.0168486948722004,-0.008995292444731,0.001609124477734,9.502148161333452,12.776037162363556,35.36924461921906,32.23817446938972
0.96,31.222159173419254,131.01045483726924,19.399807178064496,8.440086799595434,-4.277976712487092,31.55978877389745,1.2066011441746465,1.0263653056242814,337.09533515678345,36.312299129368704,14.266994636355475,69.7886989122719,-0.2845247560218153,113.39703440091142,806.1355072290884,15.288,0,4.38020772333583,0.1067321270536571,2.7841394781096505e-08,-0.0174093089057789,-0.0092840179375969,0.0016748770535177,9.455344234033248,12.709760382618647,35.640940309833255,31.599518659541893
0.97,31.2221586373222,131.01045620257102,19.7189769658404,8.403686943386177,-4.23960906330891,20.392968589198965,1.2243586097608494,0.9833626543464322,245.02188719299323,36.58858085411591,14.376914921947373,69.77855116336201,-0.2990340925175435,113.3815732357492,818.4240308013874,15.288,0,4.392142501302172,0.1075445845731579,2.880999281173907e-08,-0.0179809578822693,-0.0095770017938584,0.0017429813072131,9.405695905951433,12.640706750285885,35.92323216957516,20.453342611791218
0.98,31.22215809672004,131.01045757785695,20.04059557785652,8.357486391411033,-4.196690844378956,29.449644380960105,1.2437810869004395,0.9368709118997868,319.5937466429581,36.906623521729664,14.501358885246823,69.7680709974065,-0.3139818026763549,113.36564386373968,832.6882888572422,15.288,0,4.404000310330113,0.1084797990612966,2.981703339601286e-08,-0.01856313375758,-0.009873944751256,0.0018149996013072,9.34530151009205,12.558764308240065,36.247998153692194,29.49078284248674
0.99,31.22215755146665,131.0104589635237,20.36477897873236,8.32833832975143,-4.162570105185366,32.135769554467906,1.260728131873408,0.895011913162206,341.6609485517054,37.149534222281055,14.599369311113524,69.75725187389365,-0.3293729078699243,113.34924083797324,843.6592076271317,15.288,0,4.415796721244714,0.1091941869800104,3.0863950444508374e-08,-0.0191564142685355,-0.0101750979671736,0.0018852762481879,9.304083098554123,12.502106889628545,36.496254273033095,32.17294152863654
1.0,31.22215700156031,131.01046035957242,20.69153112461134,8.289669890386044,-4.1240411632640654,28.815628198457983,1.279309149655808,0.8497158351578992,314.2672081822764,37.4331176360643,14.711519681818553,69.74608747545113,-0.3452120344858147,113.33235912464956,856.5617423966111,15.288,0,4.4275282346536375,0.1100281336736049,3.1952257375038025e-08,-0.0197608415671495,-0.0104804394562832,0.0019595448508478,9.252430062964518,12.432926901895106,36.78587398130061,28.856525732885412
1.01,31.222156447176708,131.0104617655124,21.02071813696665,8.252821076917222,-4.086717769385988,30.11612463965433,1.2977525645759826,0.8044608758735102,324.9203161036979,37.707691137347055,14.820412550414364,69.73457123257216,-0.3615039960862067,113.31499348513084,869.1461801478938,15.288,0,4.439193220708938,0.1108356063964487,3.308354423093863e-08,-0.0203762126659057,-0.0107898258079294,0.0020353235015344,9.202967849720256,12.367326235337345,37.06629518406209,30.15480529419597
1.02,31.222155888240827,131.01046318154764,21.35240095780972,8.218654602082934,-4.051003754803679,25.221244889133462,1.3158951580621818,0.7595744100793411,284.59063161540416,37.96895077326199,14.92453274871256,69.72269662623165,-0.3782533851639972,113.29713891152764,881.2036758279197,15.288,0,4.450794470963634,0.1116039541822641,3.4259339604177406e-08,-0.0210028418814182,-0.0111033716261002,0.0021123839780002,9.156646165316406,12.306522500702512,37.33315062427585,25.266969092257575
1.03,31.22215532481897,131.0104646074922,21.68653082249112,8.178117053750192,-4.0124767143470255,20.693479244105824,1.3352509883300276,0.7120405562215353,247.30469339049705,38.25825689913256,15.038398208756316,69.71045712822493,-0.3954646508533871,113.27879054319276,894.6548656049779,15.288,0,4.462329924030161,0.1124547495251702,3.5481248401577974e-08,-0.0216406870688927,-0.0114210132456772,0.0021930497917199,9.103408537964812,12.23762383524451,37.62849358669548,20.74873442361676
1.04,31.22215475697056,131.01046604317798,22.023064284072696,8.14399166112754,-3.9773540942556593,32.63357475822313,1.3536709767046344,0.6661368021295213,345.46563688072297,38.51684617528305,15.141391973104197,69.69784598733393,-0.4131423767076389,113.2599433706363,906.7604517176572,15.288,0,4.4738011874512456,0.1132152661688288,3.675090227023506e-08,-0.0222898086011857,-0.0117427385329587,0.0022740252795056,9.057440688583574,12.178793119854562,37.89258650590124,32.66843070692043
1.05,31.222154184419686,131.01046748936977,22.3622185656776,8.104779245982275,-3.940056012841741,19.867865600037376,1.3731121831750968,0.6179521615402143,240.45625879819983,38.79792170834127,15.252178177216509,69.68485647970972,-0.4312909485758592,113.24059258991151,920.0128831154094,15.288,0,4.485214436112299,0.114041887645431,3.806984010302925e-08,-0.0229510064136071,-0.0120688962531025,0.0023584913017279,9.005985460395612,12.113681169633375,38.17950682915392,19.924843423291552
1.06,31.222153607395622,131.01046894542932,22.703818353618395,8.06131730339909,-3.901008112531664,28.11084348841562,1.3934899708214634,0.5676351608276338,308.17968365593924,39.0983625769617,15.369686216219833,69.67148159721627,-0.4499149545247621,113.22073317480796,934.2860705262711,15.288,0,4.496564926169969,0.11492544094662,3.943984891985377e-08,-0.0236238606953553,-0.0123992362962569,0.0024463538496693,8.949978889280587,12.043447740820536,38.48606697382664,28.1510842704999
1.07,31.22215302578625,131.01047041166635,23.04795362697104,8.028249630567409,-3.867221647027484,33.02464748040651,1.4121438365871657,0.5205454490036491,348.5093681440308,39.34778748167422,15.46917264328736,69.6577141630114,-0.469019028296491,113.20036004474264,946.2132233833468,15.288,0,4.507859033959682,0.1156590478414526,4.086259983627592e-08,-0.0243089040383515,-0.0127339737684714,0.0025332682097341,8.905625304751139,11.988932016510304,38.74078685401184,33.058924044572436
1.08,31.22215243949463,131.01047188835196,23.394702753080058,7.9931490261893074,-3.832722136038445,22.378856899442766,1.4312944352514767,0.4722131675544027,261.00157857466235,39.605304492304334,15.57140429228872,69.64354708374476,-0.4886075208977841,113.17946841430368,958.6070689348624,15.288,0,4.519097454192681,0.1164164499314497,4.2339811368687286e-08,-0.0250064774535186,-0.0130732268198073,0.0026229311306632,8.859161364082023,11.93244706743254,39.00371080555834,22.429552495797385
1.09,31.22215184878633,131.010473374747,23.74386221514577,7.947309101702298,-3.793396667657317,20.621791014324128,1.4526226637501287,0.4192075957339706,246.54375332474407,39.9144688798782,15.691735475679788,69.62897316703382,-0.5086847317735415,113.15805354607714,973.5988631560972,15.288,0,4.530273699587841,0.1173256748415239,4.387339353365624e-08,-0.0257159959130817,-0.0134166670621808,0.0027183173021716,8.800974375854445,11.861557035082368,39.31903874883118,20.677139846942588
1.1,31.22215125373481,131.0104748706469,24.09537792712553,7.907250499749597,-3.7570860261141816,40.92333214933293,1.4730324184716572,0.3678030742083734,413.1890617385841,40.19418651312877,15.801640741716252,69.61398512265286,-0.5292549032095885,113.1361107572397,987.2591595142449,15.288,0,4.541389900902252,0.1181483531288829,4.546517114175584e-08,-0.0264375039557426,-0.0137642717849575,0.002814073755745,8.749317117583319,11.799776852124284,39.60444766735191,40.951486149001866
1.11,31.22215065395365,131.0104763771322,24.44955339817008,7.8785063731224145,-3.726345217441579,30.084791996402554,1.4913434609022695,0.3204334393436805,324.1593910376397,40.41508384966324,15.890733454654068,69.5985755116781,-0.550322280205164,113.11363535588416,998.1064870840912,15.288,0,4.552453270377669,0.1187981421598912,4.711680416062406e-08,-0.0271722502658801,-0.0141165908087935,0.0029080783152124,8.710273258738143,11.755035727587735,39.83016346564149,30.12343759225087
1.12,31.2221500495038,131.0104778940379,24.80634440536929,7.829027148058602,-3.6861400085642417,11.635587683716576,1.5139313209055425,0.264045526870602,172.73281794065943,40.739865158804335,16.016354508052352,69.58273697128008,-0.5718908240732755,113.09062294507191,1014.17803462477,15.288,0,4.563456470943446,0.1197533029470543,4.883022224377017e-08,-0.0279201209148117,-0.0144735189476423,0.003012028006739,8.648502768290767,11.68161004616594,40.16124698590913,11.736635328327111
1.13,31.222149440953263,131.01047941977495,25.16531227523724,7.791004243069349,-3.651547239721212,35.383434484403246,1.5343797091171192,0.2117707455177069,367.5328077900705,41.00496051060879,16.120895371846032,69.56646160178393,-0.5939649687138328,113.06706861561582,1027.3841152778004,15.288,0,4.574396947270288,0.1205330290534972,5.0607645585634015e-08,-0.0286797898215604,-0.0148343826789778,0.003114006472796,8.599490634147672,11.6253654641378,40.4317650207795,35.4173206758002
1.14,31.22214882766692,131.0104809561273,25.52695417775949,7.76098696361988,-3.620902083895885,19.80239211632282,1.5532720945325131,0.162446370934173,239.69531773195544,41.22615368349679,16.209855800357925,69.54974199090698,-0.6165483495873623,113.0429683046024,1038.4619773625177,15.288,0,4.585289043299327,0.1211837152852837,5.2450647063623326e-08,-0.0294532286388084,-0.0152000636482237,0.0032151244532804,8.559412629885204,11.581443346852485,40.657762232575706,19.863881205637718
1.15,31.22214821011232,131.010482501791,25.890909700257165,7.710141606775469,-3.5808681006422125,19.52590085469927,1.5767066665314236,0.1034607353876806,237.41251153546767,41.55564006580411,16.337002051816178,69.53257067273661,-0.6396444722609171,113.01831807865253,1055.0905481561183,15.288,0,4.596119684186611,0.122152737727835,5.436146928621472e-08,-0.0302390947124174,-0.0155698811756911,0.0033271749666212,8.496551497540336,11.50858197829043,40.99352472307466,19.589729763924698
1.16,31.22214758842185,131.01048405639608,26.25707900645184,7.682173035487313,-3.5516042465356694,50.35110167803104,1.595367216137459,0.0540911725512277,490.0437743845894,41.76173283106039,16.420520925163476,69.51493965643684,-0.6632572806607465,112.9931135292572,1065.5443388038102,15.288,0,4.6068934270739215,0.1227590543692471,5.6342162437540846e-08,-0.0310373579801292,-0.0159437765374801,0.0034318228271992,8.458958421858364,11.469268134138549,41.20420534237981,50.376398864951575
1.17,31.22214696176266,131.0104856222934,26.6261134253009,7.643296727641156,-3.517554966193808,9.316668122909816,1.616490338051604,-0.0006573369647801,153.70937929486794,42.02395031280752,16.523778621055254,69.49684140180955,-0.6873899689394252,112.96735104168503,1078.9289785067267,15.288,0,4.617624320925474,0.1235303598962673,5.83942674221212e-08,-0.0318505937167668,-0.0163228948265038,0.0035437299067225,8.409499121061039,11.415229724606451,41.47176109852983,9.455863067829926
1.18,31.22214633123588,131.01048719639138,26.997159505422903,7.589972380645851,-3.477162827692262,24.734715133525285,1.641037419229361,-0.0628495386630835,280.02501822196746,42.36426365409704,16.654665481596037,69.47826796901296,-0.7120460040281055,112.94102669910596,1096.4351604268736,15.288,0,4.628289490818097,0.124531240192685,6.052055991386577e-08,-0.0326754745509015,-0.0167056444146209,0.0036648170006976,8.344310537702233,11.34125377128095,41.81840740551731,24.78917276982969
1.19,31.22214569634721,131.01048878008652,27.37060517121884,7.568574117063102,-3.4514948492407864,42.85687880119469,1.6584304974723572,-0.1103598611949661,428.4078130529292,42.52637857793916,16.72242427666052,69.45921117723793,-0.7372289272656884,112.91413649919652,1104.8030178701667,15.288,0,4.638907409419573,0.1250083095618253,6.272276468328818e-08,-0.0335140047778803,-0.0170929038481909,0.0037731135568342,8.314249366409534,11.313909096211956,41.98454687807864,42.88909688480512
1.2,31.22214505667325,131.01049037458768,27.74678337399672,7.521549922012871,-3.414438875026792,4.853662237584636,1.6818329519465072,-0.1707487230628706,117.1843741360236,42.8286270834776,16.83974348117628,69.43966344264865,-0.7629413582631294,112.88667741529052,1120.5227064748658,15.288,0,4.64947933480016,0.125897317892013,6.500276710396291e-08,-0.0343674166547509,-0.0174851819658037,0.003896552165963,8.256212338159852,11.250632489766195,42.292605677244936,5.139625893120607
1.21,31.22214441331561,131.01049197678907,28.124840101018847,7.475909866073257,-3.3782452827804974,34.50689021691601,1.7050984338746222,-0.2311655970184142,359.92343213200894,43.122336199360994,16.954063329760746,69.41961636705481,-0.7891866586897625,112.85864561739456,1135.9027365349289,15.288,0,4.659987974444112,0.1267612343058673,6.736350453035797e-08,-0.0352323543018201,-0.017880896742755,0.004021866282558,8.199811911759419,11.19008303255269,42.591990083659496,34.549765131542365
1.22,31.222143765438528,131.01049358906403,28.50542932654881,7.452088562264128,-3.352026166458377,25.1214864772872,1.7231696455045031,-0.2809035070704947,283.0687504825761,43.28877236056376,17.023171101513384,69.39906192657939,-0.8159675290153655,112.83003797564837,1144.64613085327,15.288,0,4.670446203361005,0.1272510320553846,6.980649558295869e-08,-0.0361119184155827,-0.0182814094032467,0.0041380299862381,8.167389972494373,11.16179519288661,42.76253763260356,25.182082980484285
1.23,31.22214311337865,131.01049521047426,28.88829245570254,7.404434552003441,-3.315356813827692,10.056582784839328,1.747147641246248,-0.3434372070176263,159.79687382222795,43.589996430349295,17.14010801874048,69.37799247100398,-0.8432860165918604,112.80085204730736,1160.588863320981,15.288,0,4.68083763589875,0.1281370595387071,7.233422466741091e-08,-0.0370048649073327,-0.0186861011371712,0.0042697012292023,8.10900550942596,11.099988359287549,43.06951196361647,10.212998154499155
