Time,Latitude,Longitude,Altitude,Angle of Attack,Angle of Sideslip,X-Acceleration,Y-Acceleration,Z-Acceleration,Thrust,True Velocity,Ground Velocity,Pitch,Roll,Yaw,Dynamic Pressure,cp,parachute_deploy_gain,Wind Speed,Mach,omega_x,omega_y,omega_z,Cmq,Angle of Attack(total),Angle of Attack(gust),True Velocity(gust),Acceleration
0.0,31.222216000000007,131.010392,3.000000004412624,0.0,0.0,0.0,0.0,0.0,2.2828121974499247,0.0,0.0,71.99999999612658,-1.0292491154817412e-14,119.99999999354436,0.0,15.288,0,0.0,0.0,0.0,0.0,0.0,-0.0,0.0,90.0,0.0,0.0
0.01,31.22221599999862,131.01039200000284,3.0000009727369523,0.0,0.0,0.0,0.0,0.0,34.24218696174923,5.916279387578309e-11,5.734623670548936e-11,71.99999999613168,-5.86671995824671e-13,119.9999999935449,2.1432944861733093e-21,15.288,0,0.0,1.7386402909615473e-13,-3.4220131069073734e-19,7.115076756936125e-19,5.488773498207866e-19,-1.1574302492039043e-31,0.0,89.99999999962336,5.916279387578309e-11,0.0
0.02,31.22221599999738,131.01039200000537,3.0000018317022668,0.0,0.0,0.0,0.0,0.0,25.871876237766408,1.2265415415436536e-10,1.1895038237325684e-10,71.9999999961369,-1.1836364828043265e-12,119.99999999354544,9.211895886571454e-21,15.288,0,0.0,3.6044858651615574e-13,-6.979551485375437e-19,1.4162390878091906e-18,1.0909784360635388e-18,-4.776231873571785e-31,0.0,89.99999999921916,1.2265415415436536e-10,0.0
0.03,31.22221599921969,131.01039200159065,3.0001883335529382,18.80143492628821,-0.0001350810307892,10.931161642028636,-1.75114298675875e-05,3.026590975169265,180.34219359854663,0.0798232026864394,0.0478175828508887,71.99999999765336,-5.341802909786072e-12,119.99999999436793,0.0039016003969354,15.288,0,0.0,0.0002345795854893,3.788270153300133e-17,-7.771883375645477e-10,1.1422790048099072e-11,1.7057759223764537e-13,18.80143492675591,89.51882325913425,0.079801984207741,11.342422482672777
0.04,31.222215995131297,131.01039200995308,3.001692634342189,9.19442604083399,-4.49173898918486e-05,52.29595764159784,6.445392950801871e-06,3.026413589912948,548.6359724538078,0.3504174083926908,0.1601447499964056,72.00000000319055,-3.111420077280171e-11,119.99999999870242,0.0751892535633216,15.288,0,0.0,0.0010297854387864,2.0082066977226968e-15,-1.520937588847922e-08,2.5623342884322286e-11,1.4654248781413086e-11,9.19442604094277,87.798916624545,0.3504103527855857,52.383455068075136
0.05,31.222215983575865,131.01039203366796,3.0074067499493786,5.158590039700252,1.707592688632746e-06,76.26884281015512,5.843947534199429e-05,3.0258124765658088,761.6984298824644,0.9592973585397016,0.3772700771701255,72.0000000004862,-1.3608731808076822e-10,120.0000000109612,0.5634958029902841,15.288,0,0.0,0.0028191251099456,2.086299069701397e-14,-1.0551247853743037e-07,3.973493515691201e-11,2.783064866637575e-10,5.158590039700515,83.94063169874748,0.959297626767734,76.32884071402438
0.06,31.222215961742712,131.0103920785344,3.019291017943491,4.109521257467909,3.140103977270004e-05,57.06876634333886,0.0001151069734147,3.024834864051463,590.4875390737208,1.6257536642597354,0.6118982818704327,71.99999992547217,-3.5903296759057166e-10,120.00000003412836,1.6184272268450337,15.288,0,0.0,0.0047776672697797,1.0694899894620088e-13,-3.741090980393931e-07,5.521401959501359e-11,1.6723176417636091e-09,4.109521257587776,79.78719176344794,1.6257585967235286,57.148873286519276
0.07,31.222215929936205,131.01039214392435,3.0371334573469446,3.649087515174788,5.707077112564807e-05,86.89643797254193,0.0001728541558773,3.0234947746384675,855.2937749779139,2.3057260079826607,0.8506307413593818,71.99999965378231,-6.907496536790437e-10,120.00000006788592,3.255354923652711,15.288,0,0.0,0.0067759305364855,3.495199904512709e-13,-9.036515915819006e-07,7.594816279105379e-11,5.728932851326001e-09,3.6490875156204896,75.6601668283889,2.305734972638426,86.94902215090157
0.08,31.222215886364623,131.01039223353447,3.0621840248716574,3.4254446680114707,8.413075603463509e-05,17.831756866644035,0.0002285946601282,3.021841001032126,241.2171988638848,2.961944911520492,1.0819695676346892,71.99999900671328,-1.141745983122182e-09,120.00000011415082,5.371998197385977,15.288,0,0.0,0.0087043901031071,8.800530155962314e-13,-1.829098470920821e-06,1.0943386634701918e-10,1.4896287129277132e-08,3.4254446690434226,71.81713637501419,2.9619581267487467,18.085991154451033
0.09,31.22221583454733,131.01039234010327,3.0919888289029,3.389560809024919,0.0001118726864415,54.09031716446879,0.0002748660999733,3.020060228038602,563.0937377043176,3.504225426410036,1.2780161667917422,71.99999774508822,-1.634190085504106e-09,120.00000016921716,7.519080503822694,15.288,0,0.0,0.0102980157586766,1.865782139518716e-12,-3.1503298654458527e-06,1.6284478329871028e-10,3.03536411425607e-08,3.389560810868955,68.76526501308032,3.504242999330529,54.17456206384468
0.1,31.22221577423132,131.0103924641528,3.1267248829165366,3.4447939461814814,0.0001419149103147,51.372195336549765,0.0003131602029306,3.0182021883815127,538.7437595981919,3.950569597142709,1.4443465951180965,71.99999562056465,-2.1287748602259068e-09,120.00000023339832,9.55649523509932,15.288,0,0.0,0.0116097108366932,3.485956000178229e-12,-4.949356763187612e-06,2.4573266549165286e-10,5.3761299442583966e-08,3.444793949101151,66.34639928474206,3.9505918890846927,51.460781166288626
0.11,31.222215706113143,131.01039260424562,3.165907002780892,3.4691423802630394,0.0001702373452339,40.591037561894986,0.0003534470100582,3.016051659024047,442.8656393052949,4.421478635995476,1.6182620895289603,71.99999235067894,-2.5564479031457968e-09,120.00000030601664,11.970509656144712,15.288,0,0.0,0.0129935974697161,5.942887149865172e-12,-7.273722517324353e-06,3.67769289312894e-10,8.842679949465076e-08,3.4691423844348632,63.88798785789768,4.421505376815134,40.70293476011277
0.12,31.222215630588888,131.0103927595646,3.2092596514826863,3.4852659299808075,0.0001974376474727,44.30042894095728,0.000394069215595,3.013641598889868,475.58594813540446,4.896982486381051,1.793579340340896,71.99998761802138,-2.8337988279882726e-09,120.00000038673312,14.683611096353944,15.288,0,0.0,0.0143909889875706,9.464337642181618e-12,-1.017558359402848e-05,5.395790443954697e-10,1.3700793350599625e-07,3.4852659355662303,61.5068242157714,4.897013499814194,44.40281567867803
0.13,31.222215548046687,131.0103929293088,3.256512891171917,3.5606043721293616,0.0002276507019012,48.86766833507025,0.0004268800875964,3.0112558910133567,515.9156326236895,5.278566579338586,1.939796541405244,71.99998107389406,-2.8573058577484587e-09,120.00000047523812,17.061052093156064,15.288,0,0.0,0.0155123760833565,1.4300406003001044e-11,-1.3705268062305584e-05,7.724776992181392e-10,1.989112774124932e-07,3.560604379397528,59.67313531776262,5.27860233862722,48.960358155653
0.14,31.222215458587108,131.01039311327068,3.30759734332425,3.6000732663755977,0.0002555702913645,45.540290862247225,0.0004629468001456,3.0085404980032777,486.2390860568404,5.70011779273801,2.098362647205908,71.99997235012626,-2.508533681468686e-09,120.00000057154703,19.894788765881632,15.288,0,0.0,0.0167512184495524,2.071534240530911e-11,-1.7917736259613292e-05,1.0787346240473087e-09,2.8081526258393346e-07,3.6000732754351943,57.72385750323359,5.700157937625502,45.639559681930805
0.15,31.222215362317904,131.01039331122794,3.3624387479639086,3.651605404442164,0.0002842753491325,44.01308509501,0.0004965057129938,3.005703619811542,472.54218587214,6.091938849578711,2.2476968067377374,71.99996103728932,-1.6446954747148112e-09,120.00000067569304,22.723773683610247,15.288,0,0.0,0.0179026934683374,2.9002783512213203e-11,-2.287326399669318e-05,1.47199345427166e-09,3.831202693354572e-07,3.651605415492516,55.98561718911576,6.091983503446133,44.115597174664394
0.16,31.22221525912812,131.01039352340948,3.421115382839859,3.67540086436193,0.0003108411545024,34.83804992586084,0.0005330990866742,3.002517946501868,391.1218908297564,6.521183188362317,2.4085903880902046,71.99994669525161,-1.0153513453738144e-10,120.00000078796704,26.03872642002185,15.288,0,0.0,0.019164148528834,3.9478358970291335e-11,-2.864207894220033e-05,1.9677461746207517e-09,5.135466997084602e-07,3.6754008774883777,54.15946979122355,6.521232015176687,34.96719658394182
0.17,31.2222151493826,131.01039374906244,3.4833737923187487,3.7139589864597298,0.0003384978477213,43.96471427482637,0.0005668629535037,2.999235483723449,471.78125980632376,6.916861975403744,2.559060925010733,71.99992884100092,2.3206494032971838e-09,120.0000009081849,29.29426197817256,15.288,0,0.0,0.0203269651395979,5.248754693205839e-11,-3.5267097947693114e-05,2.580363454062817e-09,6.706952682968329e-07,3.713959001863866,52.549031795895466,6.916915146521327,44.06689817851128
0.18,31.22221503253009,131.01039398932429,3.549599475912623,3.7380363034619775,0.0003650282082698,36.67395661481795,0.0006021794701355,2.9956556354306425,407.10156721191447,7.332140201215607,2.71556808256092,71.99990696207136,5.837017536380516e-09,120.00000103716444,32.917216366714264,15.288,0,0.0,0.0215473823438242,6.839750892601699e-11,-4.285557247677198e-05,3.331016495775474e-09,8.639362741436378e-07,3.738036321259578,50.93050624815799,7.332197539712479,36.796100973258795
0.19,31.22221490871209,131.01039424390297,3.619694897703461,3.747799769666444,0.0003901520189829,41.42208371271829,0.0006393759928961,2.991742733214697,448.9531328318269,7.771071983754382,2.879366399937307,71.99988049019642,1.0709144790974043e-08,120.00000117502664,36.97605053227239,15.288,0,0.0,0.0228373144884866,8.761416506509219e-11,-5.146771415177372e-05,4.238406957677133e-09,1.0996552116864756e-06,3.747799789945131,49.29705748437159,7.771133268690212,41.529983675580546
0.2,31.22221477769685,131.01039451327668,3.693822889232993,3.7700519460961166,0.0004166800650969,37.99697972290605,0.0006740224661302,2.987733789228414,418.51563019916136,8.179966026035371,3.0338260708461373,71.99984881140107,1.723179577184912e-08,120.0000013223286,40.969302182777255,15.288,0,0.0,0.024038975990988,1.1057590044953188e-10,-6.120032215177249e-05,5.3263847350253015e-09,1.376394225587184e-06,3.7700519690893857,47.8457752505109,8.180031477986942,38.11426270718793
0.21,31.222214639876928,131.01039479663547,3.771710975053407,3.7926098867321474,0.0004432924407074,36.46301043881366,0.0007080907240332,2.983530483977461,404.8187610144644,8.582757448615462,3.1863584283669346,71.99981127559042,2.5745201416596626e-08,120.00000147900325,45.103059028532826,15.288,0,0.0,0.0252227064089584,1.3774582723633048e-10,-7.20875523136271e-05,6.61341033873124e-09,1.7010673350603349e-06,3.792609912601061,46.47936953648762,8.582827080829217,36.584868250565684
0.22,31.22221449507626,131.01039509434258,3.8534832466471007,3.782921298925821,0.0004660920499522,44.14577847155813,0.0007479176313898,2.978724032883548,472.5421858721365,9.056569122268344,3.360845972992861,71.99976720416048,3.661811567390422e-08,120.00000164562512,50.21995530074818,15.288,0,0.0,0.0266151520780326,1.6960703048385348e-10,-8.421592474264931e-05,8.124635526119773e-09,2.0969540034515424e-06,3.7829213275976334,44.9464484092354,9.056642335836344,44.24615863872642
0.23,31.22221434283448,131.01039540734791,3.9394622486964206,3.813874679301352,0.0004940771488601,36.66675459308932,0.000779455230549,2.974212905336642,406.3406421461021,9.430647902846331,3.5044030163419806,71.99971583979395,5.0272885112871524e-08,120.00000182313076,54.45382429059888,15.288,0,0.0,0.0277145095638672,2.0669790509245914e-10,-9.77285871729516e-05,9.894576563683824e-09,2.5339062472561444e-06,3.813874711257219,43.79476959007253,9.430725512303388,36.78718303164376
0.24,31.222214184153326,131.01039573358457,4.028950821673608,3.829256049377765,0.0005200487408944,37.802126339316736,0.0008136255607606,2.9692962675112065,416.2328240017114,9.837806876534357,3.658163422426286,71.9996564062533,6.718950080713476e-08,120.0000020109434,59.25679777340223,15.288,0,0.0,0.0289110855155543,2.4956955046738006e-10,-0.0001125744417092,1.1934277804843484e-08,3.0448209172448607e-06,3.829256084638984,42.59361542722471,9.83788856559955,37.91856374864305
0.25,31.22221401888584,131.01039607335582,4.122052964664892,3.851417709838087,0.0005469594058717,38.85163035360012,0.0008459008130282,2.964283881833675,425.36408079150686,10.22297576958679,3.8050691648373967,71.99958811418384,8.786880969336211e-08,120.00000220974424,63.98709205399403,15.288,0,0.0,0.0300430411774988,2.987811646313829e-10,-0.0001288461362054,1.4273117985167728e-08,3.621333387698252e-06,3.8514177486178034,41.50703126619192,10.223061685769354,38.96455005232871
0.26,31.222213847358866,131.0103964259872,4.218542267117083,3.8780574625554745,0.0005745172425185,42.3164797140743,0.0008766626387865,2.959162938653076,455.8015834241788,10.590779679138215,3.946551912391076,71.99951013710364,1.1286401474734325e-07,120.00000241975916,68.67355887153568,15.288,0,0.0,0.0311239685467471,3.5491769188178554e-10,-0.0001465721578858,1.6932703957058654e-08,4.267712643344226e-06,3.8780575050466,40.51245375834074,10.590869924095635,42.41981967733593
0.27,31.22221366913008,131.0103967923915,4.318728802515264,3.886188503202341,0.0005994342651313,38.70936050721014,0.0009111181036949,2.953518013741325,423.84219965987256,11.004860953238978,4.102320296019413,71.99942161756776,1.4276417094868828e-07,120.0000026420792,74.14786134434608,15.288,0,0.0,0.0323408987462391,4.1858405402174807e-10,-0.0001658847815307,1.995072923688136e-08,5.018832267232506e-06,3.886188549362022,39.43841359495857,11.00495511215316,38.8218734782956
0.28,31.22221348431185,131.01039717233687,4.422535913956003,3.90556090261878,0.0006261175699806,44.68030766832924,0.0009425767186621,2.947879457547137,476.3468732012221,11.38358114165448,4.247086834352694,71.999321619057,1.7823531611327881e-07,120.000002877279,79.33831935330025,15.288,0,0.0,0.033453914386159,4.904408325040897e-10,-0.0001868529238516,2.3357766479368094e-08,5.847713054408178e-06,3.9055609527288775,38.49894431917428,11.383679491972384,44.77744842575601
0.29,31.222213292835256,131.0103975659655,4.530013412817602,3.9242599519377537,0.0006528240665589,35.802573724660256,0.0009737210635801,2.942037024315898,397.97031042211177,11.759725774384751,4.391004157029451,71.99920917567837,2.1999186079018322e-07,120.00000312617878,84.66717879828003,15.288,0,0.0,0.0345593650464213,5.711677680739745e-10,-0.0002095620322847,2.7188189988316943e-08,6.77505090435382e-06,3.9242600061534456,37.60352534239979,11.759828319749328,35.92324968749781
0.3,31.222213095024976,131.0103979726075,4.64093665799555,3.936939025755682,0.0006785438093183,33.570228713727204,0.0010059102294455,2.93586442972183,378.1859457108711,12.149968255527943,4.539237002744259,71.99908328532703,2.6880857935396905e-07,120.00000338923812,90.3787563598417,15.288,0,0.0,0.0357062504417728,6.614698865958865e-10,-0.0002340353597042,3.1467140861055e-08,7.817263716758327e-06,3.9369390841381695,36.71173884615234,12.150074840940263,33.698361337808635
0.31,31.22221289105846,131.01039839189684,4.755183729044857,3.9598342215431432,0.0007060286581592,35.396825578217346,0.0010350810412898,2.9297385597941448,394.1656220930212,12.504537499407316,4.6763673222047455,71.99894291513503,3.255120771695107e-07,120.00000366712923,95.72967338626896,15.288,0,0.0,0.0367483036680869,7.620720834468404e-10,-0.0002603234137215,3.622454560346964e-08,8.948994505138873e-06,3.9598342843844345,35.934338386209795,12.504648402129598,35.5178635353378
0.32,31.222212681031937,131.01039882363492,4.872689374180126,3.985461429033668,0.0007340760463279,38.52097867048992,0.0010630242168685,2.9235095146848846,421.55939346242695,12.84534566718622,4.809181081594425,71.99878701464397,3.909756427278764e-07,120.0000039606604,101.01782231644016,15.288,0,0.0,0.0377499198995686,8.737098716736534e-10,-0.0002884807530145,4.1491545539590986e-08,1.0187112828155184e-05,3.98546149652875,35.21473736963424,12.845460975581933,38.631757748577954
0.33,31.22221246496604,131.01039926777932,4.9934410812554,4.010606629086,0.0007621365968788,38.18822026147908,0.0010905599149574,2.917102431053817,418.5156301991682,13.18247167592885,4.940798912752974,71.99861449732019,4.661299779655886e-07,120.000004270781,106.38859400029033,15.288,0,0.0,0.0387407190563976,9.971421990244511e-10,-0.0003185760672934,4.7302669734505256e-08,1.154498667827874e-05,4.010606701382261,34.52805863348922,13.182591392065536,38.299473293007864
0.34,31.222212242662028,131.01039972474007,5.117579377337869,4.019339771238816,0.0007871574969313,29.898022638335373,0.0011220389395318,2.910051232417875,345.46563688075645,13.569536737955724,5.0878303926024735,71.99842423285973,5.519675040347761e-07,120.0000045987411,112.72655675097128,15.288,0,0.0,0.0398782837956187,1.1331556132162459e-09,-0.0003507224668667,5.37022358302301e-08,1.308298593306914e-05,4.019339848191799,33.76700548046532,13.5696603843662,30.039310197084795
0.35,31.22221201433324,131.01040019407705,5.2449575244483055,4.033762873683395,0.000813261106463,32.76415525156106,0.0011515840876071,2.902959820469776,370.5765700527033,13.934300103976534,5.227895396154902,71.99821502296155,6.495674834876441e-07,120.000004945438,118.8669740701126,15.288,0,0.0,0.040950312688979,1.2825853697215452e-09,-0.0003849609961885,6.072234695821837e-08,1.4746020857580124e-05,4.033762955530055,33.07785186209504,13.934427850732408,32.89250745069162
0.36,31.22221177990305,131.01040067594835,5.375631006350063,4.051723629010647,0.0008401329464575,37.01692984301412,0.0011797030485285,2.8957873473716007,407.8625232777193,14.282998147928636,5.362923567977223,71.9979856440668,7.600645476620651e-07,120.00000531213882,124.88900300695136,15.288,0,0.0,0.0419751331662584,1.4462801652534363e-09,-0.0004213876232777,6.84067806399068e-08,1.654507199147348e-05,4.051723715967022,32.44322602189087,14.283130115703262,37.13002398000203
0.37,31.222211539445663,131.01040117020102,5.509550188388412,4.071639898917391,0.0008674922629137,35.12417761390579,0.0012067983861697,2.88849906286036,391.1218908297666,14.620581431527652,5.494447309446232,71.99773482653193,8.846681943540367e-07,120.00000570002652,130.86067091914967,15.288,0,0.0,0.0429672939311924,1.6251202388969355e-09,-0.0004600660652957,7.679415042686734e-08,1.849041957573993e-05,4.071639991174516,31.85023865502424,14.620717696893658,35.24274792557624
0.38,31.222211292895075,131.01040167697127,5.646763233102716,4.08264881385344,0.0008930259828975,36.695642158537446,0.0012360471443664,2.880711738179021,404.8187610144602,14.986392916850402,5.634654729559426,71.99746126698146,1.0246533537040716e-06,120.0000061105033,137.4891296153862,15.288,0,0.0,0.0440424171304414,1.8200057922063743e-09,-0.0005010869196581,8.592980519823866e-08,2.0642694281337543e-05,4.082648911356968,31.228847973200924,14.986533193043764,36.808540518115166
0.39,31.22221104018777,131.0104021963902,5.787316652586672,4.096641430700089,0.0009192713382325,31.335681548387896,0.0012640110027448,2.872831219844713,357.64062493382744,15.337978856701952,5.770390286512262,71.99716358743511,1.1813915463769678e-06,120.00000654506955,144.01394309468844,15.288,0,0.0,0.0450757388736732,2.031886352449547e-09,-0.00054455673306,9.586443829735616e-08,2.295945663566148e-05,4.096641533664766,30.65298398882095,15.338123255506089,31.4670954954126
0.4,31.222210781536543,131.01040272801887,5.931064331106764,4.109028969993624,0.0009451871856381,29.95928076777898,0.0012920492774571,2.8646905607053603,345.465636880754,15.692185018814769,5.906873567965718,71.99684037970908,1.3563276523471372e-06,120.00000700500496,150.74021066990193,15.288,0,0.0,0.0461167659598875,2.2617341782092324e-09,-0.0005905037520737,1.0663253249436129e-07,2.5471259834659164e-05,4.1090290785164525,30.09246700352443,15.692333488470696,30.095929256306363
0.41,31.222210517064383,131.01040327160345,6.077922766619747,4.122888296344507,0.0009714525997821,33.78425365340317,0.0013192264430821,2.85640971467756,378.94687077668647,16.03742529732769,6.0405139809190125,71.99649020751959,1.5509747261474075e-06,120.0000074917568,157.44375780268788,15.288,0,0.0,0.0471314487675864,2.5105374204052982e-09,-0.0006389770219162,1.1827345344180344e-07,2.816813594418537e-05,4.122888410595805,29.56469007160549,16.037577892745222,33.904791300285986
0.42,31.22221024682894,131.0104038270252,6.227854084363214,4.14444025865494,0.0009995884754813,38.04468161607466,0.0013435485656724,2.8482703202464488,416.2328240017114,16.348862540904037,6.163613566771559,71.99611159893284,1.766920641656551e-06,120.00000800692096,163.6157044470786,15.288,0,0.0,0.0480467946810589,2.779304965995011e-09,-0.0006900467934588,1.308321832549104e-07,3.100973487310896e-05,4.144440378988911,29.104646754454564,16.34901955589459,38.15115260238947
0.43,31.222209970843565,131.0104043942566,6.380851271439565,4.1618082623168045,0.0010268052928652,33.45815353250911,0.0013687230309017,2.8397750580998298,375.9031395134336,16.67263197205097,6.290467308135904,71.99570306121484,2.005818691215035e-06,120.00000855220898,170.15779512382937,15.288,0,0.0,0.0489983878509763,3.0690566816849196e-09,-0.0007437862329608,1.443552931671376e-07,3.4086145072160934e-05,4.161808388761201,28.640125213458976,16.672793262249197,33.57845085853367
0.44,31.22220968892116,131.01040497368373,6.537047157143216,4.164954087655709,0.0010505545842624,30.86574023822051,0.0013980747538988,2.830419582421933,353.0750125389216,17.050421620730056,6.433992917638883,71.99526304125902,2.269416145406482e-06,120.00000912964636,177.9537948947602,15.288,0,0.0,0.050108743779844,3.380847125286677e-09,-0.0008003278134917,1.589055036683518e-07,3.750784460406397e-05,4.164954219916419,28.113519280259386,17.050586641458253,30.99524475496968
0.45,31.22220940081287,131.01040556582012,6.696617751072218,4.165241899529329,0.0010735835484822,35.912216710755274,0.0014280646808282,2.820677244966047,397.2093853562869,17.438293672974723,6.580571293039616,71.99478987454265,2.5595995397253085e-06,120.00000974147088,186.13940823302417,15.288,0,0.0,0.0512487363629523,3.7158016249566814e-09,-0.000859850913876,1.745604864109677e-07,4.121350642664912e-05,4.1652420376426775,27.591357195572936,17.43846231108416,36.02281959036367
0.46,31.222209106468902,131.0104061707686,6.859600379555308,4.174585124444534,0.0010989881252456,41.916816790010685,0.0014546917035209,2.811153314474766,449.7140588976434,17.786187321601275,6.714685486378061,71.99428180697711,2.8783880229668832e-06,120.0000103898448,193.6374175079873,15.288,0,0.0,0.0522712438446989,4.0751091178509895e-09,-0.0009224765531151,1.9138630415982226e-07,4.50966024037632e-05,4.1745852688465686,27.13985967570823,17.786359950252297,42.01097612387663
0.47,31.22220880579083,131.01040678873238,7.026066274755745,4.1823089530633855,0.0011240727220223,28.37640408484148,0.0014814747534716,2.801325368441072,331.0078106302534,18.138167428286582,6.849989708801916,71.99373704967608,3.2278903746588286e-06,120.00001107707628,201.37401505997488,15.288,0,0.0,0.0533057667609836,4.459978104761035e-09,-0.0009883252835099,2.094509673354327e-07,4.927107017839778e-05,4.182309103852639,26.69716826759888,18.13834399721685,28.514342615617974
0.48,31.222208499300592,131.0104074186346,7.195654207463586,4.189479568102716,0.0011490100608361,27.95074823096412,0.0015080719422187,2.7912412472910484,327.2031223011574,18.48995085190441,6.98515976370584,71.99315377257649,3.6103201777021456e-06,120.00001180491516,209.25751230436188,15.288,0,0.0,0.0543397174489847,4.8716620260348906e-09,-0.0010573190976925,2.2877013380347535e-07,5.373205427420879e-05,4.189479725385959,26.268461765425428,18.4901313379827,28.089773168283216
0.49,31.222208187201936,131.01040806005494,7.368224738812109,4.202723284133339,0.001175611380853,35.08821363242469,0.0015321405723077,2.781292092003844,389.60000969812296,18.812014261754847,7.111044804193205,71.99253015042137,4.027946338669921e-06,120.0000125755114,216.60722913930897,15.288,0,0.0,0.0552863302793499,5.311396446020465e-09,-0.0011294854492155,2.4938633613154685e-07,5.8398320167141767e-05,4.202723448262914,25.88860807032205,18.81219892635871,35.1982716047702
0.5,31.22220786953184,131.01040871291724,7.5437546994244835,4.220815778795054,0.0012036252596423,36.05491615971072,0.0015540388599792,2.7714444106710974,397.97031042210494,19.10875420627192,7.229005658018125,71.99186435180009,4.483102820610566e-06,120.00001339126192,223.4908652241728,15.288,0,0.0,0.0561585257949344,5.7804122391526605e-09,-0.0012048912160576,2.713531252030471e-07,6.327866493526626e-05,4.220815950099865,25.54902500917784,19.108943271285572,36.161276053538906
0.51,31.222207546379583,131.0104093770373,7.722184419225251,4.232567510615346,0.0012298790840397,27.54004661432325,0.0015777580800203,2.761017323676155,323.3984349720841,19.430597746636646,7.354673636736509,71.99115452520388,4.978202222778502e-06,120.00001425458936,231.07869697977367,15.288,0,0.0,0.0571045034845869,6.2799518101633574e-09,-0.0012835871653678,2.947201005874635e-07,6.854585242460463e-05,4.232567688976395,25.189423168613605,19.430790935591396,27.678103017910345
0.52,31.22220721801113,131.01041005262385,7.90353892482264,4.239147664274439,20.86532173061452,33.58886238044078,-1.321218777305426,2.7499526254759457,372.0984511843415,21.15146321880371,7.483352689449349,71.99039114473354,0.0001647884705209,120.00018264632268,273.81728375799327,15.288,0,7.542873569921861,0.0621620750881432,6.864644654566688e-09,-0.0013877869170181,0.0003055366641946,8.067245943671223e-05,21.27275781866565,42.74889278852544,24.35701577976595,33.72713350571104
0.53,31.222206884939823,131.010410740589,8.087956243124587,4.247576144716381,20.589310978278466,35.25432348285444,-1.3546655678093809,2.7388539808795405,386.5562464348624,21.4669633122195,7.611850574964029,71.98957478210889,0.0010581960938038,120.00112243827768,282.04185528021725,15.288,0,7.571898604732161,0.0630894301576347,7.709828612146918e-09,-0.0014733637404831,0.000755158682618,8.69230573173622e-05,21.004237180655387,42.22227290651704,24.631966422964904,35.386491266625036
0.54,31.222206547100456,131.0104114411982,8.27551146438106,4.255808992191383,20.32204398265713,30.99936352944618,-1.3885088457935513,2.727518935571974,349.2703242098436,21.781022691699448,7.739690516903616,71.98870843390915,0.0027529490262852,120.00290487652391,290.349477149739,15.288,0,7.600862578895966,0.0640125572173738,8.833568005209709e-09,-0.0015626491437231,0.0012163073543639,9.35376222765024e-05,20.74442464377664,41.71063915983456,24.90669091583408,31.150085964399977
0.55,31.22220620481052,131.01041215384757,8.465999115518127,4.26504853861336,20.068163506276484,32.838932978046046,-1.4223572328856466,2.716035142558295,365.2500005919907,22.08818312316613,7.865083545057918,71.98778995630549,0.005268893448356,120.00555083825724,298.5908933100646,15.288,0,7.6297295085963235,0.0649154148718844,1.0242747847361257e-08,-0.0016556138904383,0.00168851921944,0.0001004980632112,20.498086058909827,41.222623488469935,25.176423613875368,32.98174443734221
0.56,31.22220585809179,131.01041287854147,8.659419351919082,4.276154235874156,19.830713185429616,30.67121957888013,-1.455896902591687,2.704477641276392,346.2265619465787,22.38421874022344,7.9866518102571264,71.98681717757304,0.0086255411093449,120.00908085043096,306.64252755104246,15.288,0,7.6584972721592575,0.0657855835676237,1.1944105426426086e-08,-0.0017523556972857,0.0021719625463832,0.0001077940468236,20.268358568266464,40.76402804592689,25.437398784335244,30.824625635342596
0.57,31.222205507041668,131.0104136151273,8.85571935608715,4.285059838103663,19.59179869503168,30.332475012950223,-1.4904642757479327,2.6925350537271715,343.1828296833023,22.687803765601465,8.110563588142739,71.98578787622978,0.0128423838336073,120.0135154201465,315.01064648037584,15.288,0,7.687151792881533,0.0666779454351752,1.3944367524966976e-08,-0.0018529301918404,0.0026665988015716,0.0001155244473091,20.036935138274423,40.30266925872399,25.705654249405555,30.48819885109778
0.58,31.222205151657207,131.01041436365884,9.054916133372195,4.289114337875501,19.3403171937256,39.84597848575401,-1.5270407420370706,2.679967072765433,426.1250058573153,23.01196655359476,8.241093611991358,71.98469976754765,0.0179390780803754,120.0188752290021,324.07048492967107,15.288,0,7.71569179289415,0.0676307902742395,1.625029909262091e-08,-0.0019574397996959,0.0031726112328846,0.0001237816381844,19.792423843523505,39.81824884620029,25.99257245192564,39.96518582999608
0.59,31.22220479153286,131.0104151250225,9.257307829294108,4.29823604848505,19.11754851568903,32.35796309092905,-1.56222133455276,2.667583300738155,360.68438819711065,23.309675470662903,8.362773200988409,71.98355042619495,0.0239365297255157,120.02518227422443,332.50334960409634,15.288,0,7.744160062705298,0.0685058953495776,1.8869036788391857e-08,-0.0020662003934201,0.0036911613808612,0.000132347061871,19.577141961663862,39.3860639960509,26.25724118858726,32.50529666928815
0.6,31.222204426913773,131.0104158987618,9.462739100304429,4.2991910971378,18.868467984197697,28.79149521083647,-1.6006997951794977,2.654250799357526,329.4859594986058,23.64477804166713,8.496573418485724,71.98233731078469,0.0308559126650574,120.03245883819147,342.12553270511245,15.288,0,7.772528467855939,0.0694909050135027,2.1807883801454374e-08,-0.0021792014793327,0.0042218788497487,0.0001415890594874,19.33465390648115,38.90556808123815,26.555348367990632,28.957857027338832
0.61,31.222204057769424,131.0104166849891,9.671246765908208,4.298616739008548,18.62058955591995,33.68808480190132,-1.6402247429199697,2.640501286755245,372.0984511843297,23.98599700276983,8.632208575528017,71.98105790556305,0.0387188634115035,120.04072768406328,352.06419406999345,15.288,0,7.800800746528813,0.0704938975181415,2.5074249623851684e-08,-0.0022965765186508,0.004765058047199,0.0001513655593619,19.09316760513581,38.42698075296975,26.85969587351364,33.83119332617071
0.62,31.22220368424156,131.01041748346208,9.882747848473834,4.309747130886132,18.42645260507374,41.81685919431831,-1.6757654549700385,2.62758136170261,442.86563930529206,24.266524646600445,8.747836542367022,71.97970947962959,0.0475475116829588,120.05001210276131,360.3401489628616,15.288,0,7.828975813283958,0.0713185273469995,2.8675736344372584e-08,-0.0024183946175467,0.0053206992244006,0.0001612554142533,18.90669260491772,38.04757987655599,27.111308413073605,41.932828267955905
0.63,31.222203306155723,131.0104182945858,10.097378324665344,4.316794359126316,18.22200385481547,23.84032098507349,-1.7131778472436905,2.6140488184511126,286.11251274707894,24.56488942208217,8.869174207416538,71.97828929974433,0.0573631638596623,120.06033452162586,369.2480106867365,15.288,0,7.857033019724027,0.0721955865355851,3.2619588849951635e-08,-0.0025448438747668,0.0058893137164668,0.0001717697016136,18.709445583644865,37.64944371320975,27.379186924278653,24.04431604834847
0.64,31.222202924146767,131.01041911709842,10.31471117185516,4.317506670762703,17.998763375628602,23.41053959963808,-1.7534716902181244,2.599635318276924,282.30782441796754,24.8936915549752,9.000316191167483,71.97679467597882,0.068187284121608,120.07171752728988,379.1910532953428,15.288,0,7.884984255405221,0.0731621070398912,3.6913287332225847e-08,-0.0026756870621462,0.0064695672684347,0.0001830147796726,18.49267074532984,37.216489162430165,27.67465976239833,23.619613271657347
0.65,31.222202538212887,131.0104199510476,10.534761805536627,4.326855061668978,17.814737957364507,41.155144225814304,-1.7906974353214926,2.5858435371310327,436.7781447787475,25.1752990328972,9.115944365371668,71.97522273173267,0.0800408350386072,120.08418319202212,387.8105080413336,15.288,0,7.9127521002939805,0.0739899299794495,4.1563978377286415e-08,-0.0028110564924968,0.0070617506525259,0.0001944449081656,18.31608878640396,36.85691123632323,27.928760897419263,41.2751629960557
0.66,31.222202147839027,131.0104207975353,10.757901870039907,4.333666574514544,17.626262166012445,35.048613656050726,-1.829297700705008,2.57155237759328,383.51251517160017,25.467461826982337,9.234893371238886,71.97357063563823,0.0929449477257167,120.0977537601293,396.8554225552389,15.288,0,7.9404365563261665,0.0748487816747677,4.6578689752004096e-08,-0.0029513536308881,0.0076672656619049,0.0002065142248218,18.134754530876684,36.48938034813142,28.1927227088576,35.19040396073361
0.67,31.222201753238608,131.01042165616704,10.983997472944688,4.334858279741193,17.421776569202446,24.21699314289109,-1.8706495389566264,2.556392873522781,289.1562440103425,25.78731177140968,9.36272754469915,71.97183532906779,0.1069221986634475,120.11245300038452,406.8775276592223,15.288,0,7.968029495230816,0.0757890128650638,5.196518002005773e-08,-0.0030965751509217,0.0082857901445308,0.0002193922712314,17.936732066959262,36.0921027493278,28.481942834664476,24.423292798151333
0.68,31.22220135460694,131.01042252658493,11.212927155932364,4.337193890833247,17.226744330420875,30.170890129472767,-1.911961775915788,2.541078183727512,340.8999924858462,26.09899064917632,9.487782441524734,71.97001369434315,0.1219950717053179,120.12830458632124,416.7632712596982,15.288,0,7.995438516268691,0.0767052364459396,5.773116524210379e-08,-0.0032467386604032,0.0089171008752765,0.000232806512827,17.748280939109936,35.71295283012785,28.764375923959754,30.338017195807247
0.69,31.22220095204487,131.01042340862347,11.44463460085122,4.344238755789525,17.05413573617428,37.0903477888621,-1.9516116985676248,2.526046321525979,401.0140726853634,26.38246609995976,9.60355923448593,71.96810256397646,0.1381856932064344,120.14533181860828,425.8563515136535,15.288,0,8.022741791561893,0.0775385767765914,6.388420961246596e-08,-0.0034018993251433,0.0095611332540388,0.0002465762617519,17.582806546830064,35.376371605449904,29.02194232044088,37.22745757286184
0.7,31.22220054542449,131.01042430258462,11.679221556100048,4.350578975784537,16.88344198670236,31.149362309148657,-1.9919285611875124,2.5106852912493145,349.27032420985284,26.667100009815243,9.719603583722249,71.9660987223477,0.1555159052572742,120.16355770183029,435.0850366965246,15.288,0,8.049945187117372,0.0783753287531616,7.043165897625765e-08,-0.0035622560458291,0.0102183970474805,0.0002609789964645,17.4191535712119,35.043855556244395,29.2809310410348,31.313800348906568
0.71,31.222200134818035,131.01042520835964,11.9166509959493,4.353157469905245,16.7033175995295,25.642621543543704,-2.034339628857277,2.494599701791401,301.33126406340574,26.97029793687394,9.84156377835561,71.96399883470511,0.1740080658010148,120.18300578585335,445.0247391509939,15.288,0,8.076960533036544,0.0792666479947445,7.738113637094418e-08,-0.0037278802822463,0.0108888812660049,0.000276211930948,17.245599017019593,34.69407722133562,29.55704175865097,25.84386977646979
0.72,31.22219972024319,131.01042612595143,12.156923762968097,4.35131565088055,16.511799212092097,31.34101902293883,-2.0792955541621607,2.4776583356930124,350.79220534145287,27.29662588419263,9.970895246838603,71.96179940257521,0.1936849805144814,120.20370009769437,455.84855311698607,15.288,0,8.103870472564996,0.080225954705286,8.474038714210619e-08,-0.0038988956329144,0.0115727807641874,0.0002923716710344,17.06007555559417,34.32296385090985,29.85454102405652,31.507486955106422
0.73,31.222199301712607,131.01042705537463,12.400044529144894,4.358520404310259,16.356932042473474,39.58242098925311,-2.120393606052496,2.461609752536403,422.320318528234,27.568595719040864,10.08251685978824,71.95949686191646,0.2145702359413488,120.22566548360452,464.96664101837285,15.288,0,8.130680169391269,0.0810255079627366,9.251740227697953e-08,-0.004075443363995,0.0122703554367002,0.0003086484354681,16.91232763236343,34.02197906212743,30.103178259399787,39.71553402623255
0.74,31.22219887917324,131.01042799677364,12.646062166391664,4.362227557335446,16.193457899185514,24.872522083887063,-2.1635404557537914,2.444836861297928,294.48281347105944,27.85811257213132,10.199715353364049,71.95708761105902,0.2366865400001056,120.24892587123188,474.7725746724704,15.288,0,8.157340270796297,0.0818766400053407,1.0071985450859837e-07,-0.0042576634031315,0.0129818438410142,0.0003258271924772,16.755522118230466,33.7051995111038,30.36804568275704,25.085862341077572
0.75,31.22219845302233,131.0104289493723,12.894714418887007,4.363550626900215,16.02543198404923,28.99749524785413,-2.2082962402212223,2.4274496806936168,330.24688556441487,28.159276180656285,10.320576721520265,71.9545679218155,0.2600567556739751,120.27350535628842,485.0816546373133,15.288,0,8.183840783884195,0.082762009831249,1.0935580021250609e-07,-0.0044453971143826,0.0137063516272538,0.0003438634317158,16.593846163773947,33.380240217426575,30.643852231629225,29.182594382374532
0.76,31.22219802315531,131.01042991341905,13.146085414299836,4.367808338516832,15.871339006035695,31.19585383032232,-2.2519875516175065,2.4101957869326,349.27032420986166,28.44051198505035,10.434898663271584,71.95193403339388,0.2847035135328632,120.29942779227346,494.8074302868032,15.288,0,8.210222063747347,0.0835888178660468,1.1843280859500849e-07,-0.004638861251778,0.01444441667527,0.0003624033905028,16.446473380058066,33.082462747026014,30.90181482943141,31.369759129882137
0.77,31.222197589523656,131.01043088904632,13.400220164235428,4.372484437859179,15.72216520992598,29.185876642689305,-2.2958486216933567,2.392732392466764,331.7687666960708,28.71648077903961,10.547423039761917,71.94918198581738,0.3106496749269392,120.32671728523307,504.4443064889056,15.288,0,8.236486851640889,0.0844001530366815,1.2795858779310757e-07,-0.004838222451417,0.0151963720260121,0.0003816365033774,16.30406786485569,32.79468792742468,31.155236417274363,29.373652898438902
0.78,31.22219715220873,131.01043187612035,13.657073803065485,4.373851388394972,15.565038122959908,24.016710734853408,-2.3418477464794645,2.3744910205292458,286.8734378128899,29.0099421453168,10.665494520197443,71.94630783994702,0.337918123142244,120.35539796101004,514.7943905689117,15.288,0,8.262583243348038,0.0852629077651047,1.3794098853533077e-07,-0.0050435352090136,0.0159621289333872,0.0004018871008584,16.153261739342188,32.49223092564547,31.42493058556287,24.247161751345
0.79,31.222196711317142,131.01043287445611,13.916584175968916,4.3731866030884685,15.40445764871318,34.02486463765771,-2.3894099754667715,2.355626275905776,373.6203323159534,29.31361815223335,10.786756956471288,71.94330750361266,0.3665319880081694,120.38549421160567,525.615434848913,15.288,0,8.288532517570477,0.086155691939297,1.4838797728602954e-07,-0.0052548501255335,0.0167415887677291,0.0004230981090922,15.998714119164768,32.18361875956746,31.70429826759614,34.18990594888392
0.8,31.222196266624028,131.01043388454286,14.178917121242495,4.377812948773848,15.26485369499365,34.47105507078866,-2.434508841181997,2.337303976772032,377.42502064505743,29.58181804975652,10.896492369847856,71.9401766825075,0.3965150350875069,120.4170311058242,535.2640049390701,15.288,0,8.314373844805205,0.086944215927995,1.5930733746609784e-07,-0.0054725096385171,0.0175357005683286,0.000444643327698,15.865850625986116,31.916096730009905,31.95134995458383,34.635869570013284
0.81,31.22219581825056,131.01043490616362,14.443999845483736,4.378461692508533,15.115122950175548,22.537731614409324,-2.4822323789442864,2.318047314158333,273.9374926939919,29.8722828809986,11.013299215387311,71.9369109694709,0.4278908146604599,120.45003349279035,545.8132658768467,15.288,0,8.340093892437222,0.0877981865910572,1.707072671664201e-07,-0.0056965244525349,0.018344205124747,0.0004673773979762,15.7223053935886,31.62951866072121,32.21911686452286,22.79219531455673
0.82,31.22219536641042,131.0104359389138,14.71169615366912,4.377272282613115,14.962453825758114,28.86499514245009,-2.531492410348162,2.298161151082164,328.72500443277005,30.17209309082025,11.133014078889284,71.93350601111631,0.4606828012682954,120.48452613742091,556.8099321690285,15.288,0,8.365681005946898,0.0886796322375181,1.825960330293244e-07,-0.0059268513504936,0.0191666639463243,0.0004911426353971,15.575551944006737,31.337735516950573,32.49576721834047,29.066784188720654
0.83,31.22219491109656,131.01043698283647,14.98202126256549,4.382589304803201,14.833766590345748,36.60112916894933,-2.5773728751708345,2.279095917496616,395.68750322465047,30.42744722631651,11.238348729852996,71.92995713731418,0.4949146264398154,120.5205339883142,566.2599634351544,15.288,0,8.391093831421502,0.0894304233910629,1.949816540568143e-07,-0.0061636552889725,0.020003374764451,0.0005150753279659,15.453688429961598,31.093309688585908,32.73158672161071,36.76247795757149
0.84,31.222194452203816,131.01043803816893,15.25505634547788,4.386201182245029,14.702201500591409,22.72424291101565,-2.624605711796171,2.2594589882651075,275.4593748256452,30.690777033419025,11.3461596682837,71.92625977732601,0.5306092622751638,120.55808129703033,576.0884940571409,15.288,0,8.4163819734778,0.0902046635430444,2.078718537306121e-07,-0.0064071413859582,0.020854757361174,0.0005400421924284,15.328705296563246,30.84392659201181,32.97493302473255,22.98662493583802
0.85,31.2221939900606,131.01043910427174,15.53058595129772,4.383889031296272,14.554388673589024,24.74930754647889,-2.675861433532698,2.238435143142408,292.96093233939376,30.9902693409222,11.465495110238209,71.92240918171694,0.5677895391631947,120.59719217705708,587.3711925702925,15.288,0,8.44152747876891,0.0910851982125563,2.212750021239409e-07,-0.0066571324556805,0.0217199191168686,0.0005665738905506,15.186618865330251,30.56334384191268,33.25195958781606,24.993980281894267
0.86,31.222193524487828,131.0104401815313,15.80874179272618,4.385428455812372,14.421499552219927,30.90777003788532,-2.7252079468217767,2.217803723583868,346.2265619465587,31.26178779326431,11.5757581389009,71.91840042408384,0.6064790729974046,120.63789157420216,597.6927135446582,15.288,0,8.466547559579459,0.091883521334636,2.3519884736046645e-07,-0.0069139642404235,0.022599725866488,0.0005935719183696,15.060000234401777,30.312539572857247,33.50326766274416,31.10684266242019
0.87,31.222193055520272,131.0104412698998,16.089508775826285,4.388623765840743,14.296273770055263,28.802134145663928,-2.7738994577091924,2.197193137184808,327.964078366998,31.519319733902844,11.681448118002535,71.91422848426298,0.6467011848413524,120.6802041310378,607.5643753525081,15.288,0,8.491440889657815,0.0926407434171106,2.496514747012597e-07,-0.007177739940848,0.0234942363022439,0.000621276964487,14.94128298479768,30.077406249387003,33.741743664427744,29.018702714428695
0.88,31.222192583204592,131.010442369304,16.372863251053406,4.388710606879763,14.163750506132663,24.93576385953134,-2.8249791313008066,2.1756698434961894,294.4828134710418,31.794890987250263,11.792837327093222,71.9098882384802,0.6884789756577404,120.7241542660488,618.2177805916259,15.288,0,8.51620145922114,0.0934509938608126,2.6464101068598094e-07,-0.0074485234379427,0.0244033759066429,0.0006503339206399,14.814807069863232,29.828535691577663,33.99713694141409,25.189409790991395
0.89,31.222192107637383,131.01044347957014,16.65874759801745,4.385754923499757,14.024257792666084,27.314971710143645,-2.8785092225119606,2.153198352593304,315.028134248087,32.08862918665125,11.909961040108138,71.90537442379113,0.7318356404586882,120.76976650442766,629.6761098360794,15.288,0,8.540809486423075,0.0943146483229885,2.80175660423728e-07,-0.0077263736279073,0.0253270563910057,0.000680806704883,14.68090011174347,29.5665021820473,34.26962327164208,27.550494696386934
0.9,31.22219162874448,131.01044460086723,16.947220326175135,4.389452542537224,13.907439985279169,30.135376156489823,-2.9280393923154087,2.131778303841117,339.37814235421445,32.33382736614629,12.011449271485327,71.90068157918866,0.7767949897593187,120.81706602729912,639.3182257805181,15.288,0,8.565277176183253,0.0950356422257099,2.962634766063893e-07,-0.0080115263221324,0.0262657658095957,0.0007113073577198,14.570660302218537,29.34990182932481,34.497014177591424,30.35224521370394
0.91,31.22219114660907,131.0104457330447,17.238231887551425,4.390083647604523,13.78342611386043,23.007761156388284,-2.9800049445674226,2.109413175313436,277.7421810230789,32.59717342859118,12.11866805906872,71.89580422434435,0.8233797076462843,120.86607683920296,649.7564558121558,15.288,0,8.58961441053807,0.0958099840306021,3.129126184322238e-07,-0.0083040152264937,0.0272193221089396,0.0007432601759071,14.452760885205254,29.119702895319744,34.741446186659864,23.295646091989845
0.92,31.22219066145792,131.0104468756663,17.531635926785476,4.387736430270372,13.652617130670588,27.32539597171532,-3.0344543635047114,2.0860719467672,315.02813424806214,32.87862909705923,12.231601532977947,71.89073673403026,0.8716125238671357,120.9168230015356,661.006729779775,15.288,0,8.613809651037753,0.0966375616658343,3.301316504135747e-07,-0.0086037232728827,0.02818707104457,0.0007767131901489,14.327605683779996,28.8765973981694,35.00294055646644,27.57239333939507
0.93,31.22219017319813,131.01044802893276,17.827502013173273,4.391467821465857,13.542029900868984,32.43801042077865,-3.085020869535224,2.063766540113902,359.1625070654728,33.11418624005964,12.329768722779376,71.88547333966012,0.9215161618618531,120.96932857878616,670.4930994346566,15.288,0,8.6378752631333,0.097330241122548,3.4792822088826653e-07,-0.008910927450057,0.0291696175809073,0.0008101868690438,14.22360627936637,28.67432662815393,35.22161357536067,32.64967084299788
0.94,31.22218968171358,131.0104491930859,18.125913851464343,4.389197288965834,13.415628112633629,23.63028974759417,-3.1402524915300387,2.0397830294735524,283.0687504837787,33.38936694202755,12.440528695960312,71.88000819394102,0.973112716219622,121.02361698363995,681.663533660139,15.288,0,8.661810907044009,0.0981393912039229,3.663100072958955e-07,-0.0092258419331072,0.0301673472040004,0.000845765475233,14.102859046048208,28.441180202809637,35.47748602269064,23.925143553866985
0.95,31.222189187327128,131.01045036749892,18.42666057676057,4.387489926445326,13.292906747344892,30.50723960414496,-3.1955142808791246,2.0155859074776434,342.4218736174873,33.657784861294864,12.549046308098388,71.87433521401623,1.026425035913682,121.07971243231869,692.647398604634,15.288,0,8.68560694280103,0.0989286718276597,3.852859568887704e-07,-0.0095482786537127,0.0311793930567881,0.000882335654315,13.985873996162146,28.215947990508408,35.7271481588506,30.74029222916457
0.96,31.22218868972059,131.0104515528122,18.72996120705288,4.388711436583664,13.180632148860692,29.89342719764315,-3.2490004457289503,1.991761695335576,337.09533515678345,33.90186891636171,12.649705364485484,71.86844820362464,1.0814755820033055,121.13763874431608,702.7094223866293,15.288,0,8.709281929912393,0.0996464371078078,4.048631462849233e-07,-0.009878747737303,0.0322070499490163,0.0009194668983433,13.879796448168964,28.012250357698296,35.95406471582395,30.135363083396626
0.97,31.22218818891909,131.01045274898465,19.035803734014987,4.388140362254781,13.064981565777025,19.225307618841835,-3.3041968452736765,1.9671835842843488,245.02188719299323,34.155826935386585,12.75344001967653,71.862340766557,1.1382871527612133,121.19742010485471,713.2558590340104,15.288,0,8.732833512222351,0.1003932324367582,4.2504989593771333e-07,-0.0102173567769254,0.0332503499061535,0.0009580786645273,13.77005752637679,27.802429764449062,36.19033078882117,19.606121010686746
0.98,31.222187685243327,131.01045395539296,19.34397859338828,4.381868146167869,12.9348646195887,27.870495734649168,-3.364230653857976,1.9408137959713727,319.5937466429581,34.449133728830205,12.869663376648507,71.85600638499929,1.1968821503138545,121.25908029378576,725.5368840895183,15.288,0,8.75624576505988,0.1012556926977483,4.45855495688389e-07,-0.0105638393577224,0.0343081975530283,0.0009990449877421,13.64492790467198,27.564076191051736,36.46372270138381,28.139817671372498
0.99,31.22218717853336,131.01045517236102,19.654597661543093,4.3846668502264725,12.832357234691356,30.43150498116702,-3.417551240077048,1.9164372049380705,341.6609485517054,34.67185138454368,12.963269432767536,71.8494383265742,1.257283349366982,121.32264349582826,734.9266447866936,15.288,0,8.779536381766068,0.1019106797186691,4.672874674915505e-07,-0.0109185951357393,0.0353815169220939,0.0010392398461377,13.548875841141449,27.3819535759338,36.67074389998466,30.68271310457757
1.0,31.222186668788247,131.01045639989272,19.967664518327755,4.381915904119342,12.715811327351403,27.256663806639423,-3.475643059136572,1.890279191705884,314.2672081822764,34.93289437405355,13.06903384533814,71.84262987015433,1.3195119346349455,121.38813223512304,746.0123391807952,15.288,0,8.802698310069852,0.1026783238928161,4.893539030842316e-07,-0.0112816975332832,0.0364702307531965,0.0010818522655554,13.437880664946016,27.17214068722988,36.91393301202741,27.542312393212157
1.01,31.222186156209315,131.01045763759967,20.28304942108192,4.379873970704743,12.60293477087611,28.49419801793297,-3.53354792260103,1.8639667862763505,324.9203161036979,35.185529439892264,13.172040349762316,71.83557401638745,1.3835899300015406,121.45556993200717,756.8187699011605,15.288,0,8.825728256183327,0.103421262683398,5.120636228539889e-07,-0.0116530677686382,0.037573820751322,0.0011255120347377,13.330669646021208,26.970346995334765,37.149268500419005,28.77289790387535
1.02,31.22218564071259,131.01045888564784,20.600811063649708,4.379038533365497,12.495007102274672,23.815356648722005,-3.590806066531758,1.8376552885373416,284.59063161540416,35.42569576032713,13.27099488143758,71.8282636833582,1.4495385115425647,121.52497912874638,767.1622713023952,15.288,0,8.848631815208137,0.104127559887545,5.3542427962042e-07,-0.0120329474946358,0.0386927101585447,0.0011700998838338,13.228609226759971,26.779220151982557,37.372886586461874,24.15454568963693
1.03,31.22218512237324,131.0104601438906,20.92090204473533,4.374357512807665,12.378063755431985,19.4871084926268,-3.651681874937784,1.809906815165923,247.30469339049705,35.69233835904164,13.378319981670163,71.82069166600168,1.5173783260805875,121.5963818248016,778.7303659650473,15.288,0,8.871404826540797,0.1049116875265464,5.594441373621275e-07,-0.0124213574940347,0.039826669415065,0.0012169233845237,13.116887156429474,26.57036088004457,37.62159080594451,19.908740306677885
1.04,31.222184601259848,131.0104614121967,21.2432800888896,4.372987969380439,12.27174149082769,30.88407457150674,-3.7101116831093854,1.7827597582560366,345.46563688072297,35.93011700785259,13.476368862148988,71.8128504903171,1.587130636053668,121.66980068257836,789.116133671598,15.288,0,8.89405050553461,0.1056109824742426,5.841314983763424e-07,-0.0128183821175854,0.0409756588990558,0.0012641469810758,13.016344928011092,26.38374028710324,37.84305330600985,31.157169691664727
1.05,31.222184077055108,131.01046269117552,21.56815508338953,4.3684798974689,12.158416163255694,18.68912065898583,-3.771641357206746,1.754333761622258,240.45625879819983,36.189143511263474,13.58111462271457,71.80473257819223,1.6588159439133237,121.74525758060004,800.5099189503184,15.288,0,8.91658125128075,0.1063727404945199,6.094930443421704e-07,-0.0132245724422879,0.0421409557011348,0.001313566667764,12.908263899388494,26.18343209699148,38.08468172398993,19.146440830626744
1.06,31.22218355002052,131.0104639803203,21.89535721527844,4.361284940191144,12.039427086280844,26.55526965333208,-3.836030715749024,1.7246915341309152,308.17968365593924,36.466494397815566,13.691625621523016,71.79633003340365,1.73245564585136,121.8227753538892,812.8014887287839,15.288,0,8.93898750956769,0.1071883689811623,6.355383788885421e-07,-0.0136397127773452,0.0433216481903238,0.001365141806029,12.794050579951088,25.972060349389864,38.34375702778615,26.886279751971124
1.07,31.22218302002636,131.01046527987847,22.22497328703992,4.359702848546741,11.936939559949913,31.24200733399012,-3.8957334483537776,1.696423773901748,348.5093681440308,36.69582083473968,13.78675890365152,71.78763471478086,1.8080713803471065,121.9023771100701,823.0304869605505,15.288,0,8.961282084588733,0.1078628444811858,6.622751842003829e-07,-0.0140641892783737,0.0445185269199308,0.0014164331601223,12.69730799232405,25.795152932847124,38.55733586913231,31.52963074598835
1.08,31.222182486956708,131.01046659006371,22.55707888807521,4.356712282575224,11.832071297459231,21.07119445895438,-3.957053821230238,1.6673663113592576,261.00157857466235,36.932831416674645,13.88426640475166,71.7786384062914,1.8856836663507404,121.98408479606078,833.6697879420663,15.288,0,8.983466358176011,0.1085599147315628,6.897113473377233e-07,-0.0144982699168015,0.0457320246989842,0.0014695342314192,12.59794270859298,25.614007077545757,38.77822688152869,21.50426983850971
1.09,31.22218195111469,131.01046791028878,22.891476932751488,4.347327486109621,11.71180909459638,19.388008195326183,-4.024790297738644,1.6358319008995752,246.54375332474407,37.21862212303783,13.997240033898356,71.76933268990716,1.9653128569242533,122.06792020217556,846.5945889279941,15.288,0,9.005527271005404,0.109400377279175,7.178569407030869e-07,-0.0149416311551335,0.0469609405751548,0.0015261431631921,12.48205382559296,25.401647102208937,39.04552416968349,19.868813369972727
1.1,31.222181412582632,131.01046924039116,23.228114871346044,4.3409741676996765,11.600951114060893,38.767040314771386,-4.090109691289609,1.6048846806895165,413.1890617385841,37.47670858992996,14.101319505441964,71.75970894322838,2.046979110524676,122.15390493326528,858.3486865533185,15.288,0,9.027469091716064,0.1101594148372758,7.467204851127322e-07,-0.0153943498511315,0.0482051940790829,0.0015832362466411,12.37609827541695,25.209240602729075,39.286556229170685,39.01522865359375
1.11,31.222180870905994,131.01047058122307,23.56728612468213,4.3408733441013165,11.507599759100676,28.411898131498063,-4.14963543443426,1.5757308936037446,324.1593910376397,37.679344001411664,14.187668390611952,71.74975830067343,2.1307026344968607,122.24206066617435,867.6276440084833,15.288,0,9.049312626849655,0.1107554673200045,7.763078078861071e-07,-0.0158572803241935,0.0494667976255982,0.0016396109810955,12.288770571757,25.053808739545744,39.474825197514285,28.756535909639616
1.12,31.22218032614687,131.01047193264873,23.90894772390249,4.328580191376521,11.38418730182178,10.790277460931277,-4.221646259839441,1.541912874601446,172.73281794065943,37.980094327091074,14.305180092128213,71.73947180908989,2.216502495194404,122.33240789658808,881.5045128104244,15.288,0,9.071048372788985,0.111639929679625,8.06627994481987e-07,-0.0163304028257528,0.0507453619784779,0.0017019526189777,12.16918317466218,24.83645597229957,39.75657547346387,11.688878480844926
1.13,31.22217977896753,131.0104732934146,24.25267503622668,4.322640781254018,11.278409803924133,33.45869914397541,-4.287709159945315,1.5099352066334943,367.5328077900705,38.22457191008744,14.404714018780636,71.72883998958513,2.304399753043697,122.42496924099716,892.860033920977,15.288,0,9.092661971228162,0.1123589909049946,8.376935944107694e-07,-0.0168129077565682,0.0520384251563796,0.001763460150948,12.068375837046425,24.6563459848686,39.98476144613667,33.76609101710725
1.14,31.22217922861336,131.01047466492025,24.59894890162678,4.321111114255685,11.185007181916635,18.575338658449912,-4.349503077739141,1.4792295111032283,239.69531773195544,38.42764079161313,14.490994992792366,71.71785356320521,2.3944121740491022,122.51976387057752,902.3418964189018,15.288,0,9.114181888707831,0.1129563419228164,8.695079481915492e-07,-0.0173061288369787,0.0533492118083725,0.0018247753237853,11.980755506863863,24.5027940129311,40.17343967828539,19.13503340069948
1.15,31.222178675624708,131.0104760461334,24.947420441076424,4.307228067415824,11.06175232374908,18.30493625578985,-4.424602029916147,1.4434790974988267,237.41251153546767,38.73306055471114,14.609785193207788,71.7065030671136,2.4865570055623127,122.6168104319036,916.7116912286432,15.288,0,9.135582154683531,0.1138545574769757,9.020831709785024e-07,-0.0178092420895612,0.0546752239517511,0.0018926855204177,11.86100390969346,24.287197604071437,40.45986232926605,18.887335078210054
1.16,31.222178120153725,131.01047743676142,25.29799284470332,4.306447596964399,10.972476805323776,47.72900469555147,-4.486091553282009,1.412363787036234,490.0437743845894,38.92196674170353,14.691435808168452,71.69477850914376,2.580853328745827,122.7161295271966,925.6441697835816,15.288,0,9.156871803145746,0.1144102936385561,9.354281314224858e-07,-0.0183222767457228,0.0560162490572289,0.0019566394169411,11.777664522094568,24.1435974724764,40.63500360061936,47.960167619800224
1.17,31.22217756119768,131.0104788386379,25.651296203900845,4.299067739993445,10.867923896253886,8.543685040662641,-4.554939404815835,1.3783203059159794,153.70937929486794,39.1639513255428,14.789899738882612,71.68267007238597,2.67731710991454,122.81773850389604,937.1579225424651,15.288,0,9.178078719451287,0.1151220611834488,9.695443903498569e-07,-0.0188469802770447,0.0573764700384093,0.0020251170108792,11.67782014220804,23.96851252599208,40.86086244449597,9.779662260082755
1.18,31.222177000057496,131.01048024933536,26.006504522713087,4.282958286174624,10.743148765893068,23.25720198128853,-4.633910839114748,1.3402888284904395,280.02501822196746,39.47982677534738,14.91181959515332,71.67016749514434,2.775965456697879,122.92165593486516,952.3036197395072,15.288,0,9.199154713431952,0.1160510392622761,1.0044499570999905e-06,-0.0193812105891565,0.0587500547513372,0.0020992451762923,11.55609876803172,23.75108212702569,41.15748578478481,23.752198799418395
1.19,31.22217643613555,131.01048166994167,26.363992985198475,4.285415406395257,10.664848419668312,40.55143001121588,-4.692268944977235,1.3095241945154952,428.4078130529292,39.627284153196,14.980091513183128,71.6572601802075,2.8768157745156486,123.02790073519644,959.3976770556104,15.288,0,9.220107646246776,0.1164849605039255,1.0401477663045637e-06,-0.0199263438312802,0.0601402210872363,0.0021662772567348,11.484385605279918,23.6328997833412,41.29285778533772,40.84300083762895
1.2,31.2221758689046,131.0104831013863,26.724083700074114,4.2725345423719325,10.55034371167407,4.26108170335652,-4.768346259767481,1.2719601402797456,117.1843741360236,39.90729101066662,15.090464462246324,71.64393781581066,2.9798816155190435,123.13648778791644,972.9701529387672,15.288,0,9.24096963539686,0.1173085213300285,1.0766428228856715e-06,-0.0204832549187684,0.0615488166761905,0.002242478597221,11.373541294868494,23.43841766673686,41.555185657988346,6.5201093498635965
1.21,31.222175299682075,131.0104845412433,27.08595001243648,4.26023077168313,10.438442390377029,32.56390687257467,-4.844200881479164,1.2341656313454294,359.92343213200894,40.17929731018624,15.198243840847232,71.6301893250791,3.085179606921585,123.24743524218457,986.244512282737,15.288,0,9.261705881081378,0.1181085732744005,1.1139537601143272e-06,-0.02104975853895,0.0629700459502334,0.0023201253420412,11.265403810658198,23.249889413163302,41.8099085639214,32.94537111327528
1.22,31.22217472744472,131.01048599135,27.450224693942182,4.260682050059067,10.358044797013244,23.59527917120552,-4.905075923461946,1.2016580219054127,283.0687504825761,40.33095312145225,15.267666939053976,71.61600374883182,3.1927235828908533,123.36075833593333,993.6689043704864,15.288,0,9.28235839607066,0.1185548586933822,1.1520793974755208e-06,-0.0216279795250251,0.0644088873668909,0.0023927715169989,11.191257069528014,23.12949996285284,41.949142954903465,24.12966951666891
1.23,31.222174152581044,131.01048745096298,27.816657371030136,4.246741639072437,10.24444010271778,9.204822382227537,-4.983444803599207,1.1623179164863024,159.79687382222795,40.610190922046016,15.377625282654805,71.60137025212067,3.302524617971406,123.47646942749688,1007.4407258851588,15.288,0,9.302903358674426,0.1193761858869683,1.1910316400371237e-06,-0.0222171374574634,0.0658630572963164,0.0024748828196266,11.08109655138479,22.938457938305064,42.21082341515172,10.531593428245415
