Time,Latitude,Longitude,Altitude,Angle of Attack,Angle of Sideslip,X-Acceleration,Y-Acceleration,Z-Acceleration,Thrust,True Velocity,Ground Velocity,Pitch,Roll,Yaw,Dynamic Pressure,cp,cg,parachute_deploy_gain,Wind Speed,Wind Direction,Mach,omega_x,omega_y,omega_z,Cmq,Angle of Attack(total),Angle of Attack(gust),True Velocity(gust),Acceleration
0.0,31.222216000000007,131.010392,3.000000004412624,0.0,0.0,0.0,0.0,0.0,2.2828121974499247,0.0,0.0,69.99999999623412,0.0,119.9999999935444,0.0,1.274,1.0271675151847728,0,0.0,0.0,0.0,0.0,0.0,0.0,-0.0,0.0,90.0,0.0,0.0
0.01,31.22221599999084,131.01039200000497,3.000002745347096,0.0,0.0,0.0,0.0,0.0,34.242186961749226,3.465174813755316e-14,2.8705476994166025e-14,69.9999999962611,-2.1713911667908447e-11,119.99999999352175,7.352495975525499e-28,1.274,1.0271659134330349,0,0.0,0.0,1.0183245502395064e-16,-3.3305335486039093e-18,7.169286865560398e-18,5.624298769768554e-18,-7.715917190115602e-34,0.0,89.99999999999979,3.465174813755316e-14,0.0
0.02,31.222215999994315,131.0103920000094,3.0000030495639742,0.0,0.0,0.0,0.0,0.0,25.871876237766216,3.8197434737535036e-11,2.4171837235633357e-11,69.99999999628672,-1.1921727947863515e-11,119.99999999353136,8.93414285188691e-22,1.274,1.027164492361118,0,0.0,0.0,1.1225230367947217e-13,-6.657678965418802e-18,1.4338573731120796e-17,1.1241821275959074e-17,-1.7010872994127372e-30,0.0,89.99999999975682,3.8197434737535036e-11,0.0
0.03,31.222215999994315,131.0103920000094,3.0000030495639742,0.0,0.0,9.81877837424427,-2.5122800045972096e-05,3.3498614629347925,180.34219359854663,1.2659015405517447e-10,1.1364406173918436e-10,69.99999999631459,-1.6431898037347223e-11,119.99999999352724,9.812605835254651e-21,1.274,1.0271551940870716,0,0.0,0.0,3.720154642239108e-13,-9.991600645811728e-18,2.150108433310316e-17,1.6859343782149594e-17,-8.453698244545225e-30,0.0,89.99999999919412,1.2659015405517447e-10,10.374487003414373
0.04,31.222215999994315,131.0103920000094,3.0000030495639742,18.83801224594347,-0.0001111777826462,48.68248476615645,-1.016330065874988e-05,3.3497854396877287,548.635972453808,0.1556173050466994,0.0975908358443652,69.99999999633813,-2.0932768807056278e-11,119.99999999352085,0.0148286043323172,1.274,1.027133720825283,0,0.0,0.0,0.0004573186944143,-1.3322134194415637e-17,-1.04744143520903e-11,1.336824254131964e-11,5.0626055458604615e-15,18.83801224625964,89.06236267790787,0.1555998412814392,48.79759610369246
0.05,31.22221599164764,131.01039201704114,3.002326315126219,5.772385609593056,-4.395076213712875e-06,71.20344550265034,4.905512691849684e-05,3.349217396035405,761.6984298824663,0.8326471944351852,0.3620326097059287,70.00000001316391,-1.0866255162484559e-10,120.00000000231074,0.4245281043148827,1.274,1.027093426565204,0,0.0,0.0,0.0024469331205246,-5.0245994431125096e-18,-7.32924164976824e-07,2.217344936947165e-11,1.895424184525467e-09,5.772385609594774,84.74112356985832,0.8326465040582279,71.28217104309611
0.06,31.22221596664444,131.01039206837547,3.015081730143309,4.056581213689704,3.169093567502233e-05,53.16249142470188,0.0001203825427859,3.3481235983850643,590.4875390737236,1.657216205300742,0.6755452977614796,69.99999964391398,-3.9285905645317736e-10,120.0000000287861,1.6816755551786196,1.274,1.027050317124926,0,0.0,0.0,0.0048701272653724,3.095757869075056e-13,-7.483541766772344e-06,3.074135420506017e-11,3.8518749565858254e-08,4.056581213813337,79.59316473687034,1.657221183301277,53.26781792157489
0.07,31.22221592883117,131.0103921460222,3.034593611434361,4.115662018628709,6.450869598349036e-05,81.18203554989698,0.0001593212642178,3.347059402768047,855.2937749779172,2.099899704220947,0.8579771146174259,69.99999543281565,-8.233801910783518e-10,120.00000006883089,2.700101932075157,1.274,1.027003201295312,0,0.0,0.0,0.006171060252819,3.4704292086287e-12,-2.6327204536316785e-05,1.9541142932033486e-10,1.7170712165327165e-07,4.115662019133419,76.90111966094352,2.099909837223217,81.2510043180746
0.08,31.22221588914193,131.01039222747755,3.0542761843835606,3.459696193892355,8.037433511260004e-05,16.298214211652088,0.0002413456836072,3.344878926597744,241.2171988638792,3.051964775152957,1.2149999716613011,69.99998042886442,-1.0128995578004475e-09,120.00000011111383,5.703497661025892,1.274,1.0269597189470347,0,0.0,0.0,0.0089689344021769,1.458982438104473e-11,-5.702803872814215e-05,7.043261397829576e-10,5.405702492731987e-07,3.459696194824858,71.30331929508368,3.051977400323993,16.63790856991177
0.09,31.2222158241468,131.01039236098703,3.0886872184095737,4.313676956300389,0.0001337561018991,50.35975918308536,0.0002293282821279,3.344215841840564,563.0937377043203,2.893161298572128,1.191209213966114,69.99994788602814,-7.098432023887522e-10,120.00000018106356,5.125380275808925,1.274,1.026918932011013,0,0.0,0.0,0.0085022553945842,3.8672912027154325e-11,-0.0001115933708951,2.016054215232918e-09,1.0027525988343615e-06,4.313676958370176,72.2316578138625,2.893182308931483,50.47067588835877
0.1,31.2222157788302,131.01039245392113,3.109877853389092,4.035124630954496,0.0001457499816535,47.804664812504015,0.0002878217657545,3.341734392237128,538.7437595981891,3.5677148583138303,1.4531247507621967,69.99988403958329,1.9248461973355822e-09,120.0000002323013,7.7939962029572305,1.274,1.0268846934974103,0,0.0,0.0,0.0104845969583028,8.579678749070606e-11,-0.0001726817043215,3.984565639703107e-09,1.913455350430327e-06,4.0351246335824245,68.43243098813296,3.567737752667411,47.92132267234452
0.11,31.222215703308,131.01039260899836,3.148841432727305,4.043401107254707,0.0001752764476999,37.67622367577205,0.0003286462930162,3.3392563999062723,442.86563930529127,4.034183355956686,1.6436552022667772,69.99978525353545,7.302513231814865e-09,120.00000031883242,9.96528118825134,1.274,1.026848594915519,0,0.0,0.0,0.0118554331868328,1.5870341853361987e-10,-0.0002596204409236,7.232030302688121e-09,3.252930323390323e-06,4.04340111104746,65.92012987243639,4.034210888316708,37.82391391539392
0.12,31.222215627491828,131.01039276462643,3.186995101203875,4.17874459224363,0.0002066711490009,41.15991989399172,0.0003576945202315,3.336766085769504,475.58594813540793,4.361857560629481,1.7865750500940407,69.99963665601238,1.781774420198147e-08,120.00000041104812,11.649831899889556,1.274,1.0268114448194128,0,0.0,0.0,0.0128183893919737,2.682972478760441e-10,-0.0003710216542429,1.2215991071490164e-08,5.026311388647148e-06,4.178744597345269,64.21681651392016,4.361890024457652,41.29495143136631
0.13,31.22221554594398,131.01039293200228,3.2277173449026786,4.202734874672792,0.0002327160860324,45.44886120763352,0.0003953741266062,3.333578629398489,515.9156326236897,4.792165672014363,1.9646716520715424,69.99942424225341,3.613383418913551e-08,120.00000051758742,14.061726603124043,1.274,1.026779572895131,0,0.0,0.0,0.0140829618979635,4.248908088871395e-10,-0.0005056103199642,1.908859219307828e-08,7.5253154423526356e-06,4.202734881104192,62.048594618540655,4.792202226971676,45.570952718869485
0.14,31.222215454191247,131.01039312033683,3.2737880595608355,4.184830647080848,0.000257138757548,42.32232525579263,0.0004369426767266,3.329727443445437,486.2390860568421,5.269261304374574,2.158791628597544,69.99913473613935,6.515851355725497e-08,120.00000064630268,17.000925061330125,1.274,1.0267449573927567,0,0.0,0.0,0.0154850332441425,6.382432869666793e-10,-0.0006690086306358,2.8426433029675884e-08,1.0948547100483978e-05,4.184830654966803,59.74181173116622,5.269301695636157,42.45310707234106
0.15,31.222215353826755,131.0103933263496,3.3242182719560263,4.21963947489699,0.0002846467688673,40.886944113003565,0.0004726792395108,3.325585650885676,472.5421858721398,5.6781946837482895,2.329510773545807,69.99875162806286,1.0876776246115984e-07,120.00000079954532,19.742017654108928,1.274,1.0267115958081523,0,0.0,0.0,0.0166867950518804,9.204756288136623e-10,-0.000865746478554,4.08948221429571e-08,1.526771148078443e-05,4.219639484480408,57.84996018384879,5.678239395958187,41.02196629910223
0.16,31.222215247130432,131.01039354534575,3.3775922280208457,4.253495568077899,0.0003118339050386,32.26872905470846,0.0005078415214353,3.32090791922544,391.1218908297597,6.081244877834229,2.4981889727471702,69.99825581174558,1.7187028096464329e-07,120.0000009800088,22.644030778355887,1.274,1.026675762255412,0,0.0,0.0,0.0178712695992133,1.2856146928958252e-09,-0.0010961187242953,5.6923362293832417e-08,2.0702404729358337e-05,4.253495579487569,56.06022383757386,6.081293860589489,32.43916312841722
0.17,31.22221513260033,131.01039378041813,3.4348437275053194,4.364838523348639,0.0003448792023946,40.840448242802736,0.0005326487904353,3.3162727284953744,471.78125980632416,6.362544479165355,2.6250789114832647,69.99762801982864,2.5997588617291615e-07,120.00000119506798,24.78723182122683,1.274,1.0266409836796937,0,0.0,0.0,0.0186979513961862,1.747791994374917e-09,-0.0013624931601664,7.706724512977917e-08,2.6923621797558364e-05,4.364838536947241,54.85936171416122,6.362598652663785,40.97486885600156
0.18,31.222215014088988,131.01039402363364,3.4935801365785646,4.353948305387995,0.0003681615230806,33.992183768165326,0.0005718025428208,3.310131992647221,407.1015672119096,6.81502088160835,2.810667639293692,69.99684761766231,3.794979223522764e-07,120.00000144728236,28.437950785509614,1.274,1.0266048342046536,0,0.0,0.0,0.020027681385988,2.3221419748804155e-09,-0.0016616990447559,1.0147209890543081e-07,3.517105786247627e-05,4.353948320923495,52.99157233768714,6.815078712285162,34.152972512863755
0.19,31.22221488419521,131.01039429023237,3.558399965607869,4.432620772533925,0.0003996774584738,38.45149959021069,0.0005986099513107,3.304145139297767,448.95313283182486,7.1223367465208405,2.946425726785696,69.99589577323147,5.440084577183829e-07,120.00000176148238,31.060341085698347,1.274,1.026566130444714,0,0.0,0.0,0.0209308229359413,3.022391489754689e-09,-0.0020041563310821,1.3135864879722746e-07,4.433199397898183e-05,4.432620790516937,51.77883352025967,7.122399527709208,38.59320142454953
0.2,31.222214751373183,131.01039456280608,3.624052454705669,4.443889400961181,0.0004246617145652,35.23432408779927,0.0006337972852267,3.2968110145188256,418.5156301991588,7.530482904611057,3.1167566004785483,69.99474776398331,7.478025600151903e-07,120.00000211715036,34.72195181863731,1.274,1.026529240027363,0,0.0,0.0,0.0221302820454282,3.866698391504749e-09,-0.0023849544920781,1.668144671071589e-07,5.57780533277244e-05,4.443889421210987,50.22448880200342,7.530549610317194,35.38822625098952
0.21,31.222214608673173,131.01039485566503,3.6948551453492566,4.493351735844891,0.0004538195602194,33.79371564104691,0.0006629296043866,3.2891790438445727,404.8187610144608,7.868284042829251,3.2629204975089228,69.99338155599101,1.0150082652278477e-06,120.00000255293388,37.906665490338085,1.274,1.0264923657015164,0,0.0,0.0,0.0231230169900677,4.871073773182836e-09,-0.0028117605859743,2.089322918608601e-07,6.870935089180403e-05,4.493351758715364,48.992529909481824,7.868355328639073,33.95340801819282
0.22,31.22221446109996,131.01039515850383,3.767700382407304,4.5412639153933885,0.000482649303782,41.008966751568416,0.0006914639179131,3.2808061382386606,472.5421858721387,8.20057841132235,3.4071691679735228,69.9917708347139,1.3454961520984431e-06,120.00000305929996,41.175744234065135,1.274,1.0264494137127138,0,0.0,0.0,0.0240995709751246,6.054779813287368e-09,-0.0032829112061357,2.580881224843564e-07,8.3609968899004e-05,4.54126394098788,47.82515604752711,8.2006542256977,41.13999323561041
0.23,31.22221430675399,131.0103954752338,3.843768625625224,4.52371495179584,0.0005047555656171,33.98493478127787,0.0007294889663961,3.2705214710765107,406.340642146096,8.647938096586296,3.5908865300848416,69.98989017772566,1.7539876018835507e-06,120.00000365514876,45.79040229326471,1.274,1.0264133390858623,0,0.0,0.0,0.0254142776666487,7.436335125872812e-09,-0.0038001790077148,3.1489825108822685e-07,0.0001020628978177,4.523714979897577,46.31461705147579,8.648017383405135,34.14194053232237
0.24,31.222214142622448,131.0103958120587,3.92493179063287,4.57837522350066,0.0005351929930195,35.051650311058864,0.0007555049947555,3.26053011385611,416.2328240017099,8.954297884844461,3.72617527247482,69.98771316795013,2.25257161141768e-06,120.0000043564586,49.09180568115741,1.274,1.0263750048312463,0,0.0,0.0,0.0263146218848643,9.034877387788232e-09,-0.0043732521010013,3.809642748985157e-07,0.00012161410144,4.578375254714954,45.32798984252032,8.954381952763216,35.20297212911011
0.25,31.22221397517227,131.0103961556623,4.0071748888306855,4.6034117733065,0.0005618935542827,36.03738579534623,0.000785606492708,3.249069743648399,425.3640807915084,9.311611941121669,3.8789349536029696,69.98520781816889,2.8559738498748624e-06,120.00000517181904,53.08749562138344,1.274,1.0263373768840591,0,0.0,0.0,0.0273647110956883,1.0873791100894836e-08,-0.0049950711786164,4.5609738277273444e-07,0.0001444478241125,4.603411807525074,44.2165428352526,9.311700203154778,36.183554686886296
0.26,31.22221379934012,131.01039651647062,4.09364247475714,4.621386912291471,0.0005881033207375,39.29107511182762,0.0008162761165496,3.236407051295005,455.80158342417656,9.67833954512075,4.034902068846398,69.98234620927953,3.5784678110229355e-06,120.00000612171208,57.350948423913096,1.274,1.0263006300381676,0,0.0,0.0,0.0284424679130479,1.2973286442992724e-08,-0.0056712051373577,5.414206381221602e-07,0.0001704578711045,4.621386949630312,43.12063533194282,9.678431924174348,39.42414126789902
0.27,31.222213616776543,131.01039689108487,4.183310605341074,4.617158109135719,0.0006115457810536,35.90419462403674,0.0008503454714941,3.221982799915672,423.8421996598744,10.088790784535757,4.205862468567124,69.97909721779352,4.436165972465058e-06,120.000007221354,62.31798301949865,1.274,1.026260090595354,0,0.0,0.0,0.0296487219805601,1.5355910600537293e-08,-0.0064045199323113,6.379142666348734e-07,0.0002006609239367,4.617158149547818,41.94410287616451,10.08888684592241,36.048472443180565
0.28,31.22221342607797,131.0103972823952,4.277051150896916,4.642105655370123,0.0006389739579882,41.51133203546672,0.0008785747638736,3.2071101123224945,476.3468732012228,10.432377224420517,4.35383399240675,69.97542808435722,5.446665372087172e-06,120.00000849080963,66.63429581008447,1.274,1.0262212716723291,0,0.0,0.0,0.0306584788590473,1.8045308789081613e-08,-0.0072006835403936,7.469524967369969e-07,0.0002332868227611,4.642105699250441,41.0023231023774,10.432477594215127,41.63503624837164
0.29,31.22221323001776,131.01039768469093,4.373143569786686,4.62134615173668,0.0006600657405645,33.17552944492765,0.0009148746278066,3.1894209319791806,397.9703104221098,10.876662296046485,4.536381530986506,69.9713027936179,6.629751536885327e-06,120.00000994797426,72.43000748232016,1.274,1.026183007522519,0,0.0,0.0,0.0319641703260467,2.1067646517035105e-08,-0.0080566154554079,8.688043379161898e-07,0.000272130659453,4.621346198772975,39.83162628795024,10.876765978930557,33.32848872465723
0.3,31.22221302403368,131.01039810736614,4.4744193758467325,4.664362353358112,0.0006905183788532,31.08096762732793,0.0009381960428197,3.172549142946348,378.1859457108735,11.168362145070317,4.66647911311536,69.96668711012893,8.005507138509574e-06,120.00001161892672,76.36634300732833,1.274,1.0261430389738484,0,0.0,0.0,0.0328214509167604,2.4447409007156216e-08,-0.0089829108229115,1.0056222251461646e-06,0.0003115527202986,4.664362404357781,39.09908960432563,11.168470611443622,31.242464973103964
0.31,31.22221281503337,131.01039853619727,4.576593712520673,4.700143580504286,0.0007196683316923,32.79732593144512,0.0009620705970519,3.154230688182399,394.1656220930229,11.470279728974068,4.800072153432283,69.96154070456518,9.597499105113692e-06,120.00001352112182,80.55022837857167,1.274,1.0261054058068628,0,0.0,0.0,0.0337087616009043,2.8214060606649844e-08,-0.0099686353219717,1.1565909895184251e-06,0.0003550834484269,4.700143635477137,38.36463422765983,11.47039277421126,32.94865339301887
0.32,31.222212598991007,131.01039897947376,4.68216432480395,4.718667719113184,0.0007464384342556,35.7316568886908,0.0009885845337584,3.133859770838664,421.5593934624264,11.808280530415894,4.946054328851105,69.95582953472353,1.14278227255889e-05,120.00001568218067,85.36654007972253,1.274,1.026068246703101,0,0.0,0.0,0.0347021168382987,3.2392058795580455e-08,-0.0110163301561155,1.3226102501723267e-06,0.0004039614423012,4.718667778018562,37.5686120062341,11.808397780690962,35.8688218659563
0.33,31.222212376029034,131.0103994369436,4.791055524254013,4.72141404831576,0.0007708346814671,35.42013590291081,0.0010176135371143,3.1111955852784385,418.5156301991632,12.181577273013426,5.104163223586657,69.94951809396906,1.351997394754887e-05,120.00001812674968,90.84831229869296,1.274,1.0260310883392356,0,0.0,0.0,0.0357992034445943,3.700677535501642e-08,-0.0121310534481307,1.5051409581878843e-06,0.0004588955105349,4.721414111097893,36.7208578211118,12.181698355442045,35.55651229220977
0.34,31.222212145785647,131.0103999093516,4.903491659547144,4.73024573449122,0.0007962944975467,27.63851074646407,0.0010446307681611,3.0871492806781062,345.4656368807584,12.53557620048282,5.2556261014174765,69.94256797855994,1.5899658158227497e-05,120.000020882338,96.20413272674828,1.274,1.0259901535019136,0,0.0,0.0,0.0368395817555172,4.208561016221623e-08,-0.0133180771902383,1.7057647550599631e-06,0.0005184333231541,4.730245801363397,35.94841996438923,12.535701282129995,27.810389570354005
0.35,31.222211909310875,131.01040039453565,5.018822212845608,4.780248518778662,0.0008286678570753,30.332092807652543,0.0010618579815451,3.063967690608957,370.5765700527057,12.774786382148209,5.367579971644358,69.93493776125636,1.8594985713558667e-05,120.00002397748868,99.9096898192772,1.274,1.025950003202184,0,0.0,0.0,0.0375426220587071,4.7658312175989686e-08,-0.0145774693288123,1.9252724355785177e-06,0.0005782798420984,4.780248590437683,35.44790728185619,12.774916548990808,30.486451961956565
0.36,31.22221166933814,131.0104008868675,5.135354490370708,4.798132156899578,0.0008554457330409,34.32674769697476,0.0010851169437774,3.0374319611165923,407.8625232777224,13.09301701329486,5.506730645516068,69.92658597246795,2.163521613217148e-05,120.0000274401514,104.94818266210537,1.274,1.0259105142325406,0,0.0,0.0,0.0384778908056978,5.3755109608570216e-08,-0.0158991451700967,2.162609490834569e-06,0.0006464142451675,4.798132232978766,34.796094028187134,13.09315138639638,34.46087058603792
0.37,31.222211421355144,131.01040139563804,5.255882891363927,4.797392186816851,0.0008791822061288,32.551601855236584,0.00111162791192,3.0078619428913056,391.1218908297639,13.457513730739372,5.661815946371007,69.91747693543164,2.5047738471809164e-05,120.0000313040604,110.87154396328836,1.274,1.025872170958032,0,0.0,0.0,0.0395491312153729,6.040098808671168e-08,-0.0172926678053148,2.420031948898497e-06,0.0007226353721561,4.797392267189059,34.07332166419882,13.457651832357364,32.69027405888565
0.38,31.22221116634284,131.01040191882743,5.379799334000849,4.811698494594017,0.0009057112478668,34.02947987649063,0.0011338447913587,2.9774881690446744,404.81876101445977,13.77554886562956,5.800899861213392,69.90756948297444,2.886339581486796e-05,120.00003560072224,116.17243393848278,1.274,1.02583050512925,0,0.0,0.0,0.0404838339452728,6.762496638941508e-08,-0.0187646375218858,2.69955777313946e-06,0.0008026686661094,4.8116985796350695,33.46655348088405,13.775691134419684,34.15949264475229
0.39,31.222210906095896,131.01040245274032,5.505993307722699,4.813508003664984,0.000929862892873,29.00025983045028,0.0011579891265804,2.9442136901860865,357.6406249338268,14.124492165837273,5.950648592462506,69.8968186645841,3.311602501056718e-05,120.00004036395212,122.13093644173792,1.274,1.02579027384009,0,0.0,0.0,0.0415093739609825,7.545934774906889e-08,-0.020311592409804,3.0013532510753577e-06,0.0008908380763632,4.813508093268025,32.821616487639595,14.124638228358922,29.149330452482886
0.4,31.222210638473225,131.0104030017851,5.635788650457906,4.841647069358873,0.0009592124397379,27.71178845184976,0.0011749448424961,2.91135549588368,345.4656368807565,14.390874239274588,6.07193451174791,69.8851815212744,3.783947407715338e-05,120.00004563180136,126.77947425345651,1.274,1.0257493418632293,0,0.0,0.0,0.0422922854866381,8.39343718693383e-08,-0.021938519432511,3.3271332720311508e-06,0.0009803271643914,4.841647164150728,32.348088166612904,14.391024912012275,27.864299944624147
0.41,31.22221036681104,131.01040355909262,5.767123077463226,4.86553909860892,0.0009876699832274,31.306062598221665,0.0011918093836199,2.876450850006428,378.9468707766882,14.663028799871563,6.195223154320929,69.87261222561014,4.307011032901644e-05,120.0000514391194,131.6183642808765,1.274,1.025708445186429,0,0.0,0.0,0.0430921644173401,9.308325447883581e-08,-0.0236371933433427,3.6760977501392174e-06,0.0010761942383903,4.865539198612839,31.87689439156756,14.663183942709727,31.437931330109585
0.42,31.22221008906472,131.01040412887247,5.901259531771367,4.867510642114694,0.0010118258958528,35.308283402190774,0.0012128114559048,2.8374461227958245,416.23282400171047,14.9952917972178,6.33928625560071,69.85906967380902,4.884273094936628e-05,120.00005782486392,137.64909586091787,1.274,1.0256701057426505,0,0.0,0.0,0.0440686959134695,1.0293499639582845e-07,-0.0254093547296826,4.049238334851429e-06,0.0011830797791891,4.867510747027452,31.315270489291198,14.995450734457847,35.422111438762386
0.43,31.222209804115888,131.01040471342728,6.038886819939341,4.854590670645608,0.0010330089741511,31.00586934514032,0.0012363751872706,2.794478603999558,375.90313951343126,15.369430568701889,6.497852263156962,69.8445117629242,5.519340856908871e-05,120.00006482835984,144.60167924299955,1.274,1.0256308158337524,0,0.0,0.0,0.0451682983415116,1.135186446762958e-07,-0.0272634397889413,4.449073329427772e-06,0.0013010625065656,4.854590780289497,30.70250814963406,15.369592833372094,31.13154422839874
0.44,31.22220951192321,131.01040531284193,6.180028459770617,4.866912332640401,0.0010595850174406,28.57707721036899,0.0012525768202179,2.752165534925872,353.07501253892326,15.659290812546615,6.627318538707029,69.82889155423543,6.216182865383864e-05,120.00007249162944,150.1053167542629,1.274,1.025586171750536,0,0.0,0.0,0.0460202245100907,1.2486676023179565e-07,-0.0292060158163984,4.8779154055816594e-06,0.001420032405556,4.866912447705031,30.24619499837236,15.659457251771938,28.709297424144207
0.45,31.222209215425703,131.01040592106523,6.322872201489905,4.881836476567178,0.0010866574689855,33.31904824532484,0.0012669045761511,2.7082028218433374,397.2093853562887,15.934249290371609,6.751662050993672,69.81215834018458,6.97909417564726e-05,120.00008085697964,155.42080512416243,1.274,1.0255397023523487,0,0.0,0.0,0.0468283602442113,1.3701614206272197e-07,-0.0312276295846745,5.334643585560923e-06,0.0015449645531859,4.8818365972149325,29.82567893138932,15.934419982127675,33.428929688274074
0.46,31.22220891307435,131.0104065412864,6.468371919199588,4.869610441729251,0.0011078049156487,38.95909776354321,0.0012868374716666,2.6582856015412624,449.7140588976424,16.292139278621757,6.904766425053949,69.79426683863348,7.812149592850748e-05,120.00008996920153,162.4785746623087,1.274,1.02549635315424,0,0.0,0.0,0.0478802236363867,1.499987870203256e-07,-0.0333272350234362,5.819761874615242e-06,0.0016858511402973,4.869610567434908,29.29014635640275,16.292313292210977,39.04968351401366
0.47,31.22220860266524,131.01040717804253,6.6178810515614845,4.838450928223533,0.0011247917292402,26.253747818137555,0.0013104398935566,2.6026193242279367,331.0078106302504,16.710658191447514,7.078951441335346,69.77517236812905,8.719457259907165e-05,120.0000998741591,170.9309671061642,1.274,1.025453319323251,0,0.0,0.0,0.0491102725711187,1.6384464803343264e-07,-0.0355167087264168,6.3368207228363735e-06,0.0018427306558807,4.838451058652396,28.68386015667837,16.710834873319172,26.382435512333956
0.48,31.222208284201663,131.0104078313267,6.771393590864176,4.869339340099417,0.0011561785713505,25.860860976019296,0.0013165328518772,2.5543454292827983,327.20312230115803,16.911139899671,7.177575416403102,69.75482343794755,9.70562828082882e-05,120.00011062072316,175.0543877818846,1.274,1.0254092882449153,0,0.0,0.0,0.0496995461609974,1.7858865391586845e-07,-0.0378054080201581,6.88909442277235e-06,0.0019849793891693,4.869339477030596,28.40887970825325,16.911321511776286,25.986704537635287
0.49,31.22220796480208,131.01040848648364,6.924537656029012,4.881367714530694,0.0011829003785372,32.565703383222065,0.0013261973190012,2.5011623511055703,389.6000096981238,17.169005224738054,7.296160258358563,69.73316318155707,0.0001077573203115,120.000122255028,180.4309832312717,1.274,1.025367445590036,0,0.0,0.0,0.05045746454003,1.942747077649401e-07,-0.0401641298712614,7.47069711110948e-06,0.002140948887153,4.881367857509675,28.058569663954906,17.169191034294997,32.66161128464712
0.5,31.222207637929923,131.01040915697027,7.081324512896956,4.862566137860805,0.001202418260511,33.47759680712428,0.0013425340759632,2.4399894027711366,397.970310422106,17.52898693231981,7.450304424940405,69.71015149227495,0.0001193385310595,120.0001348274002,188.0736471953394,1.274,1.0253278572281015,0,0.0,0.0,0.0515154948878309,2.109295159784217e-07,-0.0426011733481599,8.084173008518589e-06,0.0023184335011768,4.862566286171007,27.57768313050809,17.529175807738486,33.56639745442473
0.51,31.22220730314019,131.01040984370235,7.24202048914867,4.8479762258125,0.001223054804074,25.49162310288008,0.0013562860883156,2.3767006597692686,323.39843497208153,17.86914397471067,7.597652147346554,69.68574349602717,0.0001318441288964,120.00014838524436,195.4407439266201,1.274,1.025286455263166,0,0.0,0.0,0.0525152689856776,2.2858192086249162e-07,-0.0451315948093539,8.734206149830708e-06,0.002503767471626,4.847976379721193,27.13799345359824,17.86933609171003,25.602178740977283
0.52,31.222206962738102,131.01041054193402,7.405210501673173,4.865306299521403,0.0012516517170965,30.733671928447727,0.0013599291289974,2.317711624364424,372.098451184342,18.08534843773428,7.701914987606457,69.65988568649581,0.0001453248538387,120.00016298000436,200.19561780583155,1.274,1.0252426840672306,0,0.0,0.0,0.0531507657929359,2.4726951523704535e-07,-0.0477531686556663,9.421346966092632e-06,0.0026812161964639,4.865306460134566,26.8699055233151,18.085545046726228,30.820940596104087
0.53,31.222206619320115,131.01041124632013,7.569307468221277,4.848802699234936,0.0012715119568563,32.301199055744725,0.0013711327835325,2.2490252325653923,386.55624643486095,18.41963113311156,7.8474319110539055,69.6325258319474,0.0001598315062727,120.0001786629144,207.6614205945027,1.274,1.0251993415311351,0,0.0,0.0,0.0541332845214831,2.67031759303889e-07,-0.0504479325599339,1.0141887756417996e-05,0.0028848299490111,4.848802865552398,26.45837260670532,18.419830861742675,32.37940050117613
0.54,31.22220626697288,131.01041196903336,7.737918664599091,4.831496690588052,0.0012913635058467,28.31291960103712,0.0013809098107221,2.177242866245296,349.2703242098436,18.75116898748492,7.992112829440902,69.60362200959217,0.0001754082864028,120.00019548734956,215.20067397992847,1.274,1.0251561018460285,0,0.0,0.0,0.0551077428911958,2.878941684235108e-07,-0.0532336286085667,1.090122304443916e-05,0.003098869611663,4.831496862756785,26.061835558272342,18.751371834390056,28.396510432451375
0.55,31.222205908994248,131.01041270328463,7.909026079894722,8.147849966218669,6.326266384276886,30.11508519815417,-0.3440850018762378,1.915160648435697,365.2500005919912,19.702746418726875,8.113323699629928,69.57312211246325,0.0001921068626005,120.00021350480982,237.59283081976648,1.274,1.025112921033824,0,2.506403565945852,0.0,0.0579044421403214,3.0989272306468813e-07,-0.0561100530405476,1.1700476995263424e-05,0.0034320151542407,10.302365719164625,31.75367225909729,20.69445611203908,30.177882485189663
0.56,31.222205546564343,131.01041344664463,8.081909946161325,4.805866810163425,7.402431735881207,28.06837463343034,-0.4738289626142997,1.9859531266916803,346.22656194657776,19.488212706707223,8.24832211386639,69.54097415464405,0.0002099796112633,120.00023276987916,232.4430733959697,1.274,1.0250709539098009,0,2.5155477854450985,30.0000128556565,0.057274060271742,3.330422384609979e-07,-0.0613846721018575,0.0041922756448518,0.0037136972128903,8.818369540527039,32.34974916202706,20.6477518696226,28.142533259637883
0.57,31.22220517792294,131.01041420485907,8.258267219218348,4.799990905374685,7.312793126317315,27.7573654566491,-0.574063500510782,1.9087081563609567,343.1828296833045,19.757802849665666,8.373141298789502,69.50580393392642,0.0066369969333632,120.00709344978245,238.914510579224,1.274,1.0250279191823897,0,2.5246205648112747,30.000012855656493,0.0580664763666992,3.606503030712293e-07,-0.0644230123987063,0.0089667672058099,0.0039513623908676,8.740226240723246,31.971462092180985,20.903377549698963,27.82883491673258
0.58,31.22220480448472,131.0104149731242,8.436492105395855,4.787907270445475,7.22135725177963,36.69202262015912,-0.6779897833492735,1.8282038585311569,426.12500585731766,20.032838186486487,8.499137694628613,69.46889181735179,0.0203458272329735,120.0217305033082,245.60814573847168,1.274,1.024981594484354,0,2.5337048099779813,30.000012855656493,0.0588748998416634,3.920625867815137e-07,-0.0675431477701801,0.0138147669729398,0.0042003311710693,8.657394940023877,31.59138179456439,21.16416554587198,36.743795713738436
0.59,31.22220442554609,131.01041575356928,8.617392240635773,4.741709290765597,7.082230284187613,29.670538845316567,-0.7907344979026711,1.7332611638789237,360.68438819710633,20.441902834626305,8.672816535716734,69.43018895587252,0.0414041150464705,120.04422009670633,255.7366051186692,1.274,1.0249386802161349,0,2.54272566541466,30.000012855656493,0.0600772305363693,4.273450169417922e-07,-0.070743728588134,0.0187363532931138,0.0044891226922127,8.516285212453528,31.031045839359127,21.551546214961125,29.73163854683801
0.6,31.22220403730527,131.01041655397768,8.80316460830323,4.729265966267144,6.995455708862275,26.33197028066073,-0.9024737090966768,1.6470663207305485,329.4859594986072,20.702632637507943,8.794028458431939,69.38964617009519,0.0698749929715982,120.07463392915687,262.297203777392,1.274,1.024891335813742,0,2.551723146123509,30.000012855656493,0.0608436235264749,4.6655678830424265e-07,-0.0740460111786925,0.0237626142619173,0.0047585178937706,8.437479519423741,30.68538474949169,21.79874822979562,26.398862572506708
0.61,31.22220364700492,131.01041735945003,8.989445813493369,4.718118307457204,6.912945451136556,30.93521799176451,-1.0168475415898663,1.5592851605074562,372.0984511843332,20.948533258511983,8.910106158863684,69.34720089582795,0.1058639696811659,120.11308933387508,268.56040440771767,1.274,1.0248423929069768,0,2.5608014615302377,30.000012855656493,0.061566438038362,5.097953088345885e-07,-0.0774251297162207,0.0288546012628607,0.0050346844550715,8.363090526657551,30.36382444026269,22.031783519413946,30.991177153064175
0.62,31.22220325109714,131.01041817726275,9.178367759673051,4.6855347605048125,6.801466359044268,38.5690974376971,-1.1389397628445808,1.4605644896506296,442.86563930529206,21.27922654925831,9.056565218235129,69.30280365159662,0.1494120305562795,120.1596351155035,277.1012846081058,1.274,1.0247996097896497,0,2.5697463197515784,30.000012855656493,0.0625384583647326,5.571206904565217e-07,-0.0808777269961892,0.0340065830171128,0.0053421194115588,8.252933684908019,29.935646699010302,22.345090978517177,38.61354308491245
0.63,31.222202847659613,131.01041901134394,9.37106827730957,4.63140439036962,6.6619212946531725,21.70711798153519,-1.2708705650708303,1.3490807622496543,286.11251274707456,21.70047803043929,9.23558293090247,69.25640566101487,0.2005463782890454,120.21430572569636,288.1757473349905,1.274,1.024756158874558,0,2.578657194053563,30.000012855656493,0.0637766315844251,6.085826088791448e-07,-0.0844168580491358,0.0392366689508463,0.0056861624705004,8.107669840250642,29.402389593145088,22.74457389282773,21.78609882380331
0.64,31.222202435804192,131.01041986348315,9.568057553790387,4.638487188749831,6.611126219609069,21.314483301336544,-1.3898183613048498,1.2625610355027956,282.3078244179702,21.833554228176776,9.311807057403044,69.20794937486438,0.259316261873623,120.2771595835666,291.7154894051719,1.274,1.024708534665538,0,2.587591482370207,30.000012855656493,0.0641678785468849,6.64244096961657e-07,-0.0880567525197474,0.0445644170503577,0.0059675995006498,8.070126477505621,29.23387799791727,22.869724683152945,21.397029089309207
0.65,31.222202025663808,131.01042071297695,9.763308716158814,4.626275928588041,6.534669290287518,37.972369100627645,-1.5154804198711151,1.166124930855147,436.7781447787504,22.04423146118768,9.415931844094494,69.1573676889097,0.3257945234544958,120.34828077324998,297.3667413649473,1.274,1.0246641738210605,0,2.596568633718172,30.000012855656493,0.0647871925962574,7.242103230259311e-07,-0.0917472330195863,0.0499158213449992,0.0062775815056168,8.000713203654367,28.969841945256466,23.068471030994843,38.02048583818565
0.66,31.222201608141983,131.01042157836568,9.962213008854665,4.55928844929609,6.383635868117878,32.24772848577824,-1.6624923826575433,1.039549259042287,383.5125151715984,22.50426567223644,9.609818472035032,69.10462117246458,0.3999371007843391,120.42762876710988,309.9016342389877,1.274,1.0246195561629028,0,2.605315896083473,30.000012855656493,0.0661393647819082,7.885015205825298e-07,-0.0954999309613581,0.0553072754187747,0.0066705866706087,7.839119695634476,28.41263829527534,23.50493156877384,32.307283019109526
0.67,31.22220117910108,131.01042246798383,10.167167217737465,4.525846304210419,6.2812856663794765,22.093115896233,-1.802250116803933,0.9268658556389708,289.15624401033847,22.796766357046423,9.743795545793096,69.04966242398122,0.4817193901317343,120.51518422754796,318.00366346182614,1.274,1.024572383541697,0,2.614078720871487,30.000012855656493,0.0669991704735036,8.571353758184811e-07,-0.099356195689662,0.0607963249887291,0.0070300074069363,7.736644928144485,28.06092789676606,23.78145321620613,22.18587288799457
0.68,31.22220074849883,131.0104233616001,10.37230649601116,4.514993826620153,6.211630320981439,27.68900791958794,-1.934998224512324,0.8253307960971157,340.89999248584934,22.96669344968065,9.833793940298907,68.99241872833684,0.5711966720343096,120.61101376523852,322.75577302317134,1.274,1.0245245285832842,0,2.622955425511816,30.000012855656493,0.0674987384894764,9.302116680854094e-07,-0.1032853299128213,0.0663382243968081,0.0073623445811259,7.673953308432208,27.85071486787449,23.94050383201989,27.76880531500871
0.69,31.222200314863063,131.01042426220943,10.578503578417031,4.475123239801706,6.103734985250092,34.18787254457513,-2.081623056301147,0.7054370278471762,401.0140726853658,23.270079342281942,9.972216794887304,68.93283379098358,0.6683512951188861,120.71510639032024,331.33262465649244,1.274,1.024479631064582,0,2.6316882750418884,30.000012855656493,0.0683905437843398,1.007791898392549e-06,-0.1072640377020533,0.0718998225944328,0.0077468015553303,7.563495325416886,27.49226099612594,24.227039350514552,34.25845041844269
0.7,31.22219987248345,131.01042518125467,10.789049207728096,4.42009876757648,5.977165998166215,28.61988235813447,-2.2386634993319787,0.5732541284385833,349.270324209851,23.642365855692,10.135934109789147,68.8708635850162,0.7731109448920996,120.827392974247,342.01216935520733,1.274,1.0244351749185203,0,2.6403295718611166,30.000012855656493,0.0694848553834627,1.0898845026355655e-06,-0.1113134465700577,0.0775095301118072,0.0081677081114308,7.429187893054161,27.064449968995024,24.57955484249492,28.713026673488635
0.71,31.22219942287508,131.0104261155979,11.003025449431778,4.385246551730349,5.879376269563573,23.461499389453063,-2.388544206875061,0.4517871265435908,301.3312640634036,23.899639663205303,10.258241957131847,68.80645051327228,0.8854396333198816,120.94784372319414,349.4889706800671,1.274,1.0243880468141104,0,2.649016370479924,30.000012855656493,0.0702411520361088,1.1765264376044537e-06,-0.1154433052633103,0.0831795385081721,0.0085627413860874,7.330066981823338,26.76410356039228,24.82155002701022,23.587098351370255
0.72,31.22219897023041,131.01042705683173,11.218014882884964,4.357276489054763,5.791957096761194,28.816298653436323,-2.5358057517183874,0.334037658787361,350.7922053414578,24.1077718956426,10.362916267294628,68.73952995327913,1.0053130667976056,121.07644184635582,355.59524883058367,1.274,1.024337302174265,0,2.6576846004520305,30.000012855656493,0.0708530254842975,1.2677869020981591e-06,-0.1196309259467424,0.0888779501103082,0.0089504381066301,7.243471867461178,26.5159185521822,25.016021652636887,28.929586240594112
0.73,31.22219851309399,131.01042800783833,11.43484405556462,4.307739225202649,5.677414826959303,36.55355249887589,-2.696938846813344,0.1993191775092057,422.3203185282354,24.42115339725024,10.506291723769182,68.67004928196299,1.1326543460946723,121.2131145905216,364.8926394341336,1.274,1.024292465384646,0,2.666259287649672,30.000012855656493,0.0717742329824696,1.3637021027242872e-06,-0.1238651058184939,0.0945888710071265,0.0093874981147306,7.122419495370184,26.161763325695595,25.31150094611229,36.65345014546447
0.74,31.22219804776661,131.01042897584966,11.655571424149612,4.240732084698736,5.5418021302947205,22.7582222210376,-2.872201619284056,0.0482767786908039,294.4828134710563,24.82315928808717,10.682529960586209,68.59796129718778,1.2673581254736523,121.3577590793585,376.99679896105215,1.274,1.0242470321640116,0,2.6747752622497174,30.000012855656493,0.0729559175944052,1.4642734490283792e-06,-0.1281614701739079,0.1003323459737999,0.0098727932565793,6.974184025144184,25.7252479627867,25.69230686410616,22.938800131029268
0.75,31.222197574013887,131.01042996119685,11.880277018283726,4.214388619947704,5.4601014914821935,26.63620309271277,-3.0215915906762056,-0.0712704021170209,330.24688556441737,24.981420802047463,10.76970504584983,68.52320846806899,1.4093426147958812,121.51029812672284,381.8110147394502,1.274,1.0241984712898409,0,2.683312227068892,30.000012855656493,0.0734212384732708,1.569518982468086e-06,-0.132532500384583,0.1061238186752479,0.0102743809207047,6.893472437116581,25.52856480355685,25.83779397616721,26.807133573123856
0.76,31.22219710094484,131.01043094603173,12.103877880255476,4.163944656883782,5.348679472808907,28.70375695252253,-3.1881972028226584,-0.2115437569429153,349.2703242098581,25.26590221394176,10.903595153925004,68.44572468652923,1.5585422170672216,121.67067238731453,390.5480554754732,1.274,1.0241522053390697,0,2.691850009506405,30.000012855656493,0.0742575262647928,1.679524253322586e-06,-0.1369319823583551,0.111901441134544,0.0107360992515797,6.7746877653565445,25.21151658351147,26.10485106237838,28.881049415744457
0.77,31.222196618307283,131.01043195028447,12.332037304471068,4.109566565433206,5.233217260152384,26.82279046138569,-3.358945381317868,-0.3566597170574319,331.76876669606884,25.5619428121716,11.042170832715344,68.36547017126965,1.7147977551977964,121.83872236642787,399.7450183484456,1.274,1.0241065975906936,0,2.700218309710168,30.000012855656493,0.0751277951498975,1.7942619769905092e-06,-0.1413788231109606,0.1176894268788695,0.0112143864242853,6.6504206060682645,24.885864728987045,26.382832177402484,27.034640895781312
0.78,31.22219613022976,131.0104329658062,12.562428334289535,4.059405116725249,5.1244175166974415,21.97892897087194,-3.5268662956537087,-0.4987012597832778,286.8734378128874,25.81973767848432,11.166991822743055,68.28239300532859,1.8779799234110268,122.01432100764832,407.8395934263221,1.274,1.0240588105546735,0,2.708629507533351,30.000012855656493,0.0758856640678298,1.913743955260556e-06,-0.1458714331846947,0.1234844428906771,0.0116871808078128,6.534098862204473,24.59723630799926,26.623606587596957,22.26568677406025
0.79,31.22219563730358,131.01043399140607,12.794710769692516,4.0170345288692015,5.026259883496175,31.372625334717807,-3.6872864186084633,-0.6328326256335695,373.6203323159581,26.01472393971704,11.268829385683574,68.19644133119247,2.0479499089536537,122.19733139278664,414.01348767244446,1.274,1.0240083170932772,0,2.7169961714229567,30.000012855656493,0.076458940048032,2.03798925400246e-06,-0.1503993656010764,0.1292723597528688,0.0121406859714404,6.431051725501977,24.36497973812225,26.803234738308102,31.594907479805954
0.8,31.22219514062313,131.01043502494895,13.02827920367842,3.946781114311064,4.894665625929737,31.792534467299824,-3.873555978622896,-0.7965360377376139,377.42502064505805,26.373825720841545,11.432263620742782,68.10756872935896,2.2245447354831134,122.38759092198096,425.5127417371432,1.274,1.0239625010683884,0,2.72530156832122,30.000012855656493,0.0775145674476342,2.1670116014220166e-06,-0.1549479110616237,0.1350336657852939,0.0126802295714782,6.28465661355972,23.990091821804377,27.141743166582703,32.03754287446819
0.81,31.222194633408783,131.0104360791554,13.266704691093908,3.881051345427199,4.769830557165304,20.601061035650208,-4.056523664438122,-0.9568537755400138,273.9374926939922,26.69258387542775,11.581181832592538,68.01573697910686,2.40757069550787,122.58490416764748,435.8505452424018,1.274,1.0239149950770308,0,2.733518607174126,30.000012855656493,0.0784516315827419,2.3007566849395858e-06,-0.1595414318572478,0.1407982446090982,0.0132136383562335,6.146463996447703,23.65371672152101,27.440961976592902,21.01843641145784
0.82,31.222194121248865,131.01043714333835,13.50697062367109,3.838243660985335,4.673960550534561,26.540462868180228,-4.21391725502512,-1.0898651179676373,328.725004432774,26.84243429517521,11.667109718957777,67.9208926119496,2.596871710671564,122.78911651382312,440.7477849113248,1.274,1.0238644186635044,0,2.7417836438733056,30.000012855656493,0.0788922677667849,2.4392411076494888e-06,-0.1641683405446505,0.1465503522642588,0.0136728673772148,6.04527239764917,23.459355542842957,27.57580428365637,26.895000908436767
0.83,31.22219360775144,131.0104382107736,13.747196204137344,3.772070954031334,4.550721525889809,33.796751962261034,-4.395160214631142,-1.250063607850278,395.6875032246518,27.136565546872703,11.807755387532929,67.82298857589124,2.792266348632785,123.00004628825168,450.44947524866217,1.274,1.0238188483711983,0,2.749990990875384,30.000012855656493,0.0797569614682287,2.58250374454176e-06,-0.1687951847037252,0.152247930888562,0.0142119349244042,5.90826920532891,23.14585414958449,27.850639888766064,34.10425978575907
0.84,31.222193084133966,131.01043929765103,13.991901459384104,3.6930555054573615,4.41317175231901,20.77893335014215,-4.591660500135227,-1.4275718204927992,275.45937482564227,27.509513466385684,11.978823946933264,67.72199775996334,2.9935136517687857,123.21744775801778,462.90506750576367,1.274,1.0237739661568126,0,2.758078342905336,30.000012855656493,0.0808533142964152,2.7304654226750256e-06,-0.1734420915493883,0.1579150026715054,0.0148035365772389,5.752195592732471,22.772109356801742,28.202047617382373,21.328042071901887
0.85,31.22219255226422,131.01044040028503,14.240037892780345,3.643735231652653,4.311831666425595,22.68060128375311,-4.748964389707947,-1.5639818612381422,292.9609323393965,27.652214600680924,12.063025380217097,67.61788066547386,3.200403315846271,123.44110839242424,467.70886793162526,1.274,1.0237227741398531,0,2.766198323639584,30.0000128556565,0.0812729552661482,2.883081266013372e-06,-0.1781172237027586,0.1635602059524493,0.0152810626531407,5.643015020200303,22.58050376249187,28.32887641006469,23.22516688055393
0.86,31.222192021056145,131.01044150239915,14.487078293137756,3.579460777133728,4.19369539423825,28.45566577337753,-4.922171486124825,-1.71892719145173,346.2265619465616,27.888147202836745,12.183097378728108,67.51059262135472,3.4127343389013056,123.67082586137846,475.7127461217347,1.274,1.023674789281455,0,2.77431404169124,30.000012855656493,0.0819666160639964,3.0404079113325614e-06,-0.1827769127542399,0.1691301805294213,0.0158142433243303,5.511508509460929,22.3157992136684,28.546303307380505,28.92935183225683
0.87,31.22219148089481,131.01044262136918,14.737844814921772,3.503183230710971,4.062290755908086,26.476985044174143,-5.1098508799266575,-1.8906255946361288,327.9640783669946,28.2009393822745,12.3331511754888,67.40011569987203,3.6302340857297857,123.90632042582348,486.43201977040735,1.274,1.0236288969245204,0,2.7822680514822085,30.000012855656493,0.0828861843776435,3.2023579451349623e-06,-0.1874318653932657,0.1746372134716769,0.0163984938327682,5.362268477045422,21.99380091388937,28.83850804726893,27.031754996366804
0.88,31.22219093297843,131.0104437547915,14.99165218372207,3.432470707973036,3.9383213707038616,22.84754054138709,-5.286832576430914,-2.0523872779879824,294.4828134710421,28.45557987275537,12.461489339646388,67.2864256769941,3.8526463572910505,124.14733005736042,495.24408763220384,1.274,1.0235805388426191,0,2.790228220156008,30.000012855656493,0.083634844995518,3.368856094419142e-06,-0.1920893314470998,0.18008860206626,0.0169573138317664,5.2224194328168165,21.71649582428449,29.07372291871289,23.54087935953933
0.89,31.22219038055073,131.0104448967914,15.246871742609931,3.365124996579393,3.81899469796764,25.075914253736165,-5.454463470989852,-2.20593784940044,315.02813424808807,28.66599400627336,12.573280237996704,67.16949418157505,4.079724542724525,124.3936030571402,502.5829902727165,1.274,1.0235293752791452,0,2.7981721198688616,30.000012855656493,0.0842535235540556,3.5398795710142804e-06,-0.1967342144970159,0.1854658256312556,0.0174953497670355,5.088418996714639,21.471342144403504,29.265436197505554,25.75691769627159
0.9,31.222189823108287,131.01044604820663,15.503732087998658,3.2895344888818867,3.6910901470086888,27.714886788840086,-5.631320934468836,-2.3709256058356334,339.3781423542166,28.927909545522464,12.705556169359868,67.04930258336867,4.31119889664914,124.64486254322892,511.79632488100447,1.274,1.0234837388140003,0,2.806049192771051,30.000012855656493,0.0850235778044298,3.715386389678233e-06,-0.201353962701419,0.190753616644977,0.0180693382042798,4.942692236479292,21.189570827596928,29.50730367355707,28.380416019037085
0.91,31.22218925797989,131.0104472135598,15.763465090938414,3.2088203447323784,3.5583181418571024,21.02300140021729,-5.81328836851013,-2.543013911188312,277.7421810230785,29.21832300848416,12.849576416670196,66.92584066362444,4.546782084886628,124.90081233762376,522.1109482512059,1.274,1.023436404813438,0,2.8138676153148245,30.000012855656493,0.0858773993283614,3.895284493685753e-06,-0.2059509607576964,0.1959537933105947,0.0186669468076319,4.790084768761376,20.889110292305144,29.776903084059533,21.95968645681196
0.92,31.22218868567748,131.01044839178087,16.025764552034516,3.1389178557238706,3.438218792395637,25.066394955604054,-5.970091071561574,-2.690778939341583,315.0281342480675,29.39574621781456,12.950025676502932,66.79909750341602,4.786191575202662,125.16116119577732,528.4577445233633,1.274,1.0233859136578225,0,2.821665146108425,30.000012855656493,0.0863991306695216,4.07949008845744e-06,-0.2105235952556289,0.2010634695883088,0.0191967853625618,4.654279960464488,20.66597197471461,29.935496287671537,25.90765205057139
0.93,31.222188110764137,131.0104495749839,16.28847387768162,3.05671955471426,3.305454052338648,29.85114021754936,-6.144899444688339,-2.859324322844325,359.16250706547066,29.667131542081616,13.087911814696376,66.66906405331085,5.029144084362251,125.42561673862048,538.2467861951943,1.274,1.0233407575091376,0,2.829432341495609,30.000012855656493,0.0871970370621899,4.267978422431299e-06,-0.2150486704938812,0.2060559027161836,0.0197899457424275,4.501021080112592,20.37983670852611,30.1860630823074,30.61088200389419
0.94,31.222187526321235,131.01045077480143,16.554753011030453,2.9674917865080785,3.1659446553309376,21.58020000044807,-6.329602384554149,-3.0401862747269788,283.06875048378083,29.990109387729312,13.246920306340495,66.5357468314056,5.275327337086387,125.6938546317908,550.0160012267814,1.274,1.0232914783978162,0,2.837106419462556,30.000012855656493,0.0881465918881548,4.4606100840644624e-06,-0.2195342685493696,0.2109391914334027,0.0204221541340676,4.338230900143913,20.06164156355895,30.487161784184508,22.693867695721917
0.95,31.222186933657333,131.010451988778,16.823916302548692,2.8915454646731966,3.0413600206667826,28.019813195027908,-6.479227494082499,-3.1868776024978773,342.421873617488,30.165757528030856,13.348222407962105,66.3991484958395,5.524443694513084,125.96556596760044,556.4632267539652,1.274,1.0232418269359267,0,2.8447805131323105,30.000012855656493,0.0886631241936218,4.657267687888754e-06,-0.223981369900717,0.2157130723104608,0.0209573363638893,4.195598915151826,19.838548936537386,30.643268924122303,28.935212272551887
0.96,31.222186339119464,131.01045320629666,17.093087915910107,2.80019865218846,2.901438844629951,27.43018215593683,-6.657364635650785,-3.3653793057076977,337.09533515678265,30.479182390664512,13.505016997221908,66.25927235065043,5.7762000143014935,126.24044621377622,568.0720169298297,1.274,1.0231951201821403,0,2.8524340477828285,30.000012855656493,0.0895846138966187,4.8579326381861725e-06,-0.2283621583057296,0.220346790349347,0.0215886843338527,4.0314705914134406,19.52948597335732,30.93474457495513,28.42641684896594
0.97,31.222185732649244,131.0104544438074,17.366698512851592,2.7112609694767182,2.7647679451715264,17.412271318239284,-6.823635566948004,-3.5339839992291884,245.0218871929888,30.751910895431827,13.646361770190069,66.11614068413436,6.030272622465468,126.51815689290456,578.2685510078834,1.274,1.0231476260761452,0,2.85998618116914,30.000012855656493,0.0903864983581678,5.062414424266212e-06,-0.2326894679507161,0.2248529666604982,0.0221940288564014,3.871585024336192,19.247090617623424,31.186031109710036,19.032557308919476
0.98,31.222185120834595,131.01045569031368,17.641771195256577,2.6338787686120897,2.6405467702788097,25.507944893807995,-6.951516080783612,-3.665404186206156,319.593746642963,30.877914082132897,13.729288482370844,65.96976923997921,6.2863594005529375,126.79838233497316,583.0016640005109,1.274,1.0230935628253934,0,2.867562124807468,30.000012855656493,0.0907571305836893,5.270624838696441e-06,-0.2369505165565195,0.2292168303806743,0.0226924534441742,3.728926352444636,19.05269350010981,31.29254338780124,26.691084960623016
0.99,31.22218450728977,131.01045694000084,17.916750528660845,2.539657062772489,2.500092837858209,27.891875742021423,-7.116202299582583,-3.8374401337894746,341.66094855170127,31.17529930905644,13.882090508980438,65.82018352094717,6.544148164017083,127.08079509419495,594.2698258873446,1.274,1.0230490803133316,0,2.87507869331202,30.000012855656493,0.0916314969191549,5.482525223152496e-06,-0.2411194469411564,0.2334112124152405,0.0233134872219778,3.563176620397814,18.7571925362292,31.567888364400893,29.04002435187281
1.0,31.22218388101348,131.0104582102827,18.19627941870545,2.4445869255792414,2.359580599850742,24.8971875133374,-7.27627547060223,-4.0073940730682125,314.2672081822764,31.468250559154846,14.034017242821772,65.66742729415118,6.8033042868219935,127.36504224148965,605.4746371406849,1.274,1.022999484445133,0,2.882495201579893,30.000012855656493,0.0924928408939055,5.697869861946508e-06,-0.245212009569566,0.2374508924511577,0.023931341602189,3.3970938504051893,18.466210191293456,31.83878785414389,26.246396668023472
1.01,31.222183248263924,131.01045949096525,18.47761887976911,2.3526814962744966,2.2230335906487104,26.039960519500013,-7.41820999831337,-4.161355334807166,324.92031610370094,31.70475591266576,14.163710239309133,65.51153626125803,7.063518780146545,127.65079794000988,614.5933399876398,1.274,1.0229507481225095,0,2.889937914027092,30.000012855656493,0.0931882834668636,5.916524885312528e-06,-0.2492203299689208,0.2413264595394969,0.0245046698610072,3.2363884951576423,18.208482375980548,32.05386160754847,27.393909207316945
1.02,31.222182609681337,131.01046078098864,18.760484681345087,2.256865075782763,2.0835379907030056,21.63321526337003,-7.563447052609757,-4.321597381652274,284.59063161543185,31.973606818095025,14.30746255843976,65.35255314368425,7.324481214942307,127.93773376160122,625.0438455472308,1.274,1.0229039803623294,0,2.897332952700657,30.000012855656493,0.0939788041212247,6.138382132517778e-06,-0.253130157423636,0.2450229950449624,0.0250994783694612,3.0712090351636565,17.93399367796561,32.30081607317423,23.321190747430563
1.03,31.222181962145644,131.01046208504323,19.04610809600826,2.1649285005991965,1.9483084559106707,17.556670897855945,-7.685327283863183,-4.460596106772135,247.3046933904342,32.171048879987275,14.4225111650495,65.19053183800227,7.585874807391637,128.22551317789538,632.7698099698881,1.274,1.022853416101322,0,2.904673798411949,30.000012855656493,0.0945594428025419,6.36326271118107e-06,-0.2569380319109388,0.2485358315018245,0.0256336751619813,2.912218132101986,17.69886293972967,32.4770294811196,19.677343979904006
1.04,31.22218131013968,131.01046339611565,19.332628946804665,2.074208579393129,1.8147578371225608,28.223930352730527,-7.791162047086311,-4.585917354875405,345.4656368807608,32.32972777829781,14.522087192974812,65.025530643023,7.847388288264928,128.51380451129424,639.0097043777988,1.274,1.0228049544826707,0,2.911993082787873,30.000012855656493,0.0950261503657701,6.591053042924557e-06,-0.2606289138635991,0.2518497607100718,0.0261294310558744,2.755766372217366,17.484276917666136,32.614741612362245,29.636516134415817
1.05,31.22218065284059,131.01046471539945,19.620358313262173,1.9702662571414924,1.6703223149932025,16.76656921374038,-7.937763546377395,-4.7567136868753375,240.4562587980608,32.66888280478312,14.697815539071328,64.8576197504144,8.108705563562783,128.80226947240834,652.469059816464,1.274,1.022755494436122,0,2.9192437279743766,30.000012855656493,0.0960233340031012,6.821606330523656e-06,-0.2641923245362137,0.254954400068881,0.0267638007986733,2.5827942013496723,17.17739722609822,32.93121925790721,19.150776966385767
1.06,31.222179981544496,131.01046605570227,19.91263050793908,1.87953244257866,1.5378504342635937,24.123606384203807,-8.019317101871692,-4.86300927307208,308.1796836557233,32.78341841634545,14.780164293072303,64.68687841583642,8.369511833089078,129.09056979788895,657.033689049508,1.274,1.0227013895379469,0,2.926435222449342,30.000012855656493,0.0963603052198278,7.054602863118083e-06,-0.2676401071142222,0.2578582823417082,0.0272073692108095,2.4283281771808083,16.98575907114633,33.024954394201785,25.882555726789338
1.07,31.222179312244844,131.0104673931418,20.20320269577005,1.7774567944823758,1.3967733632528705,28.493849936837687,-8.13812597833596,-5.011357163033784,348.5093681440431,33.06575321441538,14.93399000096506,64.51338072532077,8.629512791648803,129.37838840896143,668.380675170925,1.274,1.0226540159946436,0,2.933651067147867,30.000012855656493,0.0971904905890953,7.290033597393574e-06,-0.2709431264863188,0.2605354821130723,0.0277795723656624,2.260465118187377,16.711383401509497,33.28513612982241,30.05398940702851
1.08,31.222178628405345,131.01046875198207,20.498383498168305,1.673093826948362,1.2547108977252956,18.93311768344399,-8.257941447276169,-5.164274041976587,261.0015785751465,33.377168748433625,15.101258116494186,64.33722181661275,8.88840088538539,129.66539208344997,681.0103629516772,1.274,1.0226061614050743,0,2.940737769660115,30.000012855656493,0.0981061640761063,7.527564930308568e-06,-0.2741107560325639,0.2629922101141441,0.0283682311573492,2.0911946067943163,16.425486398298844,33.57424252306784,21.29145999086052
1.09,31.222177936013686,131.0104701231546,20.795792438513303,1.5766167847419543,1.1195534189083485,17.334905484944024,-8.326198766092629,-5.266569992607085,246.54375332456465,33.52379258401541,15.19906586111816,64.15849331349621,9.145887416521514,129.9512668779596,686.9871533578006,1.274,1.0225512795791307,0,2.947850833531388,30.000012855656493,0.0985374690700317,7.76697212357395e-06,-0.277137841717326,0.2652218670018068,0.0288066830853009,1.9335987081552404,16.21959621754303,33.69964043332154,19.938939128034225
1.1,31.222177241992377,131.01047149668807,21.092856778967995,1.4778289471613235,0.9833033807768924,35.481576828896145,-8.392807033151593,-5.370469692077897,413.1890617384087,33.694562441956954,15.307837599510297,63.97729266182984,9.401689879608533,130.23570411209698,693.9841895097695,1.274,1.0224981043155532,0,2.9549321028520144,30.000012855656493,0.0990397499263985,8.008187114369982e-06,-0.28000367610866,0.2672077528730322,0.0292519917300018,1.775006903126419,16.002997429721947,33.84901179389551,36.85408320490561
1.11,31.222176539468403,131.01047288233727,21.39208383707765,1.3655706906554568,0.8388577262864282,25.743349334499296,-8.527419706093955,-5.549979635350978,324.1593910379213,34.14571532444472,15.538817440749597,63.79373292497267,9.655523683095902,130.518391105352,712.6723066295112,1.274,1.0224548851875197,0,2.961921864455192,30.0000128556565,0.1003661801926518,8.25097012206209e-06,-0.282704469848049,0.2689458084869008,0.0299287305613311,1.602601743414982,15.661710826292635,34.27747808053271,27.681025915864378
1.12,31.22217581722036,131.0104742955252,21.69738901231481,1.263374001325106,0.7020968764713902,9.201217787884218,-8.589532332828918,-5.656751342565318,172.7328179403806,34.360534023388254,15.668491409297252,63.60793207367529,9.907114177671229,130.79902447776365,721.6465288016603,1.274,1.0223979224661404,0,2.968880779696561,30.000012855656493,0.1009979553116003,8.49484340663254e-06,-0.2852528512438515,0.2704403919610694,0.030387611793323,1.4453283356964512,15.429424308438865,34.47081638283618,13.800047471962003
1.13,31.222175095702056,131.01047570751115,22.001420742118324,1.168099665623357,0.5700319975609252,30.43424332702612,-8.58816473449714,-5.6994080758422765,367.5328077894322,34.37633077726635,15.711679726440812,63.420002788492766,10.156202833537964,131.07731702856955,722.289121399796,1.274,1.0223460397860296,0,2.97589860189636,30.000012855656493,0.1010447343118495,8.739796134646552e-06,-0.2876245337304283,0.271674289188438,0.0306534552637565,1.299749316965488,15.284299135459325,34.4658697169281,32.132273383787684
1.14,31.222174373832736,131.0104771200183,22.304641502597207,1.0575202233568015,0.4306819614939968,16.452696927484578,-8.687301060698129,-5.853201939782275,239.6953177322812,34.79353981249847,15.932065725988672,63.2300754730938,10.402529996613668,131.3529785145559,739.9061143751996,1.274,1.0223022138470996,0,2.982806972407947,30.000012855656493,0.1022714157175915,8.985782204246188e-06,-0.2898021711894501,0.2726379546552913,0.0312594684956822,1.1418471487087312,14.96965514628531,34.86119053973426,19.50436896838086
1.15,31.22217362709194,131.01047856624987,22.61542721926512,0.95756245984581,0.2973496660049769,16.181200537085136,-8.690514043683914,-5.908207971704794,237.4125115347709,34.89528679295586,16.014206965028364,63.03829360622034,10.645842870210764,131.62572449089117,744.2176501814573,1.274,1.0222426194541194,0,2.989619675729981,30.0000128556565,0.1025708484233116,9.23216293948885e-06,-0.2918022724046348,0.2733342833932047,0.0315663099677566,1.002663680534596,14.78977931909419,34.941994159604675,19.2941236287567
1.16,31.222172887268748,131.01048000288503,22.922827235277108,0.8549991251459467,0.1639385325887155,43.74228651566717,-8.702029420311097,-5.975749879135682,490.043774385954,35.06319637925106,16.12631440624651,62.844793205929776,10.885902365944666,131.8952839341944,751.3747676590364,1.274,1.02219674531104,0,2.996523478497951,30.000012855656493,0.1030647576604709,9.47900402268541e-06,-0.2936026088811917,0.2737530489415354,0.0319129510702751,0.8705730018277053,14.584303758795455,35.088947748594975,44.9980280931139
1.17,31.222172135579417,131.01048145528517,23.23323124472956,0.7415478184577355,0.0291145311358766,6.978520456487119,-8.816875756702416,-6.160047675433748,153.70937929500428,35.646142517109965,16.4255920458818,62.649726126240246,11.122476318369408,132.1613917253127,776.5433915916019,1.274,1.022149394360584,0,3.0032661919709995,30.0000128556565,0.1047786365279926,9.725985666037025e-06,-0.2952015032790465,0.2738917402118831,0.0326192301702835,0.7421191114991865,14.21806207634353,35.65071581676961,12.821202487846165
