Time,Latitude,Longitude,Altitude,Angle of Attack,Angle of Sideslip,X-Acceleration,Y-Acceleration,Z-Acceleration,Thrust,True Velocity,Ground Velocity,Pitch,Roll,Yaw,Dynamic Pressure,cp,parachute_deploy_gain,Wind Speed,Mach,omega_x,omega_y,omega_z,Cmq,Angle of Attack(total),Angle of Attack(gust),True Velocity(gust),Acceleration
0.0,31.222216000000007,131.010392,3.000000004412624,0.0,0.0,0.0,0.0,0.0,2.2828121974499247,0.0,0.0,71.99999999612658,-1.0292491154817412e-14,119.99999999354436,0.0,15.288,0.0,0.0,0.0,0.0,0.0,0.0,-0.0,0.0,90.0,0.0,0.0
0.01,31.22221599999862,131.01039200000284,3.0000009727369523,0.0,0.0,0.0,0.0,0.0,34.24218696174923,5.916279387578309e-11,5.734623670548936e-11,71.99999999613168,-5.86671995824671e-13,119.9999999935449,2.1432944861733093e-21,15.288,0.0,0.0,1.7386402909615473e-13,-3.4220131069073734e-19,7.115076756936125e-19,5.488773498207866e-19,-1.1574302492039043e-31,0.0,89.99999999962336,5.916279387578309e-11,0.0
0.02,31.22221599999738,131.01039200000537,3.0000018317022668,0.0,0.0,0.0,0.0,0.0,25.871876237766408,1.2265415415436536e-10,1.1895038237325684e-10,71.9999999961369,-1.1836364828043265e-12,119.99999999354544,9.211895886571454e-21,15.288,0.0,0.0,3.6044858651615574e-13,-6.979551485375437e-19,1.4162390878091906e-18,1.0909784360635388e-18,-4.776231873571785e-31,0.0,89.99999999921916,1.2265415415436536e-10,0.0
0.03,31.22221599921969,131.01039200159065,3.0001883335529382,18.80143492628821,-0.0001350810307892,10.931161642028636,-1.75114298675875e-05,3.026590975169265,180.34219359854663,0.0798232026864394,0.0478175828508887,71.99999999765336,-5.341802909786072e-12,119.99999999436793,0.0039016003969354,15.288,0.0,0.0,0.0002345795854893,3.788270153300133e-17,-7.771883375645477e-10,1.1422790048099072e-11,1.7057759223764537e-13,18.80143492675591,89.51882325913425,0.079801984207741,11.342422482672777
0.04,31.222215995131297,131.01039200995308,3.001692634342189,9.19442604083399,-4.49173898918486e-05,52.29595764159784,6.445392950801871e-06,3.026413589912948,548.6359724538078,0.3504174083926908,0.1601447499964056,72.00000000319055,-3.111420077280171e-11,119.99999999870242,0.0751892535633216,15.288,0.0,0.0,0.0010297854387864,2.0082066977226968e-15,-1.520937588847922e-08,2.5623342884322286e-11,1.4654248781413086e-11,9.19442604094277,87.798916624545,0.3504103527855857,52.383455068075136
0.05,31.222215983575865,131.01039203366796,3.0074067499493786,5.158590039700252,1.707592688632746e-06,76.26884281015512,5.843947534199429e-05,3.0258124765658088,761.6984298824644,0.9592973585397016,0.3772700771701255,72.0000000004862,-1.3608731808076822e-10,120.0000000109612,0.5634958029902841,15.288,0.0,0.0,0.0028191251099456,2.086299069701397e-14,-1.0551247853743037e-07,3.973493515691201e-11,2.783064866637575e-10,5.158590039700515,83.94063169874748,0.959297626767734,76.32884071402438
0.06,31.222215961742712,131.0103920785344,3.019291017943491,4.109521257467909,3.140103977270004e-05,57.06876634333886,0.0001151069734147,3.024834864051463,590.4875390737208,1.6257536642597354,0.6118982818704327,71.99999992547217,-3.5903296759057166e-10,120.00000003412836,1.6184272268450337,15.288,0.0,0.0,0.0047776672697797,1.0694899894620088e-13,-3.741090980393931e-07,5.521401959501359e-11,1.6723176417636091e-09,4.109521257587776,79.78719176344794,1.6257585967235286,57.148873286519276
0.07,31.222215929936205,131.01039214392435,3.0371334573469446,3.649087515174788,5.707077112564807e-05,86.89643797254193,0.0001728541558773,3.0234947746384675,855.2937749779139,2.3057260079826607,0.8506307413593818,71.99999965378231,-6.907496536790437e-10,120.00000006788592,3.255354923652711,15.288,0.0,0.0,0.0067759305364855,3.495199904512709e-13,-9.036515915819006e-07,7.594816279105379e-11,5.728932851326001e-09,3.6490875156204896,75.6601668283889,2.305734972638426,86.94902215090157
0.08,31.222215886364623,131.01039223353447,3.0621840248716574,3.4254446680114707,8.413075603463509e-05,17.831756866644035,0.0002285946601282,3.021841001032126,241.2171988638848,2.961944911520492,1.0819695676346892,71.99999900671328,-1.141745983122182e-09,120.00000011415082,5.371998197385977,15.288,0.0,0.0,0.0087043901031071,8.800530155962314e-13,-1.829098470920821e-06,1.0943386634701918e-10,1.4896287129277132e-08,3.4254446690434226,71.81713637501419,2.9619581267487467,18.085991154451033
0.09,31.22221583454733,131.01039234010327,3.0919888289029,3.389560809024919,0.0001118726864415,54.09031716446879,0.0002748660999733,3.020060228038602,563.0937377043176,3.504225426410036,1.2780161667917422,71.99999774508822,-1.634190085504106e-09,120.00000016921716,7.519080503822694,15.288,0.0,0.0,0.0102980157586766,1.865782139518716e-12,-3.1503298654458527e-06,1.6284478329871028e-10,3.03536411425607e-08,3.389560810868955,68.76526501308032,3.504242999330529,54.17456206384468
0.1,31.22221577423132,131.0103924641528,3.1267248829165366,3.4447939461814814,0.0001419149103147,51.372195336549765,0.0003131602029306,3.0182021883815127,538.7437595981919,3.950569597142709,1.4443465951180965,71.99999562056465,-2.1287748602259068e-09,120.00000023339832,9.55649523509932,15.288,0.0,0.0,0.0116097108366932,3.485956000178229e-12,-4.949356763187612e-06,2.4573266549165286e-10,5.3761299442583966e-08,3.444793949101151,66.34639928474206,3.9505918890846927,51.460781166288626
0.11,31.222215706113143,131.01039260424562,3.165907002780892,3.4691423802630394,0.0001702373452339,40.591037561894986,0.0003534470100582,3.016051659024047,442.8656393052949,4.421478635995476,1.6182620895289603,71.99999235067894,-2.5564479031457968e-09,120.00000030601664,11.970509656144712,15.288,0.0,0.0,0.0129935974697161,5.942887149865172e-12,-7.273722517324353e-06,3.67769289312894e-10,8.842679949465076e-08,3.4691423844348632,63.88798785789768,4.421505376815134,40.70293476011277
0.12,31.222215630588888,131.0103927595646,3.2092596514826863,3.4852659299808075,0.0001974376474727,44.30042894095728,0.000394069215595,3.013641598889868,475.58594813540446,4.896982486381051,1.793579340340896,71.99998761802138,-2.8337988279882726e-09,120.00000038673312,14.683611096353944,15.288,0.0,0.0,0.0143909889875706,9.464337642181618e-12,-1.017558359402848e-05,5.395790443954697e-10,1.3700793350599625e-07,3.4852659355662303,61.5068242157714,4.897013499814194,44.40281567867803
0.13,31.222215548046687,131.0103929293088,3.256512891171917,3.5606043721293616,0.0002276507019012,48.86766833507025,0.0004268800875964,3.0112558910133567,515.9156326236895,5.278566579338586,1.939796541405244,71.99998107389406,-2.8573058577484587e-09,120.00000047523812,17.061052093156064,15.288,0.0,0.0,0.0155123760833565,1.4300406003001044e-11,-1.3705268062305584e-05,7.724776992181392e-10,1.989112774124932e-07,3.560604379397528,59.67313531776262,5.27860233862722,48.960358155653
0.14,31.222215458587108,131.01039311327068,3.30759734332425,3.6000732663755977,0.0002555702913645,45.540290862247225,0.0004629468001456,3.0085404980032777,486.2390860568404,5.70011779273801,2.098362647205908,71.99997235012626,-2.508533681468686e-09,120.00000057154703,19.894788765881632,15.288,0.0,0.0,0.0167512184495524,2.071534240530911e-11,-1.7917736259613292e-05,1.0787346240473087e-09,2.8081526258393346e-07,3.6000732754351943,57.72385750323359,5.700157937625502,45.639559681930805
0.15,31.222215362317904,131.01039331122794,3.3624387479639086,3.651605404442164,0.0002842753491325,44.01308509501,0.0004965057129938,3.005703619811542,472.54218587214,6.091938849578711,2.2476968067377374,71.99996103728932,-1.6446954747148112e-09,120.00000067569304,22.723773683610247,15.288,0.0,0.0,0.0179026934683374,2.9002783512213203e-11,-2.287326399669318e-05,1.47199345427166e-09,3.831202693354572e-07,3.651605415492516,55.98561718911576,6.091983503446133,44.115597174664394
0.16,31.22221525912812,131.01039352340948,3.421115382839859,3.67540086436193,0.0003108411545024,34.83804992586084,0.0005330990866742,3.002517946501868,391.1218908297564,6.521183188362317,2.4085903880902046,71.99994669525161,-1.0153513453738144e-10,120.00000078796704,26.03872642002185,15.288,0.0,0.0,0.019164148528834,3.9478358970291335e-11,-2.864207894220033e-05,1.9677461746207517e-09,5.135466997084602e-07,3.6754008774883777,54.15946979122355,6.521232015176687,34.96719658394182
0.17,31.2222151493826,131.01039374906244,3.4833737923187487,3.7139589864597298,0.0003384978477213,43.96471427482637,0.0005668629535037,2.999235483723449,471.78125980632376,6.916861975403744,2.559060925010733,71.99992884100092,2.3206494032971838e-09,120.0000009081849,29.29426197817256,15.288,0.0,0.0,0.0203269651395979,5.248754693205839e-11,-3.5267097947693114e-05,2.580363454062817e-09,6.706952682968329e-07,3.713959001863866,52.549031795895466,6.916915146521327,44.06689817851128
0.18,31.22221503253009,131.01039398932429,3.549599475912623,3.7380363034619775,0.0003650282082698,36.67395661481795,0.0006021794701355,2.9956556354306425,407.10156721191447,7.332140201215607,2.71556808256092,71.99990696207136,5.837017536380516e-09,120.00000103716444,32.917216366714264,15.288,0.0,0.0,0.0215473823438242,6.839750892601699e-11,-4.285557247677198e-05,3.331016495775474e-09,8.639362741436378e-07,3.738036321259578,50.93050624815799,7.332197539712479,36.796100973258795
0.19,31.22221490871209,131.01039424390297,3.619694897703461,3.747799769666444,0.0003901520189829,41.42208371271829,0.0006393759928961,2.991742733214697,448.9531328318269,7.771071983754382,2.879366399937307,71.99988049019642,1.0709144790974043e-08,120.00000117502664,36.97605053227239,15.288,0.0,0.0,0.0228373144884866,8.761416506509219e-11,-5.146771415177372e-05,4.238406957677133e-09,1.0996552116864756e-06,3.747799789945131,49.29705748437159,7.771133268690212,41.529983675580546
0.2,31.22221477769685,131.01039451327668,3.693822889232993,3.7700519460961166,0.0004166800650969,37.99697972290605,0.0006740224661302,2.987733789228414,418.51563019916136,8.179966026035371,3.0338260708461373,71.99984881140107,1.723179577184912e-08,120.0000013223286,40.969302182777255,15.288,0.0,0.0,0.024038975990988,1.1057590044953188e-10,-6.120032215177249e-05,5.3263847350253015e-09,1.376394225587184e-06,3.7700519690893857,47.8457752505109,8.180031477986942,38.11426270718793
0.21,31.222214639876928,131.01039479663547,3.771710975053407,3.7926098867321474,0.0004432924407074,36.46301043881366,0.0007080907240332,2.983530483977461,404.8187610144644,8.582757448615462,3.1863584283669346,71.99981127559042,2.5745201416596626e-08,120.00000147900325,45.103059028532826,15.288,0.0,0.0,0.0252227064089584,1.3774582723633048e-10,-7.20875523136271e-05,6.61341033873124e-09,1.7010673350603349e-06,3.792609912601061,46.47936953648762,8.582827080829217,36.584868250565684
0.22,31.22221449507626,131.01039509434258,3.8534832466471007,3.782921298925821,0.0004660920499522,44.14577847155813,0.0007479176313898,2.978724032883548,472.5421858721365,9.056569122268344,3.360845972992861,71.99976720416048,3.661811567390422e-08,120.00000164562512,50.21995530074818,15.288,0.0,0.0,0.0266151520780326,1.6960703048385348e-10,-8.421592474264931e-05,8.124635526119773e-09,2.0969540034515424e-06,3.7829213275976334,44.9464484092354,9.056642335836344,44.24615863872642
0.23,31.22221434283448,131.01039540734791,3.9394622486964206,3.813874679301352,0.0004940771488601,36.66675459308932,0.000779455230549,2.974212905336642,406.3406421461021,9.430647902846331,3.5044030163419806,71.99971583979395,5.0272885112871524e-08,120.00000182313076,54.45382429059888,15.288,0.0,0.0,0.0277145095638672,2.0669790509245914e-10,-9.77285871729516e-05,9.894576563683824e-09,2.5339062472561444e-06,3.813874711257219,43.79476959007253,9.430725512303388,36.78718303164376
0.24,31.222214184153326,131.01039573358457,4.028950821673608,3.829256049377765,0.0005200487408944,37.802126339316736,0.0008136255607606,2.9692962675112065,416.2328240017114,9.837806876534357,3.658163422426286,71.9996564062533,6.718950080713476e-08,120.0000020109434,59.25679777340223,15.288,0.0,0.0,0.0289110855155543,2.4956955046738006e-10,-0.0001125744417092,1.1934277804843484e-08,3.0448209172448607e-06,3.829256084638984,42.59361542722471,9.83788856559955,37.91856374864305
0.25,31.22221401888584,131.01039607335582,4.122052964664892,3.851417709838087,0.0005469594058717,38.85163035360012,0.0008459008130282,2.964283881833675,425.36408079150686,10.22297576958679,3.8050691648373967,71.99958811418384,8.786880969336211e-08,120.00000220974424,63.98709205399403,15.288,0.0,0.0,0.0300430411774988,2.987811646313829e-10,-0.0001288461362054,1.4273117985167728e-08,3.621333387698252e-06,3.8514177486178034,41.50703126619192,10.223061685769354,38.96455005232871
0.26,31.222213847358866,131.0103964259872,4.218542267117083,3.8780574625554745,0.0005745172425185,42.3164797140743,0.0008766626387865,2.959162938653076,455.8015834241788,10.590779679138215,3.946551912391076,71.99951013710364,1.1286401474734325e-07,120.00000241975916,68.67355887153568,15.288,0.0,0.0,0.0311239685467471,3.5491769188178554e-10,-0.0001465721578858,1.6932703957058654e-08,4.267712643344226e-06,3.8780575050466,40.51245375834074,10.590869924095635,42.41981967733593
0.27,31.22221366913008,131.0103967923915,4.318728802515264,3.886188503202341,0.0005994342651313,38.70936050721014,0.0009111181036949,2.953518013741325,423.84219965987256,11.004860953238978,4.102320296019413,71.99942161756776,1.4276417094868828e-07,120.0000026420792,74.14786134434608,15.288,0.0,0.0,0.0323408987462391,4.1858405402174807e-10,-0.0001658847815307,1.995072923688136e-08,5.018832267232506e-06,3.886188549362022,39.43841359495857,11.00495511215316,38.8218734782956
0.28,31.22221348431185,131.01039717233687,4.422535913956003,3.90556090261878,0.0006261175699806,44.68030766832924,0.0009425767186621,2.947879457547137,476.3468732012221,11.38358114165448,4.247086834352694,71.999321619057,1.7823531611327881e-07,120.000002877279,79.33831935330025,15.288,0.0,0.0,0.033453914386159,4.904408325040897e-10,-0.0001868529238516,2.3357766479368094e-08,5.847713054408178e-06,3.9055609527288775,38.49894431917428,11.383679491972384,44.77744842575601
0.29,31.222213292835256,131.0103975659655,4.530013412817602,3.9242599519377537,0.0006528240665589,35.802573724660256,0.0009737210635801,2.942037024315898,397.97031042211177,11.759725774384751,4.391004157029451,71.99920917567837,2.1999186079018322e-07,120.00000312617878,84.66717879828003,15.288,0.0,0.0,0.0345593650464213,5.711677680739745e-10,-0.0002095620322847,2.7188189988316943e-08,6.77505090435382e-06,3.9242600061534456,37.60352534239979,11.759828319749328,35.92324968749781
0.3,31.222213095024976,131.0103979726075,4.64093665799555,3.936939025755682,0.0006785438093183,33.570228713727204,0.0010059102294455,2.93586442972183,378.1859457108711,12.149968255527943,4.539237002744259,71.99908328532703,2.6880857935396905e-07,120.00000338923812,90.3787563598417,15.288,0.0,0.0,0.0357062504417728,6.614698865958865e-10,-0.0002340353597042,3.1467140861055e-08,7.817263716758327e-06,3.9369390841381695,36.71173884615234,12.150074840940263,33.698361337808635
0.31,31.22221289105846,131.01039839189684,4.755183729044857,3.9598342215431432,0.0007060286581592,35.396825578217346,0.0010350810412898,2.9297385597941448,394.1656220930212,12.504537499407316,4.6763673222047455,71.99894291513503,3.255120771695107e-07,120.00000366712923,95.72967338626896,15.288,0.0,0.0,0.0367483036680869,7.620720834468404e-10,-0.0002603234137215,3.622454560346964e-08,8.948994505138873e-06,3.9598342843844345,35.934338386209795,12.504648402129598,35.5178635353378
0.32,31.222212681031937,131.01039882363492,4.872689374180126,3.985461429033668,0.0007340760463279,38.52097867048992,0.0010630242168685,2.9235095146848846,421.55939346242695,12.84534566718622,4.809181081594425,71.99878701464397,3.909756427278764e-07,120.0000039606604,101.01782231644016,15.288,0.0,0.0,0.0377499198995686,8.737098716736534e-10,-0.0002884807530145,4.1491545539590986e-08,1.0187112828155184e-05,3.98546149652875,35.21473736963424,12.845460975581933,38.631757748577954
0.33,31.22221246496604,131.01039926777932,4.9934410812554,4.010606629086,0.0007621365968788,38.18822026147908,0.0010905599149574,2.917102431053817,418.5156301991682,13.18247167592885,4.940798912752974,71.99861449732019,4.661299779655886e-07,120.000004270781,106.38859400029033,15.288,0.0,0.0,0.0387407190563976,9.971421990244511e-10,-0.0003185760672934,4.7302669734505256e-08,1.154498667827874e-05,4.010606701382261,34.52805863348922,13.182591392065536,38.299473293007864
0.34,31.222212242662028,131.01039972474007,5.117579377337869,4.019339771238816,0.0007871574969313,29.898022638335373,0.0011220389395318,2.910051232417875,345.46563688075645,13.569536737955724,5.0878303926024735,71.99842423285973,5.519675040347761e-07,120.0000045987411,112.72655675097128,15.288,0.0,0.0,0.0398782837956187,1.1331556132162459e-09,-0.0003507224668667,5.37022358302301e-08,1.308298593306914e-05,4.019339848191799,33.76700548046532,13.5696603843662,30.039310197084795
0.35,31.22221201433324,131.01040019407705,5.2449575244483055,4.033762873683395,0.000813261106463,32.76415525156106,0.0011515840876071,2.902959820469776,370.5765700527033,13.934300103976534,5.227895396154902,71.99821502296155,6.495674834876441e-07,120.000004945438,118.8669740701126,15.288,0.0,0.0,0.040950312688979,1.2825853697215452e-09,-0.0003849609961885,6.072234695821837e-08,1.4746020857580124e-05,4.033762955530055,33.07785186209504,13.934427850732408,32.89250745069162
0.36,31.22221177990305,131.01040067594835,5.375631006350063,4.051723629010647,0.0008401329464575,37.01692984301412,0.0011797030485285,2.8957873473716007,407.8625232777193,14.282998147928636,5.362923567977223,71.9979856440668,7.600645476620651e-07,120.00000531213882,124.88900300695136,15.288,0.0,0.0,0.0419751331662584,1.4462801652534363e-09,-0.0004213876232777,6.84067806399068e-08,1.654507199147348e-05,4.051723715967022,32.44322602189087,14.283130115703262,37.13002398000203
0.37,31.222211539445663,131.01040117020102,5.509550188388412,4.071639898917391,0.0008674922629137,35.12417761390579,0.0012067983861697,2.88849906286036,391.1218908297666,14.620581431527652,5.494447309446232,71.99773482653193,8.846681943540367e-07,120.00000570002652,130.86067091914967,15.288,0.0,0.0,0.0429672939311924,1.6251202388969355e-09,-0.0004600660652957,7.679415042686734e-08,1.849041957573993e-05,4.071639991174516,31.85023865502424,14.620717696893658,35.24274792557624
0.38,31.222211292895075,131.01040167697127,5.646763233102716,4.08264881385344,0.0008930259828975,36.695642158537446,0.0012360471443664,2.880711738179021,404.8187610144602,14.986392916850402,5.634654729559426,71.99746126698146,1.0246533537040716e-06,120.0000061105033,137.4891296153862,15.288,0.0,0.0,0.0440424171304414,1.8200057922063743e-09,-0.0005010869196581,8.592980519823866e-08,2.0642694281337543e-05,4.082648911356968,31.228847973200924,14.986533193043764,36.808540518115166
0.39,31.22221104018777,131.0104021963902,5.787316652586672,4.096641430700089,0.0009192713382325,31.335681548387896,0.0012640110027448,2.872831219844713,357.64062493382744,15.337978856701952,5.770390286512262,71.99716358743511,1.1813915463769678e-06,120.00000654506955,144.01394309468844,15.288,0.0,0.0,0.0450757388736732,2.031886352449547e-09,-0.00054455673306,9.586443829735616e-08,2.295945663566148e-05,4.096641533664766,30.65298398882095,15.338123255506089,31.4670954954126
0.4,31.222210781536543,131.01040272801887,5.931064331106764,4.109028969993624,0.0009451871856381,29.95928076777898,0.0012920492774571,2.8646905607053603,345.465636880754,15.692185018814769,5.906873567965718,71.99684037970908,1.3563276523471372e-06,120.00000700500496,150.74021066990193,15.288,0.0,0.0,0.0461167659598875,2.2617341782092324e-09,-0.0005905037520737,1.0663253249436129e-07,2.5471259834659164e-05,4.1090290785164525,30.09246700352443,15.692333488470696,30.095929256306363
0.41,31.222210517064383,131.01040327160345,6.077922766619747,4.122888296344507,0.0009714525997821,33.78425365340317,0.0013192264430821,2.85640971467756,378.94687077668647,16.03742529732769,6.0405139809190125,71.99649020751959,1.5509747261474075e-06,120.0000074917568,157.44375780268788,15.288,0.0,0.0,0.0471314487675864,2.5105374204052982e-09,-0.0006389770219162,1.1827345344180344e-07,2.816813594418537e-05,4.122888410595805,29.56469007160549,16.037577892745222,33.904791300285986
0.42,31.22221024682894,131.0104038270252,6.227854084363214,4.14444025865494,0.0009995884754813,38.04468161607466,0.0013435485656724,2.8482703202464488,416.2328240017114,16.348862540904037,6.163613566771559,71.99611159893284,1.766920641656551e-06,120.00000800692096,163.6157044470786,15.288,0.0,0.0,0.0480467946810589,2.779304965995011e-09,-0.0006900467934588,1.308321832549104e-07,3.100973487310896e-05,4.144440378988911,29.104646754454564,16.34901955589459,38.15115260238947
0.43,31.222209970843565,131.0104043942566,6.380851271439565,4.1618082623168045,0.0010268052928652,33.45815353250911,0.0013687230309017,2.8397750580998298,375.9031395134336,16.67263197205097,6.290467308135904,71.99570306121484,2.005818691215035e-06,120.00000855220898,170.15779512382937,15.288,0.0,0.0,0.0489983878509763,3.0690566816849196e-09,-0.0007437862329608,1.443552931671376e-07,3.4086145072160934e-05,4.161808388761201,28.640125213458976,16.672793262249197,33.57845085853367
0.44,31.22220968892116,131.01040497368373,6.537047157143216,4.164954087655709,0.0010505545842624,30.86574023822051,0.0013980747538988,2.830419582421933,353.0750125389216,17.050421620730056,6.433992917638883,71.99526304125902,2.269416145406482e-06,120.00000912964636,177.9537948947602,15.288,0.0,0.0,0.050108743779844,3.380847125286677e-09,-0.0008003278134917,1.589055036683518e-07,3.750784460406397e-05,4.164954219916419,28.113519280259386,17.050586641458253,30.99524475496968
0.45,31.22220940081287,131.01040556582012,6.696617751072218,4.165241899529329,0.0010735835484822,35.912216710755274,0.0014280646808282,2.820677244966047,397.2093853562869,17.438293672974723,6.580571293039616,71.99478987454265,2.5595995397253085e-06,120.00000974147088,186.13940823302417,15.288,0.0,0.0,0.0512487363629523,3.7158016249566814e-09,-0.000859850913876,1.745604864109677e-07,4.121350642664912e-05,4.1652420376426775,27.591357195572936,17.43846231108416,36.02281959036367
0.46,31.222209106468902,131.0104061707686,6.859600379555308,4.174585124444534,0.0010989881252456,41.916816790010685,0.0014546917035209,2.811153314474766,449.7140588976434,17.786187321601275,6.714685486378061,71.99428180697711,2.8783880229668832e-06,120.0000103898448,193.6374175079873,15.288,0.0,0.0,0.0522712438446989,4.0751091178509895e-09,-0.0009224765531151,1.9138630415982226e-07,4.50966024037632e-05,4.1745852688465686,27.13985967570823,17.786359950252297,42.01097612387663
0.47,31.22220880579083,131.01040678873238,7.026066274755745,4.1823089530633855,0.0011240727220223,28.37640408484148,0.0014814747534716,2.801325368441072,331.0078106302534,18.138167428286582,6.849989708801916,71.99373704967608,3.2278903746588286e-06,120.00001107707628,201.37401505997488,15.288,0.0,0.0,0.0533057667609836,4.459978104761035e-09,-0.0009883252835099,2.094509673354327e-07,4.927107017839778e-05,4.182309103852639,26.69716826759888,18.13834399721685,28.514342615617974
0.48,31.222208499300592,131.0104074186346,7.195654207463586,4.189479568102716,0.0011490100608361,27.95074823096412,0.0015080719422187,2.7912412472910484,327.2031223011574,18.48995085190441,6.98515976370584,71.99315377257649,3.6103201777021456e-06,120.00001180491516,209.25751230436188,15.288,0.0,0.0,0.0543397174489847,4.8716620260348906e-09,-0.0010573190976925,2.2877013380347535e-07,5.373205427420879e-05,4.189479725385959,26.268461765425428,18.4901313379827,28.089773168283216
0.49,31.222208187201936,131.01040806005494,7.368224738812109,4.202723284133339,0.001175611380853,35.08821363242469,0.0015321405723077,2.781292092003844,389.60000969812296,18.812014261754847,7.111044804193205,71.99253015042137,4.027946338669921e-06,120.0000125755114,216.60722913930897,15.288,0.0,0.0,0.0552863302793499,5.311396446020465e-09,-0.0011294854492155,2.4938633613154685e-07,5.8398320167141767e-05,4.202723448262914,25.88860807032205,18.81219892635871,35.1982716047702
0.5,31.22220786953184,131.01040871291724,7.5437546994244835,4.220815778795054,0.0012036252596423,36.05491615971072,0.0015540388599792,2.7714444106710974,397.97031042210494,19.10875420627192,7.229005658018125,71.99186435180009,4.483102820610566e-06,120.00001339126192,223.4908652241728,15.288,0.0,0.0,0.0561585257949344,5.7804122391526605e-09,-0.0012048912160576,2.713531252030471e-07,6.327866493526626e-05,4.220815950099865,25.54902500917784,19.108943271285572,36.161276053538906
0.51,31.222207546379583,131.0104093770373,7.722184419225251,4.232567510615346,0.0012298790840397,27.54004661432325,0.0015777580800203,2.761017323676155,323.3984349720841,19.430597746636646,7.354673636736509,71.99115452520388,4.978202222778502e-06,120.00001425458936,231.07869697977367,15.288,0.0,0.0,0.0571045034845869,6.2799518101633574e-09,-0.0012835871653678,2.947201005874635e-07,6.854585242460463e-05,4.232567688976395,25.189423168613605,19.430790935591396,27.678103017910345
0.52,31.22220721789231,131.01041005276306,7.903535020748194,-14.04855832860122,18.725033467487805,33.61607701317454,-1.006329372014692,3.6919579407960814,372.0984511843415,19.359899153735864,7.489112873142175,71.99041667153871,0.0001453177858142,120.00016217261368,229.3961932881128,15.288,0.0,8.800018689320153,0.0568968440807691,6.841043060519231e-09,-0.0012034280883221,0.0002502702224634,6.40302690417628e-05,23.256913940272067,44.64304352190254,22.24914045907606,33.83317729680836
0.53,31.222206884094668,131.0104107414883,8.087924136673434,-13.765116361298457,18.47280441474329,35.2791122233264,-1.0322126319991027,3.706663082634369,386.5562464348624,19.65826250103872,7.6266947594960675,71.98978821926737,0.0008567819255088,120.00091064701556,236.5171275901692,15.288,0.0,8.833876573247988,0.0577738248578705,7.496680549517874e-09,-0.0009683286009238,0.0005928098494729,5.231452571761601e-05,22.89294067352433,44.04438935702596,22.509952969360285,35.488316012342445
0.54,31.2222065448668,131.01041144352615,8.275423973219203,-13.491720845776436,18.228580262094688,31.0216987482485,-1.0584255647033352,3.7214264796865537,349.2703242098436,19.95551193546408,7.763789580726269,71.9892958063736,0.0021789084939241,120.00230125659388,243.7194919722626,15.288,0.0,8.867658555969168,0.058647537647391,8.239139073751132e-09,-0.0007280379493003,0.0009442822253434,3.9926705378264815e-05,22.541117223318608,43.46322756612488,22.770790634924417,31.26203884820714
0.55,31.22220620051417,131.0104121582859,8.46582829184254,-13.23169653643924,17.996850785563414,32.85878012526889,-1.0846517821472432,3.736023990945408,365.2500005919907,20.246240583200866,7.898596346263818,71.98894231428467,0.0041271603911802,120.00435026312482,250.8680553134402,15.288,0.0,8.90132279363908,0.0595020920096994,9.07083228551163e-09,-0.0004828876698844,0.0013043253321475,2.6867617266480976e-05,22.20694061679359,42.909248045334365,23.026923062165253,33.08827248543207
0.56,31.222205851047,131.01041288578463,8.65913648544235,-12.9870574467658,17.780574817633592,30.688537633321,-1.1106368711375665,3.750282309623416,346.2265619465787,20.52624098389694,8.029736717458558,71.98873052227523,0.0067167900624392,120.00707370593292,257.8501344683876,15.288,0.0,8.9348669429782,0.060325122486402,9.994139471362749e-09,-0.0002328420194529,0.0016730794703017,1.3134131585628485e-05,21.89394396425774,42.38892359798804,23.274593337598294,30.936781890383557
0.57,31.22220549655137,131.0104136258821,8.85529500287061,-12.743949052148304,17.562620707300958,30.347240573289017,-1.1374586325807832,3.7649600771840688,343.1828296833023,20.81396529527367,8.163374377192584,71.98866316702276,0.0099630931134351,120.01048766805536,265.1245763417777,15.288,0.0,8.968274700346415,0.061170858578574,1.1011462958542982e-08,2.201494261412072e-05,0.0020505197464032,-1.2592002058012895e-06,21.58051615826457,41.865956195603424,23.529697049929357,30.601041598885185
0.58,31.222205137013223,131.01041437864455,9.054320107874986,-12.494073111929024,17.332356718948734,39.85818250307812,-1.1659102120290867,3.780598131550191,426.1250058573153,21.122323856786576,8.303782465541385,71.98874297676899,0.0138815585110854,120.01460843425218,273.0331815877393,15.288,0.0,9.001544685994876,0.0620772432434524,1.212523363652981e-08,0.0002817259671131,0.0024367979891157,-1.6352444278942583e-05,21.25339065578113,41.31757879244263,23.80354994605468,40.0540507477518
0.59,31.22220477201537,131.01041514497123,9.25650919045787,-12.268276370693684,17.12941787398348,32.36754392490725,-1.193239974906554,3.7952894429294495,360.68438819711065,21.40472547446315,8.435510273248049,71.98897286979664,0.0184887379669369,120.01945340538845,280.37735097207263,15.288,0.0,9.034726921088716,0.0629073481513844,1.3337995470626137e-08,0.0005468852241724,0.0028328480796333,-3.21670713605663e-05,20.961938831936184,40.82843706867248,24.05550472316616,32.611132199359886
0.6,31.22220440179149,131.0104159244186,9.461706159508775,-12.025525045213715,16.901023586038153,28.79846239541921,-1.2232423611229608,3.8116425847357696,329.4859594986058,21.72443523252536,8.57951380404217,71.98935577001146,0.02380146332107,120.02504027421683,288.8098736419826,15.288,0.0,9.067788671469172,0.0638471059006485,1.4652402827528288e-08,0.0008172148613218,0.0032383798002373,-4.8784500674007325e-05,20.640416176232808,40.28563247428503,24.34090881530389,29.075356874992803
0.61,31.22220402629956,131.01041671711195,9.669947082002716,-11.786347656665091,16.673598759619544,33.69241298009025,-1.2540976418866003,3.82839209914033,372.0984511843297,22.05047326389785,8.725508882617227,71.9898946470117,0.0298370301787702,120.03138721933271,297.537830825738,15.288,0.0,9.10073438110134,0.0648054687708422,1.6071155102736013e-08,0.0010928148536662,0.003653635099808,-6.621447403041571e-05,20.321716405593207,39.74561823599959,24.632745485192004,33.93240397291503
0.62,31.222203645669687,131.01041752282197,9.881148217838758,-11.588649691285577,16.49757841953889,41.818440548817776,-1.2817325007957003,3.842788067897137,442.86563930529206,22.316506753181475,8.851658258704532,71.99059251134024,0.036613191038544,120.03851289731396,304.75439950096177,15.288,0.0,9.133562859377232,0.0655874869443875,1.7597038486811964e-08,0.0013736216589193,0.0040786217057301,-8.423119578139683e-05,20.068004550199472,39.31715427734482,24.872280136453718,42.01418603606852
0.63,31.22220325971692,131.0104183419658,10.095444842852908,-11.385533214148824,16.311517382988466,23.83913973423744,-1.310887092037269,3.8580484124602417,286.11251274707894,22.600444720159768,8.983675229964753,71.99145214126762,0.0441471317486809,120.04643536938664,312.55221999979034,15.288,0.0,9.166250748838744,0.0664221319669325,1.9232740925718424e-08,0.0016598472959702,0.0045137539733564,-0.0001030755842198,19.803173622794056,38.868187811493165,25.128181477582828,24.184861913797548
0.64,31.222202869065,131.01041917329405,10.312409196805945,-11.171124925989632,16.107278072975493,23.406598582093658,-1.3423789739888492,3.8747006218210864,282.30782441796754,22.91482740257137,9.125622637376368,71.9924764253822,0.052456250719662,120.05517290915444,321.3014981573904,15.288,0.0,9.1988095737104,0.067346259512659,2.098108927778085e-08,0.0019506930098242,0.0049579698898416,-0.0001228194518215,19.517305387565404,38.38086509610485,25.411757660460136,23.763083625695906
0.65,31.222202473701927,131.01042001686588,10.53205600629714,-10.986613408409395,15.94055888629343,41.1483457487558,-1.371389282794122,3.889531547851005,436.7781447787475,23.18251463878643,9.25220022090432,71.9936679927563,0.0615576349536154,120.0647434684584,328.8451909212921,15.288,0.0,9.231155598888227,0.0681331562445494,2.2844788991657327e-08,0.0022462601727553,0.0054115094634715,-0.0001430780709413,19.278718853209803,37.97586788749426,25.654274218540863,41.354510299190345
0.66,31.222202073103546,131.01042087379392,10.754756276475575,-10.800804243192818,15.76945110194309,35.03893218374705,-1.401515513281448,3.90494250542886,383.51251517160017,23.46086540762948,9.382249815479328,71.99502946377258,0.0714686234022821,120.07516526177352,336.7822377477498,15.288,0.0,9.263396282346642,0.0689513993349701,2.482650236987892e-08,0.0025472423853651,0.0058755007524982,-0.000164194078149,19.03589882179292,37.56244938639873,25.906769974313224,35.28370148215601
0.67,31.22220166747268,131.01042174369584,10.980375397201517,-10.605736707812865,15.582887744939542,24.204428080257284,-1.4338759631502138,3.921653707772863,289.1562440103425,23.7669389475579,9.521317790142088,71.99656378855818,0.0822077904976481,120.0864577911346,345.6194813678856,15.288,0.0,9.295532233407062,0.0698511261670653,2.6929184110865282e-08,0.0028533959779878,0.0063496915875365,-0.0001863241184603,18.775372526219154,37.116444686438285,26.18462825698102,24.561956493197684
0.68,31.22220125699424,131.0104226262257,11.208791210334136,-10.419129260165256,15.40530317552524,30.155390369706137,-1.4662071706268271,3.938168572572857,340.8999924858462,24.06508020282412,9.657742030248196,71.99827369290837,0.0937937801804069,120.09864063875412,354.3372529951186,15.288,0.0,9.327445916212003,0.0707275467365567,2.9155817426211522e-08,0.0031645358974414,0.0068339101883403,-0.000209228862477,18.526932475013652,36.6910910754312,26.455888361552883,30.446781496942556
0.69,31.222200841759275,131.01042352122937,11.4399467307097,-10.249725952583226,15.249150861839066,37.07183564964182,-1.4971922495925123,3.95364392251004,401.0140726853634,24.33530898952263,9.78502931626114,72.00016191314299,0.1062450415868437,120.11173317114896,362.3316542595816,15.288,0.0,9.35923198128694,0.0715219387574373,3.1509338548005994e-08,0.0034805630751877,0.0073281116424272,-0.0002327024668507,18.305624763418,36.31346604592103,26.702461233822124,37.312114431271446
0.7,31.22220042163109,131.0104244290192,11.673943072526145,-10.083250368661044,15.094764229465524,31.127799338195967,-1.5287205061793063,3.96931092835114,349.27032420985284,24.606841675146768,9.912718410517943,72.00223105445842,0.1195799241722294,120.12575464902557,370.4542129572961,15.288,0.0,9.390899100325624,0.0723201694338208,3.3992622457182365e-08,0.0038016804253077,0.0078327108874206,-0.0002570019015363,18.087449036309163,35.940781846104656,26.95058820667498,31.41707031648454
0.71,31.222199996672664,131.01042534949707,11.910742568895644,-9.911977724502323,14.93128082101458,25.6179931497664,-1.5619521056173145,3.985902952849632,301.33126406340574,24.897038989200336,10.046442109759022,72.00448380154386,0.1338173142892919,120.14072489131796,379.2349121610153,15.288,0.0,9.42235149426607,0.0731732626290266,3.6608670192956753e-08,0.0041278134854083,0.0083477055268335,-0.0002823337160739,17.85922322521635,35.54942273032678,27.215982148521327,25.97323025253609
0.72,31.222199566892616,131.01042628267683,12.15034540830797,-9.734749328399348,14.75679879968422,31.31331725423489,-1.5972492285923208,4.003636950390903,350.79220534145287,25.210451074976703,10.187646775080008,72.0069227009583,0.1489766194507119,120.15666427157788,388.8339279619486,15.288,0.0,9.453669705666302,0.0740945919292737,3.936056094767663e-08,0.00445899630483,0.0088732585152086,-0.000308818077864,17.61873254649501,35.13496293307919,27.502901352261908,31.6086088177436
0.73,31.22219913229429,131.010427228584,12.392755626570183,-9.583597289047228,14.617424134020265,39.551526741009205,-1.629417666536672,4.019217176768141,422.320318528234,25.469818614331224,10.311303807143112,72.00955063936935,0.1650779843074157,120.1735939181184,396.8665669584239,15.288,0.0,9.48486784702082,0.0748570889236092,4.2251446810259696e-08,0.0047952988019205,0.0094095874187567,-0.0003355184470231,17.421520879523793,34.79848367050095,27.74109133090278,39.7885960570465
0.74,31.22219869281661,131.01042818737278,12.63802149520576,-9.428162726847514,14.469772562673992,24.838420038546385,-1.6632541883472278,4.035687430100179,294.48281347105944,25.74682826011345,10.440652214944366,72.01237012709906,0.1821410246299539,120.19153441019662,405.5365979286423,15.288,0.0,9.515901283955015,0.075671443714661,4.528442232446173e-08,0.0051367716694704,0.0099568898725395,-0.0003633110825203,17.215206339054525,34.44499648322175,27.99565110712796,25.219046324946266
0.75,31.222198248846905,131.01042915827864,12.885880088411485,-9.271160214010946,14.317698550726575,28.960159532050607,-1.6983969985559844,4.052804800928495,330.24688556441487,26.03560394146592,10.57376013199836,72.0153836581234,0.2001856339734492,120.21050661364148,414.6747169016442,15.288,0.0,9.546733800270808,0.0765203864182143,4.846276818090938e-08,0.0054828847700176,0.0105144544222027,-0.0003921309179417,17.004445369093027,34.082906155867974,28.261288892915548,29.291647602020525
0.76,31.22219780027313,131.01043014155903,13.136414960315449,-9.124673300307576,14.178953156236725,31.155213360611995,-1.7326783395611889,4.0692155557626,349.27032420986166,26.304630452209835,10.700457643041169,72.0185937693601,0.2192316607563651,120.23053133435506,423.2784957177396,15.288,0.0,9.577424367547613,0.0773112919051642,5.1789562903624186e-08,0.0058338483758362,0.011082721565771,-0.0004215326361601,16.81050002159335,33.75120054390556,28.50919176035464,31.46757075169453
0.77,31.2221973470394,131.0104311373555,13.389670565885243,-8.982688118287685,14.044896652690504,29.141881359734924,-1.7671000429674348,4.085549394875575,331.7687666960708,26.568525220919646,10.82547614701168,72.02200280221126,0.2392993330696085,120.25162978393436,431.8034710859421,15.288,0.0,9.60797626932576,0.0780871216414818,5.5267983687702384e-08,0.0061897622371634,0.0116619664663175,-0.0004517256120551,16.622951516993655,33.43091120327004,28.752664476951107,29.479884762405185
0.78,31.22219688921933,131.01043214554377,13.645601460984372,-8.836891905747313,13.903218630296928,23.96934655600697,-1.8032636350632745,4.10278843548467,286.8734378128899,26.850020506855127,10.95612855110191,72.02561318557183,0.2604090700682072,120.27382336126648,440.99107749942885,15.288,0.0,9.638346265325458,0.0789146877364746,5.8901282050969966e-08,0.0065505101354091,0.0122521251798574,-0.00048310593246,16.42708027357938,33.09491853600127,29.01256366180533,24.384712567628338
0.79,31.222196426911548,131.0104331659485,13.904144905326488,-8.690200533229927,13.75818794147766,33.97410309786212,-1.840696366416924,4.120628267448125,373.6203323159534,27.14185031436568,11.090056172894288,72.02942728524243,0.2825816835959246,120.29713387592602,450.618147899048,15.288,0.0,9.6685260112955,0.0797726351628585,6.269277913231291e-08,0.006915973072011,0.012853126459709,-0.0005155901212334,16.228000780678364,32.75258505181772,29.282272623643067,34.27254618110533
0.8,31.222195959885536,131.01043419906645,14.165466253155463,-8.55808265657224,13.633253899218028,34.41679902149358,-1.8761329383119,4.137077871076144,377.42502064505743,27.398364300539445,11.212611657544468,72.03344749991228,0.3058386946024208,120.32158387874792,459.16433676698,15.288,0.0,9.698577347372533,0.0805267930559277,6.664572564672246e-08,0.0072865571308119,0.0134657438803682,-0.0005483375084429,16.053562250925243,32.455757168723544,29.519720010013465,34.71528975825275
0.81,31.22219548825495,131.01043524468992,14.42949214847477,-8.420783967731657,13.498601988763264,22.479973197458143,-1.9137041003821555,4.154654473967692,273.9374926939919,27.67723838385381,11.342308197323588,72.03767622812937,0.3302016356011364,120.3471959208308,468.5472293703981,15.288,0.0,9.728484794975731,0.0813466768468472,7.076356661461093e-08,0.0076620568493389,0.0140897760239145,-0.000582449204656,15.868306734666533,32.13845160635137,29.778033126380382,22.940632339591595
0.82,31.222195012225285,131.01043630242444,14.696085796883397,-8.28288579912776,13.36112750512995,28.803706968265303,-1.952525617913284,4.172807038898398,328.72500443277005,27.965573185736385,11.47498412506142,72.04211565624348,0.3556922472426429,120.37399277547212,478.3482580354328,15.288,0.0,9.758234832775338,0.0821943741579697,7.504982744310384e-08,0.0080421834503242,0.014724878797445,-0.0006176984535455,15.680435865078934,31.81588369005353,30.045363992984296,29.169816762986066
0.83,31.22219453178306,131.01043737232123,14.96526190226882,-8.161012732506185,13.246670300075944,36.536201149827775,-1.9886131478690976,4.189140606601987,395.68750322465047,28.209596947889064,11.59344253224214,72.04676803288899,0.3823325728864124,120.4019975218598,486.7201005187366,15.288,0.0,9.787802642598397,0.0829118428154945,7.950792844339189e-08,0.0084270149575938,0.0153713028990448,-0.0006528873177246,15.520434178666362,31.54553574392972,30.27189135806106,36.82930186325062
0.84,31.222194046818583,131.01043845462397,15.237101213541187,-8.038367409479138,13.12942277319683,22.65564238156441,-2.025800379064425,4.205964788395201,275.4593748256452,28.461695016107527,11.714458449795716,72.05163549280242,0.4101443676712951,120.43123292715325,495.44528904472486,15.288,0.0,9.817200855460074,0.0836530499012934,8.414121248959919e-08,0.0088166811745226,0.0160293947869211,-0.0006891633060812,15.357755293525145,31.27009846825712,30.50605795653344,23.131626373828002
0.85,31.22219355765168,131.0104395487036,15.51138766431218,-7.9068763811532765,12.9966050884316,24.67705057248717,-2.06625719597692,4.224555842717112,292.96093233939376,28.75006195820901,11.847001294150926,72.05671998663517,0.4391495226714002,120.4617219008498,505.5222926503032,15.288,0.0,9.846430610043068,0.0845008636756248,8.895332102571748e-08,0.0092106732476013,0.0166984435985411,-0.0007272353305775,15.177388567830516,30.961001045039257,30.774101840001023,25.12116867952705
0.86,31.22219306409952,131.01044065495216,15.7882525826611,-7.785552243397765,12.878095361952251,30.83176991675911,-2.105170044335232,4.242050499338497,346.2265619465587,29.01056162214916,11.970606215606136,72.06202351398153,0.4693708299577715,120.49348829422514,514.7110209890809,15.288,0.0,9.875512083749705,0.0852667786993705,9.394765664378081e-08,0.0096093414850229,0.0173791590418839,-0.0007655666828669,15.014483739578326,30.684792541750383,31.01645858798432,31.193344956167756
0.87,31.22219256619156,131.0104417733291,16.067680414471187,-7.669842884151421,12.766937445767532,28.72232641640051,-2.143557760732936,4.259061270982736,327.964078366998,29.25717073117776,12.089747932271337,72.0675481374968,0.5008310739734387,120.52655593245883,523.4849399328593,15.288,0.0,9.9044438127964,0.0859918742586884,9.9127768361077e-08,0.010012638597419,0.0180715986435287,-0.0008044563303602,14.860793763340542,30.426029937787007,31.24604248486425,29.11539931984176
0.88,31.222192063969374,131.010442903768,16.349647053996726,-7.5507429825042784,12.648797386149711,24.85213624736621,-2.1838901790467675,4.277034693915259,294.4828134710418,29.521924915060424,12.21461941116254,72.07329563829747,0.5335531704806621,120.56094878328238,532.9876206622635,15.288,0.0,9.933218863582882,0.0867703085513198,1.0449727534896825e-07,0.0104204524311698,0.0187757120139327,-0.0008447750777336,14.699506573479002,30.152686992913274,31.492693850343013,25.311876227272155
0.89,31.22219155752388,131.01044404610266,16.63409441470581,-7.4285475353475166,12.524022034148896,27.227515326970547,-2.226221958476497,4.295986596510061,315.028134248087,29.804963147527577,12.345240330181392,72.07926784596894,0.5675603807709468,120.59669116391258,543.2416926375813,15.288,0.0,9.961834866246503,0.0876024905662641,1.1005983890326261e-07,0.0108326662193775,0.0194914387057909,-0.0008865881719697,14.531062522035642,29.86546239511681,31.756603429964954,27.654098356775496
0.9,31.22219104677748,131.01044520050755,16.921080630388925,-7.320673435063639,12.420977816282427,30.043968830915293,-2.2653146925186767,4.312873394969451,339.37814235421445,30.03952636797364,12.460421062168413,72.08546660167185,0.6028767748967515,120.63380823513056,551.8106867860994,15.288,0.0,9.990277160703096,0.0882922026585934,1.158190815257575e-07,0.0112494381018143,0.0202191865627864,-0.0009279186924489,14.3885318684129,29.62796528844775,31.975362501324177,30.436369538599475
0.91,31.22219053180871,131.01044636683866,17.210555733659614,-7.209450287475666,12.31104156151282,22.912390916534218,-2.3063903049530547,4.330726685546336,277.7421810230789,30.29234229816881,12.581345412265115,72.09189351172729,0.6395258065724205,120.67232450169108,561.1223697788897,15.288,0.0,10.018554945530385,0.089035570273388,1.2177870914343317e-07,0.0116706021167427,0.0209588182668986,-0.0009707335882959,14.238494381147666,29.3760421748152,32.21131033120082,23.43186478656286
0.92,31.222190012837327,131.01044754466864,17.50237282547347,-7.095198136648717,12.194612816611544,27.226053383820748,-2.3494897751271235,4.3495536777950345,315.02813424806214,30.56338062476224,12.707973700664976,72.09855012556919,0.6775312881530952,120.71226483683552,571.1924782014612,15.288,0.0,10.046665615671843,0.0898325047525675,1.2794260945711653e-07,0.0120957773346278,0.021709817170873,-0.0010150722146393,14.081448527067268,29.11049733828307,32.46447667871651,27.671225167276283
0.93,31.22218948976858,131.01044873420204,17.79660118894116,-6.993496488344393,12.097581832455116,32.334579285202786,-2.3894489503731275,4.36639866907391,359.1625070654728,30.78855875104449,12.82003241773684,72.10543792615705,0.7169173582611122,120.75365444847928,579.6237155449725,15.288,0.0,10.074623694534296,0.0904946532733706,1.3431434044836382e-07,0.0125251725920958,0.0224726867162683,-0.0010588210646816,13.947429365117095,28.88956405738805,32.67475440955259,32.715438575308674
0.94,31.22218896248611,131.01044993568263,18.09332430824448,-6.883566667376593,11.985421284409076,23.522797168767426,-2.433203212114821,4.385218783082356,283.0687504837787,31.053494937850044,12.944604422859888,72.11255823720526,0.75770797961492,120.79651835095768,589.6251794793105,15.288,0.0,10.10242886830894,0.091273667230238,1.408975063453716e-07,0.0129588838880527,0.0232477483670469,-0.0011048802273275,13.796375852829051,28.635554963015892,32.92246011778616,24.05145750864003
0.95,31.222188431303984,131.01045114849464,18.392330705213723,-6.776610599119056,11.876811472060028,30.395636176506912,-2.4769924918495407,4.403861898373196,342.4218736174873,31.311749546462767,13.066986947856078,72.11991242675259,0.7999280995141482,120.8408825837772,599.4559127604833,15.288,0.0,10.13006995442827,0.0920330499494854,1.476962212388845e-07,0.0133964379150096,0.0240343161707931,-0.0011516521328381,13.64993973728423,28.39048304326565,33.16402289753938,30.812727727340175
0.96,31.222187895908032,131.01045237327617,18.69383937810323,-6.676385894285579,11.778240772756206,29.77763309238697,-2.5193534960687693,4.421508660469061,337.09533515678345,31.54571765942361,13.181649789155168,72.12750173636078,0.8436027130483292,120.88677322801512,608.4302901576862,15.288,0.0,10.157568714788514,0.0927210560962928,1.5471391165649176e-07,0.0138383478669817,0.0248334516036505,-0.0011984963766111,13.5155785308094,28.16904946466015,33.38283629175246,30.209341493279464
0.97,31.2221873563212,131.01045360999026,18.997838014512546,-6.575053369107812,11.676465272634667,19.10525228562737,-2.563123746935099,4.43975608577085,245.02188719299323,31.789655076622942,13.29939516054814,72.13532734385778,0.8887574921714617,120.9342170687532,617.8583983543972,15.288,0.0,10.184922476467428,0.0934383720244366,1.6195451571953054e-07,0.0142845443401067,0.0256451950817375,-0.0012466702528959,13.377985475920402,27.94135268168526,33.61112056429781,19.78109456882282
0.98,31.222186812855675,131.0104548580244,19.30411644387604,-6.466499554061183,11.56085501508282,27.746148245751105,-2.610840820798217,4.4600026354637725,319.5937466429581,32.0730918563544,13.429480473284864,72.14339042407923,0.9354181641031312,120.98324093107092,628.906674014342,15.288,0.0,10.212112710198344,0.0942717949801756,1.6942235558939044e-07,0.0147344555068106,0.0264686795443761,-0.001297363077639,13.224956652755589,27.6832395498212,33.87676943425979,28.223338848816017
0.99,31.22218626535328,131.01045611770263,19.61278642341359,-6.3740135602264525,11.471737558408527,30.302732280199663,-2.653124312838055,4.477028452887619,341.6609485517054,32.28589370648862,13.537285274061372,72.15169200983988,0.9836112122607898,121.0338724327087,637.2609364463643,15.288,0.0,10.239160164882517,0.0948976097104922,1.7712112497893158e-07,0.0151884213275971,0.0273046738898222,-0.0013461677673478,13.10282460025364,27.486123159004368,34.075854567531195,30.746356467601043
1.0,31.22218571381297,131.01045738903085,19.92385130943196,-6.2745428810853365,11.369199620192466,27.12347809718304,-2.6992946315308664,4.496009024065959,314.2672081822764,32.5371668736807,13.657101931531477,72.16023287267707,1.0333622115619128,121.0861382239418,647.1994899624593,15.288,0.0,10.266056678880576,0.095636510143375,1.8505476595217208e-07,0.0156463191781605,0.0281531273749407,-0.0013975027909878,12.965727663236638,27.25951045054044,34.31134001821331,27.62577334194759
1.01,31.222185158430246,131.01045867162875,20.23718088221377,-6.177831465519604,11.270212981228775,28.356550913840216,-2.745329042862733,4.514708788277323,324.9203161036979,32.78009284750748,13.774211143733424,72.16901382803054,1.0846978833187193,121.14006614870752,656.8799195262068,15.288,0.0,10.292798476175957,0.0963508832311886,1.9322752342813726e-07,0.0161078397803093,0.0290136381169967,-0.0014494230866489,12.833137449348149,27.04188757924781,34.53901967634356,28.84464260006954
1.02,31.222184599123167,131.01045996566222,20.55283372838477,-6.084520333210127,11.176007317301927,23.673195155275742,-2.790855780763957,4.532926599953437,284.59063161540416,33.010598130379606,13.887346804168113,72.17803549437097,1.137644693259432,121.19568377196588,666.1303902664118,15.288,0.0,10.31939217128094,0.0970287555143584,2.016432328735883e-07,0.0165730874051743,0.0298865662186522,-0.0015017282187976,12.706433618075303,26.83608677945764,34.755010151897125,24.264304408108632
1.03,31.22218403596537,131.01046127098823,20.870762159483647,-5.98709109790403,11.073194893520876,19.34043149461771,-2.83933506375202,4.552544876968924,247.30469339049705,33.26770930569624,14.008715730920947,72.18729833859754,1.1922291322586471,121.25301867400847,676.526783083943,15.288,0.0,10.345832975459963,0.0977848386845829,2.1030599208543945e-07,0.0170418763218793,0.0307717413062121,-0.0015561862462134,12.570329473891436,26.611574373519613,34.996275046598086,20.070868911411594
1.04,31.22218346902348,131.0104625874795,21.19092361190394,-5.89604478271352,10.980604419871424,30.73280935766172,-2.885848111920848,4.570882549532745,345.46563688072297,33.49596557079936,14.120966535976516,72.19680283305952,1.2484786980224525,121.31209948151236,685.8211065788088,15.288,0.0,10.372124718026814,0.0984561153000173,2.192199445404409e-07,0.0175141090109843,0.0316691512549553,-0.0016102320275114,12.446287289454824,26.41130411508536,35.210255755801114,31.204593533982777
1.05,31.22218289799101,131.01046391573644,21.51352827232941,-5.8019937601308,10.881340245310092,18.53326029926594,-2.934896151134731,4.590377300373515,240.45625879819983,33.7455862069606,14.239801582932868,72.20654926344896,1.3064207479783692,121.37295466272349,696.05946013872,15.288,0.0,10.398281969215986,0.0991901969325057,2.283886578917572e-07,0.017990247001207,0.032579848870323,-0.0016662822055579,12.315060996975149,26.1966944032812,35.444566916484526,19.317528736825448
1.06,31.222182323122382,131.01046525526164,21.838405795079417,-5.705706397893891,10.776684323492514,26.394803874789144,-2.986283438200715,4.610903566313789,308.17968365593924,34.013645249972186,14.364272461958558,72.21653795375795,1.3660839231925477,121.43561402175304,707.1396520219496,15.288,0.0,10.424293627049956,0.0999784836627262,2.378168322629018e-07,0.0184698105234096,0.0335031135804284,-0.0017242352503671,12.178133916575922,25.970587667982976,35.69647939529806,26.960415279807933
1.07,31.22218174429298,131.0104666062996,22.16564301858972,-5.618728388140942,10.687898585180545,31.0769213048612,-3.0338763873082275,4.6291764421115005,348.5093681440308,34.23363195146316,14.473666346953664,72.22676917214622,1.427497613486656,121.50010813730832,716.2937120402994,15.288,0.0,10.450174732139905,0.1006254762264054,2.475084823708055e-07,0.0189530495047224,0.0344396071584888,-0.001780735125243,12.059602793060323,25.781783069373,35.90276361796936,31.565942378680894
1.08,31.22218116139321,131.01046796905945,22.495315636810503,-5.531157703470515,10.596876240069616,20.901474206988407,-3.082803306624033,4.647944100399914,261.00157857466235,34.4613854968926,14.585390058532356,72.23724294517585,1.4906908082581298,121.5664671551938,725.8333185382419,15.288,0.0,10.475926971651775,0.1012953061034784,2.574677317009024e-07,0.0194400476443038,0.0353896939854131,-0.0018385843450452,11.93891293219814,25.588779740292527,36.11646534415125,21.63281499512202
1.09,31.222180574717854,131.01046934296497,22.82722599162044,-5.4363690531182,10.491127664806475,19.213707758649896,-3.136953361651277,4.6692484083417884,246.54375332474407,34.7381092714483,14.712209708812638,72.24795918614278,1.5556929301801168,121.6347216632694,737.5134423528693,15.288,0.0,10.501535139020326,0.1021090864742885,2.676995544941792e-07,0.0199302063136155,0.0363524182641126,-0.0019000176038904,11.801976115162788,25.36272498947459,36.37685865508403,20.02021285917762
1.1,31.222179984348,131.0104707278572,23.161321288890807,-5.34709097555398,10.394445611338025,38.58808762780961,-3.189169275487993,4.689289041041338,413.1890617385841,34.987124765395784,14.830290763963651,72.25891768888233,1.6225338301843812,121.70490268652924,748.1008654162011,15.288,0.0,10.527004291359212,0.1028414295424244,2.782083797174185e-07,0.0204234069159458,0.0373277397479227,-0.0019609303150436,11.675673049959288,25.15838725992729,36.6109389172722,39.00257349393319
1.11,31.22217938984934,131.01047212456953,23.49789570816824,-5.267291362256412,10.31461553262296,28.22817488038276,-3.236718759717535,4.706652797130604,324.1593910376397,35.180603396793366,14.9310608357387,72.27011815739537,1.6912440151681702,121.7770419261898,756.373278046432,15.288,0.0,10.552358836634756,0.1034105349213888,2.889976711020004e-07,0.0209203895501477,0.0383173177422039,-0.0020196900558811,11.568712779387164,24.993919053115214,36.79208208618535,28.800326143287286
1.12,31.222178791286208,131.01047353296607,23.83690620818115,-5.173045499808829,10.205980397371796,10.601922980791176,-3.2944118388325894,4.7290820522157375,172.73281794065943,35.472519545448144,15.062197827369117,72.28156005033331,1.7618536468528168,121.85117070732802,768.9525484357862,15.288,0.0,10.57758772440861,0.1042689977013541,3.000721408192656e-07,0.0214208843219787,0.0393208530964513,-0.0020851003762839,11.429726598243704,24.763662218549413,37.06720675163928,12.067234037303553
1.13,31.22217818929541,131.01047495182237,24.17792678434961,-5.088274964033212,10.11431810354831,33.26559798158583,-3.347313994208104,4.748762238653358,367.5328077900705,35.708074275249544,15.175742713746631,72.29324298175318,1.8343952701377029,121.9273228428532,779.1733681780963,15.288,0.0,10.602674209219591,0.10496179833774,3.1143784197060705e-07,0.0219237992765199,0.0403363751919371,-0.0021481547034838,11.310187286705828,24.573532583388968,37.28858898959285,33.76914661118295
1.14,31.22217758315907,131.01047638250196,24.52143982275569,-5.010207630106552,10.034593477380822,18.37739924137924,-3.396789637122449,4.76643357621699,239.69531773195544,35.90216182811709,15.276380503866651,72.30516603916547,1.908899249537316,122.00552984429424,787.6406308835659,15.288,0.0,10.627651671264935,0.105532716463137,3.230974170246154e-07,0.0224303457164522,0.0413665318806741,-0.0022096604649609,11.20437139403894,24.41208108829463,37.47034651904045,19.286935260750926
1.15,31.22217697339909,131.01047782399405,24.867095402637176,-4.918119494496413,9.926246673716978,18.10231217458076,-3.457075237355056,4.789425671410392,237.41251153546767,36.19894517708337,15.408553614851662,72.31732814321745,1.985396188831244,122.08582345951052,800.6898487822036,15.288,0.0,10.65248977659736,0.1064055122230457,3.350568109286753e-07,0.022939407822379,0.0424093100110403,-0.0022784141873088,11.066872914518983,24.18482923201248,37.75036834343154,19.04163001228291
1.16,31.22217636016321,131.01047927601329,25.214796340480035,-4.843178444888084,9.850582274898745,47.52148141581189,-3.5063672804888,4.806519394989112,490.0437743845894,36.37894307952754,15.504591731209205,72.32972833615473,2.063918997487801,122.16823784289124,808.6454383412743,15.288,0.0,10.677193433992205,0.1069350292554135,3.473208163689356e-07,0.0234508185789655,0.0434645731788893,-0.0023407128394995,10.966251530875947,24.034638064617724,37.91865747846017,47.89246742603104
1.17,31.222175742503524,131.01048074033807,25.56517512081958,-4.7613779519490524,9.76026562201114,8.331331143803693,-3.5616510567915407,4.826430565770775,153.70937929486794,36.61222284816932,15.616934498094292,72.34236516174728,2.144498589675005,122.25280504149912,819.0219926037756,15.288,0.0,10.701770236718051,0.107621175077538,3.598915266272395e-07,0.0239661253992638,0.0445357481178888,-0.0024074061229819,10.849593886454493,23.851223692595163,38.13795758732751,10.266005497965802
1.18,31.222175121662303,131.01048221460488,25.91740283891039,-4.67054219645882,9.650558454427632,23.04013004212233,-3.6251696523350807,4.850248508635415,280.02501822196746,36.919666039950776,15.751871793847991,72.35523719514633,2.2271676361930366,122.33955892968127,832.8066860329805,15.288,0.0,10.726195040729268,0.1085253319167654,3.727772025223705e-07,0.0244829215871445,0.0456181122161212,-0.002479886176275,10.711697960807038,23.623104662240475,38.428414663163935,23.82255985324917
1.19,31.22217449707605,131.01048369986844,26.271856109596182,-4.60238323350178,9.58562383486544,40.32934429578422,-3.6720374334528914,4.8653798011818274,428.4078130529292,37.05825770779565,15.834843815078104,72.36834292753437,2.3119598368879406,122.42853444884518,839.042350822619,15.288,0.0,10.750511390690116,0.1089331577749945,3.859805509046466e-07,0.0250023844594507,0.0467143279451519,-0.0025419229438738,10.62393699753839,23.50094959143762,38.55694980206637,40.78739745130021
1.2,31.22217386825457,131.01048519702164,26.62885861751695,-4.517683540962363,9.485937047321828,4.034195910298704,-3.733300146185907,4.887507676787938,117.1843741360236,37.329838287433695,15.958471003253804,72.38168026743456,2.398906280011216,122.51976378535872,851.3560209588777,15.288,0.0,10.774722303030009,0.1097319139932475,3.995050543122698e-07,0.0255251028015578,0.0478259185383971,-0.0026139945026902,10.49788409798214,23.29801603816149,38.81308798717053,7.355270077627574
1.21,31.22217323644856,131.01048670371125,26.987580427171213,-4.434829742287194,9.388798364532992,32.33220066571482,-3.794421390195189,4.909271700993982,359.92343213200894,37.59344904072398,16.07944084386553,72.39524737241769,2.4880415902083706,122.6132828200253,863.3927026561496,15.288,0.0,10.79878705718674,0.1105072512124899,4.1335933903029003e-07,0.0260487435875924,0.0489481952885951,-0.0026863651765097,10.375009650472764,23.101770384758694,39.06164675096962,32.92217766504216
1.22,31.222172600698546,131.01048822171023,27.348657127861685,-4.367102296618381,9.32203516450931,23.35853909469373,-3.8434536479210335,4.924741207440507,283.0687504825761,37.73639702416872,16.163394910628412,72.40904193952214,2.579398734599151,122.70912568180933,869.941061963587,15.288,0.0,10.822754928022308,0.1109279038140159,4.275446862668114e-07,0.0265751180621561,0.0500852585103028,-0.0027509751498808,10.286071937743676,22.978240047308567,39.19424708601437,24.17946567942136
1.23,31.222171961380138,131.010489750291,27.711837607517843,-4.284608215528276,9.2233658062796,8.963262905649872,-3.90670118927704,4.9469993811270525,159.79687382222795,38.00735868021747,16.286279955451565,72.42306122048988,2.673009058972693,122.80732478304132,882.4481410052994,15.288,0.0,10.8465980594153,0.1117248662090563,4.420672527342858e-07,0.0271032311128417,0.0512352654967592,-0.0028256908049292,10.162157050622728,22.78003690697683,39.44991232829068,10.957882960452219
