Time,Latitude,Longitude,Altitude,Angle of Attack,Angle of Sideslip,X-Acceleration,Y-Acceleration,Z-Acceleration,Thrust,True Velocity,Ground Velocity,Pitch,Roll,Yaw,Dynamic Pressure,cp,parachute_deploy_gain,Wind Speed,Mach,omega_x,omega_y,omega_z,Cmq,Angle of Attack(total),Angle of Attack(gust),True Velocity(gust),Acceleration
0.0,31.222216000000007,131.010392,3.000000004412624,0.0,0.0,0.0,0.0,0.0,2.2828121974499247,0.0,0.0,71.99999999612658,-1.0292491154817412e-14,119.99999999354436,0.0,15.288,0.0,0.0,0.0,0.0,0.0,0.0,-0.0,0.0,90.0,0.0,0.0
0.01,31.22221599999862,131.01039200000284,3.0000009727369523,0.0,0.0,0.0,0.0,0.0,34.24218696174923,5.916279387578309e-11,5.734623670548936e-11,71.99999999613168,-5.86671995824671e-13,119.9999999935449,2.1432944861733093e-21,15.288,0.0,0.0,1.7386402909615473e-13,-3.4220131069073734e-19,7.115076756936125e-19,5.488773498207866e-19,-1.1574302492039043e-31,0.0,89.99999999962336,5.916279387578309e-11,0.0
0.02,31.22221599999738,131.01039200000537,3.0000018317022668,0.0,0.0,0.0,0.0,0.0,25.871876237766408,1.2265415415436536e-10,1.1895038237325684e-10,71.9999999961369,-1.1836364828043265e-12,119.99999999354544,9.211895886571454e-21,15.288,0.0,0.0,3.6044858651615574e-13,-6.979551485375437e-19,1.4162390878091906e-18,1.0909784360635388e-18,-4.776231873571785e-31,0.0,89.99999999921916,1.2265415415436536e-10,0.0
0.03,31.22221599921969,131.01039200159065,3.0001883335529382,18.80143492628821,-0.0001350810307892,10.931161642028636,-1.75114298675875e-05,3.026590975169265,180.34219359854663,0.0798232026864394,0.0478175828508887,71.99999999765336,-5.341802909786072e-12,119.99999999436793,0.0039016003969354,15.288,0.0,0.0,0.0002345795854893,3.788270153300133e-17,-7.771883375645477e-10,1.1422790048099072e-11,1.7057759223764537e-13,18.80143492675591,89.51882325913425,0.079801984207741,11.342422482672777
0.04,31.222215995131297,131.01039200995308,3.001692634342189,9.19442604083399,-4.49173898918486e-05,52.29595764159784,6.445392950801871e-06,3.026413589912948,548.6359724538078,0.3504174083926908,0.1601447499964056,72.00000000319055,-3.111420077280171e-11,119.99999999870242,0.0751892535633216,15.288,0.0,0.0,0.0010297854387864,2.0082066977226968e-15,-1.520937588847922e-08,2.5623342884322286e-11,1.4654248781413086e-11,9.19442604094277,87.798916624545,0.3504103527855857,52.383455068075136
0.05,31.222215983575865,131.01039203366796,3.0074067499493786,5.158590039700252,1.707592688632746e-06,76.26884281015512,5.843947534199429e-05,3.0258124765658088,761.6984298824644,0.9592973585397016,0.3772700771701255,72.0000000004862,-1.3608731808076822e-10,120.0000000109612,0.5634958029902841,15.288,0.0,0.0,0.0028191251099456,2.086299069701397e-14,-1.0551247853743037e-07,3.973493515691201e-11,2.783064866637575e-10,5.158590039700515,83.94063169874748,0.959297626767734,76.32884071402438
0.06,31.222215961742712,131.0103920785344,3.019291017943491,4.109521257467909,3.140103977270004e-05,57.06876634333886,0.0001151069734147,3.024834864051463,590.4875390737208,1.6257536642597354,0.6118982818704327,71.99999992547217,-3.5903296759057166e-10,120.00000003412836,1.6184272268450337,15.288,0.0,0.0,0.0047776672697797,1.0694899894620088e-13,-3.741090980393931e-07,5.521401959501359e-11,1.6723176417636091e-09,4.109521257587776,79.78719176344794,1.6257585967235286,57.148873286519276
0.07,31.222215929936205,131.01039214392435,3.0371334573469446,3.649087515174788,5.707077112564807e-05,86.89643797254193,0.0001728541558773,3.0234947746384675,855.2937749779139,2.3057260079826607,0.8506307413593818,71.99999965378231,-6.907496536790437e-10,120.00000006788592,3.255354923652711,15.288,0.0,0.0,0.0067759305364855,3.495199904512709e-13,-9.036515915819006e-07,7.594816279105379e-11,5.728932851326001e-09,3.6490875156204896,75.6601668283889,2.305734972638426,86.94902215090157
0.08,31.222215886364623,131.01039223353447,3.0621840248716574,3.4254446680114707,8.413075603463509e-05,17.831756866644035,0.0002285946601282,3.021841001032126,241.2171988638848,2.961944911520492,1.0819695676346892,71.99999900671328,-1.141745983122182e-09,120.00000011415082,5.371998197385977,15.288,0.0,0.0,0.0087043901031071,8.800530155962314e-13,-1.829098470920821e-06,1.0943386634701918e-10,1.4896287129277132e-08,3.4254446690434226,71.81713637501419,2.9619581267487467,18.085991154451033
0.09,31.22221583454733,131.01039234010327,3.0919888289029,3.389560809024919,0.0001118726864415,54.09031716446879,0.0002748660999733,3.020060228038602,563.0937377043176,3.504225426410036,1.2780161667917422,71.99999774508822,-1.634190085504106e-09,120.00000016921716,7.519080503822694,15.288,0.0,0.0,0.0102980157586766,1.865782139518716e-12,-3.1503298654458527e-06,1.6284478329871028e-10,3.03536411425607e-08,3.389560810868955,68.76526501308032,3.504242999330529,54.17456206384468
0.1,31.22221577423132,131.0103924641528,3.1267248829165366,3.4447939461814814,0.0001419149103147,51.372195336549765,0.0003131602029306,3.0182021883815127,538.7437595981919,3.950569597142709,1.4443465951180965,71.99999562056465,-2.1287748602259068e-09,120.00000023339832,9.55649523509932,15.288,0.0,0.0,0.0116097108366932,3.485956000178229e-12,-4.949356763187612e-06,2.4573266549165286e-10,5.3761299442583966e-08,3.444793949101151,66.34639928474206,3.9505918890846927,51.460781166288626
0.11,31.222215706113143,131.01039260424562,3.165907002780892,3.4691423802630394,0.0001702373452339,40.591037561894986,0.0003534470100582,3.016051659024047,442.8656393052949,4.421478635995476,1.6182620895289603,71.99999235067894,-2.5564479031457968e-09,120.00000030601664,11.970509656144712,15.288,0.0,0.0,0.0129935974697161,5.942887149865172e-12,-7.273722517324353e-06,3.67769289312894e-10,8.842679949465076e-08,3.4691423844348632,63.88798785789768,4.421505376815134,40.70293476011277
0.12,31.222215630588888,131.0103927595646,3.2092596514826863,3.4852659299808075,0.0001974376474727,44.30042894095728,0.000394069215595,3.013641598889868,475.58594813540446,4.896982486381051,1.793579340340896,71.99998761802138,-2.8337988279882726e-09,120.00000038673312,14.683611096353944,15.288,0.0,0.0,0.0143909889875706,9.464337642181618e-12,-1.017558359402848e-05,5.395790443954697e-10,1.3700793350599625e-07,3.4852659355662303,61.5068242157714,4.897013499814194,44.40281567867803
0.13,31.222215548046687,131.0103929293088,3.256512891171917,3.5606043721293616,0.0002276507019012,48.86766833507025,0.0004268800875964,3.0112558910133567,515.9156326236895,5.278566579338586,1.939796541405244,71.99998107389406,-2.8573058577484587e-09,120.00000047523812,17.061052093156064,15.288,0.0,0.0,0.0155123760833565,1.4300406003001044e-11,-1.3705268062305584e-05,7.724776992181392e-10,1.989112774124932e-07,3.560604379397528,59.67313531776262,5.27860233862722,48.960358155653
0.14,31.222215458587108,131.01039311327068,3.30759734332425,3.6000732663755977,0.0002555702913645,45.540290862247225,0.0004629468001456,3.0085404980032777,486.2390860568404,5.70011779273801,2.098362647205908,71.99997235012626,-2.508533681468686e-09,120.00000057154703,19.894788765881632,15.288,0.0,0.0,0.0167512184495524,2.071534240530911e-11,-1.7917736259613292e-05,1.0787346240473087e-09,2.8081526258393346e-07,3.6000732754351943,57.72385750323359,5.700157937625502,45.639559681930805
0.15,31.222215362317904,131.01039331122794,3.3624387479639086,3.651605404442164,0.0002842753491325,44.01308509501,0.0004965057129938,3.005703619811542,472.54218587214,6.091938849578711,2.2476968067377374,71.99996103728932,-1.6446954747148112e-09,120.00000067569304,22.723773683610247,15.288,0.0,0.0,0.0179026934683374,2.9002783512213203e-11,-2.287326399669318e-05,1.47199345427166e-09,3.831202693354572e-07,3.651605415492516,55.98561718911576,6.091983503446133,44.115597174664394
0.16,31.22221525912812,131.01039352340948,3.421115382839859,3.67540086436193,0.0003108411545024,34.83804992586084,0.0005330990866742,3.002517946501868,391.1218908297564,6.521183188362317,2.4085903880902046,71.99994669525161,-1.0153513453738144e-10,120.00000078796704,26.03872642002185,15.288,0.0,0.0,0.019164148528834,3.9478358970291335e-11,-2.864207894220033e-05,1.9677461746207517e-09,5.135466997084602e-07,3.6754008774883777,54.15946979122355,6.521232015176687,34.96719658394182
0.17,31.2222151493826,131.01039374906244,3.4833737923187487,3.7139589864597298,0.0003384978477213,43.96471427482637,0.0005668629535037,2.999235483723449,471.78125980632376,6.916861975403744,2.559060925010733,71.99992884100092,2.3206494032971838e-09,120.0000009081849,29.29426197817256,15.288,0.0,0.0,0.0203269651395979,5.248754693205839e-11,-3.5267097947693114e-05,2.580363454062817e-09,6.706952682968329e-07,3.713959001863866,52.549031795895466,6.916915146521327,44.06689817851128
0.18,31.22221503253009,131.01039398932429,3.549599475912623,3.7380363034619775,0.0003650282082698,36.67395661481795,0.0006021794701355,2.9956556354306425,407.10156721191447,7.332140201215607,2.71556808256092,71.99990696207136,5.837017536380516e-09,120.00000103716444,32.917216366714264,15.288,0.0,0.0,0.0215473823438242,6.839750892601699e-11,-4.285557247677198e-05,3.331016495775474e-09,8.639362741436378e-07,3.738036321259578,50.93050624815799,7.332197539712479,36.796100973258795
0.19,31.22221490871209,131.01039424390297,3.619694897703461,3.747799769666444,0.0003901520189829,41.42208371271829,0.0006393759928961,2.991742733214697,448.9531328318269,7.771071983754382,2.879366399937307,71.99988049019642,1.0709144790974043e-08,120.00000117502664,36.97605053227239,15.288,0.0,0.0,0.0228373144884866,8.761416506509219e-11,-5.146771415177372e-05,4.238406957677133e-09,1.0996552116864756e-06,3.747799789945131,49.29705748437159,7.771133268690212,41.529983675580546
0.2,31.22221477769685,131.01039451327668,3.693822889232993,3.7700519460961166,0.0004166800650969,37.99697972290605,0.0006740224661302,2.987733789228414,418.51563019916136,8.179966026035371,3.0338260708461373,71.99984881140107,1.723179577184912e-08,120.0000013223286,40.969302182777255,15.288,0.0,0.0,0.024038975990988,1.1057590044953188e-10,-6.120032215177249e-05,5.3263847350253015e-09,1.376394225587184e-06,3.7700519690893857,47.8457752505109,8.180031477986942,38.11426270718793
0.21,31.222214639876928,131.01039479663547,3.771710975053407,3.7926098867321474,0.0004432924407074,36.46301043881366,0.0007080907240332,2.983530483977461,404.8187610144644,8.582757448615462,3.1863584283669346,71.99981127559042,2.5745201416596626e-08,120.00000147900325,45.103059028532826,15.288,0.0,0.0,0.0252227064089584,1.3774582723633048e-10,-7.20875523136271e-05,6.61341033873124e-09,1.7010673350603349e-06,3.792609912601061,46.47936953648762,8.582827080829217,36.584868250565684
0.22,31.22221449507626,131.01039509434258,3.8534832466471007,3.782921298925821,0.0004660920499522,44.14577847155813,0.0007479176313898,2.978724032883548,472.5421858721365,9.056569122268344,3.360845972992861,71.99976720416048,3.661811567390422e-08,120.00000164562512,50.21995530074818,15.288,0.0,0.0,0.0266151520780326,1.6960703048385348e-10,-8.421592474264931e-05,8.124635526119773e-09,2.0969540034515424e-06,3.7829213275976334,44.9464484092354,9.056642335836344,44.24615863872642
0.23,31.22221434283448,131.01039540734791,3.9394622486964206,3.813874679301352,0.0004940771488601,36.66675459308932,0.000779455230549,2.974212905336642,406.3406421461021,9.430647902846331,3.5044030163419806,71.99971583979395,5.0272885112871524e-08,120.00000182313076,54.45382429059888,15.288,0.0,0.0,0.0277145095638672,2.0669790509245914e-10,-9.77285871729516e-05,9.894576563683824e-09,2.5339062472561444e-06,3.813874711257219,43.79476959007253,9.430725512303388,36.78718303164376
0.24,31.222214184153326,131.01039573358457,4.028950821673608,3.829256049377765,0.0005200487408944,37.802126339316736,0.0008136255607606,2.9692962675112065,416.2328240017114,9.837806876534357,3.658163422426286,71.9996564062533,6.718950080713476e-08,120.0000020109434,59.25679777340223,15.288,0.0,0.0,0.0289110855155543,2.4956955046738006e-10,-0.0001125744417092,1.1934277804843484e-08,3.0448209172448607e-06,3.829256084638984,42.59361542722471,9.83788856559955,37.91856374864305
0.25,31.22221401888584,131.01039607335582,4.122052964664892,3.851417709838087,0.0005469594058717,38.85163035360012,0.0008459008130282,2.964283881833675,425.36408079150686,10.22297576958679,3.8050691648373967,71.99958811418384,8.786880969336211e-08,120.00000220974424,63.98709205399403,15.288,0.0,0.0,0.0300430411774988,2.987811646313829e-10,-0.0001288461362054,1.4273117985167728e-08,3.621333387698252e-06,3.8514177486178034,41.50703126619192,10.223061685769354,38.96455005232871
0.26,31.222213847358866,131.0103964259872,4.218542267117083,3.8780574625554745,0.0005745172425185,42.3164797140743,0.0008766626387865,2.959162938653076,455.8015834241788,10.590779679138215,3.946551912391076,71.99951013710364,1.1286401474734325e-07,120.00000241975916,68.67355887153568,15.288,0.0,0.0,0.0311239685467471,3.5491769188178554e-10,-0.0001465721578858,1.6932703957058654e-08,4.267712643344226e-06,3.8780575050466,40.51245375834074,10.590869924095635,42.41981967733593
0.27,31.22221366913008,131.0103967923915,4.318728802515264,3.886188503202341,0.0005994342651313,38.70936050721014,0.0009111181036949,2.953518013741325,423.84219965987256,11.004860953238978,4.102320296019413,71.99942161756776,1.4276417094868828e-07,120.0000026420792,74.14786134434608,15.288,0.0,0.0,0.0323408987462391,4.1858405402174807e-10,-0.0001658847815307,1.995072923688136e-08,5.018832267232506e-06,3.886188549362022,39.43841359495857,11.00495511215316,38.8218734782956
0.28,31.22221348431185,131.01039717233687,4.422535913956003,3.90556090261878,0.0006261175699806,44.68030766832924,0.0009425767186621,2.947879457547137,476.3468732012221,11.38358114165448,4.247086834352694,71.999321619057,1.7823531611327881e-07,120.000002877279,79.33831935330025,15.288,0.0,0.0,0.033453914386159,4.904408325040897e-10,-0.0001868529238516,2.3357766479368094e-08,5.847713054408178e-06,3.9055609527288775,38.49894431917428,11.383679491972384,44.77744842575601
0.29,31.222213292835256,131.0103975659655,4.530013412817602,3.9242599519377537,0.0006528240665589,35.802573724660256,0.0009737210635801,2.942037024315898,397.97031042211177,11.759725774384751,4.391004157029451,71.99920917567837,2.1999186079018322e-07,120.00000312617878,84.66717879828003,15.288,0.0,0.0,0.0345593650464213,5.711677680739745e-10,-0.0002095620322847,2.7188189988316943e-08,6.77505090435382e-06,3.9242600061534456,37.60352534239979,11.759828319749328,35.92324968749781
0.3,31.222213095024976,131.0103979726075,4.64093665799555,3.936939025755682,0.0006785438093183,33.570228713727204,0.0010059102294455,2.93586442972183,378.1859457108711,12.149968255527943,4.539237002744259,71.99908328532703,2.6880857935396905e-07,120.00000338923812,90.3787563598417,15.288,0.0,0.0,0.0357062504417728,6.614698865958865e-10,-0.0002340353597042,3.1467140861055e-08,7.817263716758327e-06,3.9369390841381695,36.71173884615234,12.150074840940263,33.698361337808635
0.31,31.22221289105846,131.01039839189684,4.755183729044857,3.9598342215431432,0.0007060286581592,35.396825578217346,0.0010350810412898,2.9297385597941448,394.1656220930212,12.504537499407316,4.6763673222047455,71.99894291513503,3.255120771695107e-07,120.00000366712923,95.72967338626896,15.288,0.0,0.0,0.0367483036680869,7.620720834468404e-10,-0.0002603234137215,3.622454560346964e-08,8.948994505138873e-06,3.9598342843844345,35.934338386209795,12.504648402129598,35.5178635353378
0.32,31.222212681031937,131.01039882363492,4.872689374180126,3.985461429033668,0.0007340760463279,38.52097867048992,0.0010630242168685,2.9235095146848846,421.55939346242695,12.84534566718622,4.809181081594425,71.99878701464397,3.909756427278764e-07,120.0000039606604,101.01782231644016,15.288,0.0,0.0,0.0377499198995686,8.737098716736534e-10,-0.0002884807530145,4.1491545539590986e-08,1.0187112828155184e-05,3.98546149652875,35.21473736963424,12.845460975581933,38.631757748577954
0.33,31.22221246496604,131.01039926777932,4.9934410812554,4.010606629086,0.0007621365968788,38.18822026147908,0.0010905599149574,2.917102431053817,418.5156301991682,13.18247167592885,4.940798912752974,71.99861449732019,4.661299779655886e-07,120.000004270781,106.38859400029033,15.288,0.0,0.0,0.0387407190563976,9.971421990244511e-10,-0.0003185760672934,4.7302669734505256e-08,1.154498667827874e-05,4.010606701382261,34.52805863348922,13.182591392065536,38.299473293007864
0.34,31.222212242662028,131.01039972474007,5.117579377337869,4.019339771238816,0.0007871574969313,29.898022638335373,0.0011220389395318,2.910051232417875,345.46563688075645,13.569536737955724,5.0878303926024735,71.99842423285973,5.519675040347761e-07,120.0000045987411,112.72655675097128,15.288,0.0,0.0,0.0398782837956187,1.1331556132162459e-09,-0.0003507224668667,5.37022358302301e-08,1.308298593306914e-05,4.019339848191799,33.76700548046532,13.5696603843662,30.039310197084795
0.35,31.22221201433324,131.01040019407705,5.2449575244483055,4.033762873683395,0.000813261106463,32.76415525156106,0.0011515840876071,2.902959820469776,370.5765700527033,13.934300103976534,5.227895396154902,71.99821502296155,6.495674834876441e-07,120.000004945438,118.8669740701126,15.288,0.0,0.0,0.040950312688979,1.2825853697215452e-09,-0.0003849609961885,6.072234695821837e-08,1.4746020857580124e-05,4.033762955530055,33.07785186209504,13.934427850732408,32.89250745069162
0.36,31.22221177990305,131.01040067594835,5.375631006350063,4.051723629010647,0.0008401329464575,37.01692984301412,0.0011797030485285,2.8957873473716007,407.8625232777193,14.282998147928636,5.362923567977223,71.9979856440668,7.600645476620651e-07,120.00000531213882,124.88900300695136,15.288,0.0,0.0,0.0419751331662584,1.4462801652534363e-09,-0.0004213876232777,6.84067806399068e-08,1.654507199147348e-05,4.051723715967022,32.44322602189087,14.283130115703262,37.13002398000203
0.37,31.222211539445663,131.01040117020102,5.509550188388412,4.071639898917391,0.0008674922629137,35.12417761390579,0.0012067983861697,2.88849906286036,391.1218908297666,14.620581431527652,5.494447309446232,71.99773482653193,8.846681943540367e-07,120.00000570002652,130.86067091914967,15.288,0.0,0.0,0.0429672939311924,1.6251202388969355e-09,-0.0004600660652957,7.679415042686734e-08,1.849041957573993e-05,4.071639991174516,31.85023865502424,14.620717696893658,35.24274792557624
0.38,31.222211292895075,131.01040167697127,5.646763233102716,4.08264881385344,0.0008930259828975,36.695642158537446,0.0012360471443664,2.880711738179021,404.8187610144602,14.986392916850402,5.634654729559426,71.99746126698146,1.0246533537040716e-06,120.0000061105033,137.4891296153862,15.288,0.0,0.0,0.0440424171304414,1.8200057922063743e-09,-0.0005010869196581,8.592980519823866e-08,2.0642694281337543e-05,4.082648911356968,31.228847973200924,14.986533193043764,36.808540518115166
0.39,31.22221104018777,131.0104021963902,5.787316652586672,4.096641430700089,0.0009192713382325,31.335681548387896,0.0012640110027448,2.872831219844713,357.64062493382744,15.337978856701952,5.770390286512262,71.99716358743511,1.1813915463769678e-06,120.00000654506955,144.01394309468844,15.288,0.0,0.0,0.0450757388736732,2.031886352449547e-09,-0.00054455673306,9.586443829735616e-08,2.295945663566148e-05,4.096641533664766,30.65298398882095,15.338123255506089,31.4670954954126
0.4,31.222210781536543,131.01040272801887,5.931064331106764,4.109028969993624,0.0009451871856381,29.95928076777898,0.0012920492774571,2.8646905607053603,345.465636880754,15.692185018814769,5.906873567965718,71.99684037970908,1.3563276523471372e-06,120.00000700500496,150.74021066990193,15.288,0.0,0.0,0.0461167659598875,2.2617341782092324e-09,-0.0005905037520737,1.0663253249436129e-07,2.5471259834659164e-05,4.1090290785164525,30.09246700352443,15.692333488470696,30.095929256306363
0.41,31.222210517064383,131.01040327160345,6.077922766619747,4.122888296344507,0.0009714525997821,33.78425365340317,0.0013192264430821,2.85640971467756,378.94687077668647,16.03742529732769,6.0405139809190125,71.99649020751959,1.5509747261474075e-06,120.0000074917568,157.44375780268788,15.288,0.0,0.0,0.0471314487675864,2.5105374204052982e-09,-0.0006389770219162,1.1827345344180344e-07,2.816813594418537e-05,4.122888410595805,29.56469007160549,16.037577892745222,33.904791300285986
0.42,31.22221024682894,131.0104038270252,6.227854084363214,4.14444025865494,0.0009995884754813,38.04468161607466,0.0013435485656724,2.8482703202464488,416.2328240017114,16.348862540904037,6.163613566771559,71.99611159893284,1.766920641656551e-06,120.00000800692096,163.6157044470786,15.288,0.0,0.0,0.0480467946810589,2.779304965995011e-09,-0.0006900467934588,1.308321832549104e-07,3.100973487310896e-05,4.144440378988911,29.104646754454564,16.34901955589459,38.15115260238947
0.43,31.222209970843565,131.0104043942566,6.380851271439565,4.1618082623168045,0.0010268052928652,33.45815353250911,0.0013687230309017,2.8397750580998298,375.9031395134336,16.67263197205097,6.290467308135904,71.99570306121484,2.005818691215035e-06,120.00000855220898,170.15779512382937,15.288,0.0,0.0,0.0489983878509763,3.0690566816849196e-09,-0.0007437862329608,1.443552931671376e-07,3.4086145072160934e-05,4.161808388761201,28.640125213458976,16.672793262249197,33.57845085853367
0.44,31.22220968892116,131.01040497368373,6.537047157143216,4.164954087655709,0.0010505545842624,30.86574023822051,0.0013980747538988,2.830419582421933,353.0750125389216,17.050421620730056,6.433992917638883,71.99526304125902,2.269416145406482e-06,120.00000912964636,177.9537948947602,15.288,0.0,0.0,0.050108743779844,3.380847125286677e-09,-0.0008003278134917,1.589055036683518e-07,3.750784460406397e-05,4.164954219916419,28.113519280259386,17.050586641458253,30.99524475496968
0.45,31.22220940081287,131.01040556582012,6.696617751072218,4.165241899529329,0.0010735835484822,35.912216710755274,0.0014280646808282,2.820677244966047,397.2093853562869,17.438293672974723,6.580571293039616,71.99478987454265,2.5595995397253085e-06,120.00000974147088,186.13940823302417,15.288,0.0,0.0,0.0512487363629523,3.7158016249566814e-09,-0.000859850913876,1.745604864109677e-07,4.121350642664912e-05,4.1652420376426775,27.591357195572936,17.43846231108416,36.02281959036367
0.46,31.222209106468902,131.0104061707686,6.859600379555308,4.174585124444534,0.0010989881252456,41.916816790010685,0.0014546917035209,2.811153314474766,449.7140588976434,17.786187321601275,6.714685486378061,71.99428180697711,2.8783880229668832e-06,120.0000103898448,193.6374175079873,15.288,0.0,0.0,0.0522712438446989,4.0751091178509895e-09,-0.0009224765531151,1.9138630415982226e-07,4.50966024037632e-05,4.1745852688465686,27.13985967570823,17.786359950252297,42.01097612387663
0.47,31.22220880579083,131.01040678873238,7.026066274755745,4.1823089530633855,0.0011240727220223,28.37640408484148,0.0014814747534716,2.801325368441072,331.0078106302534,18.138167428286582,6.849989708801916,71.99373704967608,3.2278903746588286e-06,120.00001107707628,201.37401505997488,15.288,0.0,0.0,0.0533057667609836,4.459978104761035e-09,-0.0009883252835099,2.094509673354327e-07,4.927107017839778e-05,4.182309103852639,26.69716826759888,18.13834399721685,28.514342615617974
0.48,31.222208499300592,131.0104074186346,7.195654207463586,4.189479568102716,0.0011490100608361,27.95074823096412,0.0015080719422187,2.7912412472910484,327.2031223011574,18.48995085190441,6.98515976370584,71.99315377257649,3.6103201777021456e-06,120.00001180491516,209.25751230436188,15.288,0.0,0.0,0.0543397174489847,4.8716620260348906e-09,-0.0010573190976925,2.2877013380347535e-07,5.373205427420879e-05,4.189479725385959,26.268461765425428,18.4901313379827,28.089773168283216
0.49,31.222208187201936,131.01040806005494,7.368224738812109,4.202723284133339,0.001175611380853,35.08821363242469,0.0015321405723077,2.781292092003844,389.60000969812296,18.812014261754847,7.111044804193205,71.99253015042137,4.027946338669921e-06,120.0000125755114,216.60722913930897,15.288,0.0,0.0,0.0552863302793499,5.311396446020465e-09,-0.0011294854492155,2.4938633613154685e-07,5.8398320167141767e-05,4.202723448262914,25.88860807032205,18.81219892635871,35.1982716047702
0.5,31.22220786953184,131.01040871291724,7.5437546994244835,4.220815778795054,0.0012036252596423,36.05491615971072,0.0015540388599792,2.7714444106710974,397.97031042210494,19.10875420627192,7.229005658018125,71.99186435180009,4.483102820610566e-06,120.00001339126192,223.4908652241728,15.288,0.0,0.0,0.0561585257949344,5.7804122391526605e-09,-0.0012048912160576,2.713531252030471e-07,6.327866493526626e-05,4.220815950099865,25.54902500917784,19.108943271285572,36.161276053538906
0.51,31.222207546379583,131.0104093770373,7.722184419225251,4.232567510615346,0.0012298790840397,27.54004661432325,0.0015777580800203,2.761017323676155,323.3984349720841,19.430597746636646,7.354673636736509,71.99115452520388,4.978202222778502e-06,120.00001425458936,231.07869697977367,15.288,0.0,0.0,0.0571045034845869,6.2799518101633574e-09,-0.0012835871653678,2.947201005874635e-07,6.854585242460463e-05,4.232567688976395,25.189423168613605,19.430790935591396,27.678103017910345
0.52,31.22220721778342,131.0104100524321,7.903526605166075,6.582953329607681,2.528362199131883,33.14598375033722,-0.1533451521937685,2.5997209099261225,372.0984511843415,20.13394722155993,7.481907560061485,71.99039325828234,2.57043560812502e-05,120.0000363967954,248.1063486327096,15.288,0.0,1.2571453438708216,0.0591716953993392,6.821239765525665e-09,-0.0013992521458492,3.751561865807242e-05,7.742603149480499e-05,7.0498037252780685,27.35226624362715,20.53097254309914,33.248132313301866
0.53,31.22220688371844,131.01041073938222,8.087894284980399,6.5591496564118525,2.4930611000450726,34.810177214413336,-0.1572710385273343,2.58485793278746,386.5562464348624,20.461785961182454,7.607567278186437,71.98955718351033,0.0001334075082156,120.00015000296014,256.24736732960105,15.288,0.0,1.2619816566318676,0.0601353063598593,7.441447683781985e-09,-0.0015360426763242,9.019960326813616e-05,8.637761800274986e-05,7.015028093799548,26.98122751213858,20.853271522138375,34.90636994032916
0.54,31.222206544089623,131.01041143809664,8.275362337208254,6.5362711588787,2.4589711688044744,30.554005154942026,-0.1612419952348413,2.56971809278398,349.2703242098436,20.787682043482885,7.732515679769975,71.9886414604923,0.0003350153271808,120.00036235868096,264.47014330086193,15.288,0.0,1.266806880965378,0.0610932141626904,8.146035386824057e-09,-0.0016778420594704,0.0001442455490299,9.585256274268844e-05,6.98162758533642,26.622378184418487,21.173817769950684,30.6623006486081
0.55,31.22220619919931,131.01041214795768,8.465725252039974,6.516048124760138,2.426679986225573,32.392418088944794,-0.1652116029177348,2.55443332894774,365.2500005919907,21.105883817134927,7.8549655005247825,71.98764323606217,0.0006328703754712,120.00067592798716,272.62373748741663,15.288,0.0,1.2716150722251267,0.0620285150822243,8.937548191097699e-09,-0.001824567403143,0.0001995977280591,0.0001058283689604,6.951420434438489,26.28165368414288,21.48695186600652,32.49340200955843
0.56,31.22220584905473,131.01041286895648,8.658983139177083,6.499680089251953,2.3965651996573705,30.22360717409396,-0.1691427219325184,2.539114239209688,346.2265619465787,21.411970245810167,7.973538918141435,71.98655965366797,0.0010292734436254,120.0010931314857,280.5832777911554,15.288,0.0,1.2764059251215023,0.0629282159618291,9.818488923456956e-09,-0.001976334254544,0.0002562757335163,0.0001162914051229,6.925655530584945,25.962927757815496,21.78831206478569,30.330547983742132
0.57,31.22220549373904,131.01041360092722,8.855083143395866,6.481018885730992,2.3663197141726204,29.88383673978307,-0.1731938684433838,2.5232988054668324,343.1828296833023,21.7257423464616,8.094405088763123,71.98538782080841,0.0015265210558399,120.0016163854133,288.8614545142865,15.288,0.0,1.281177137689756,0.0638505104894862,1.079137835506078e-08,-0.0021331926340748,0.0003142745065052,0.0001273582582921,6.897765572275652,25.643613895310548,22.097337318943502,29.990677405949757
0.58,31.222205133235185,131.01041434391092,9.054042224367429,6.456129139824312,2.334524214433383,39.396391252357496,-0.177481236894902,2.506636104977423,426.1250058573153,22.060927529091163,8.221839470980049,71.98412478965223,0.0021269273679626,120.00224812486728,297.8376407586253,15.288,0.0,1.2859285376901732,0.0648357429510029,1.1858760378455332e-08,-0.0022952644314523,0.0003736154151807,0.0001391459623067,6.863564566337425,25.30962757943352,22.427532278071997,39.47645333437461
0.59,31.222204767122964,131.01041509878058,9.256158497841705,6.439691009065292,2.306454403488466,31.907487268239432,-0.1816013212027436,2.4903200912097065,360.68438819711065,22.36788385124212,8.34036971687736,71.98276744081575,0.0028329531435466,120.00299093977333,306.17760129100714,15.288,0.0,1.2906672945226885,0.06573801906274,1.3023287001536523e-08,-0.0024629956617573,0.0004344363006233,0.0001513889689142,6.838635144101014,25.01316004163509,22.73008302030359,32.005037368661306
0.6,31.22220439563291,131.01041586506648,9.46127659646618,6.4121187473365024,2.275080403095167,28.34022031821152,-0.1861101214707684,2.472688334672564,329.4859594986058,22.71393241501447,8.470970999915169,71.98131258506993,0.0036470880237238,120.00384744997028,315.7182762066743,15.288,0.0,1.2953887539536495,0.0667551918276136,1.4287718369884609e-08,-0.0026363325578832,0.0004966925307037,0.0001645468806188,6.802178222297815,24.684529050808337,23.07120730606936,28.448495782070953
0.61,31.22220401871993,131.0104166428677,9.66943331097286,6.3832222143074695,2.243918076957785,33.236086326470115,-0.190740786511488,2.4545267319735,372.0984511843297,23.066056353042548,8.603356941908771,71.9797569388893,0.0045718771400394,120.00482033421096,325.57652333978774,15.288,0.0,1.300093571325982,0.0677902269080569,1.5654853170047942e-08,-0.0028154404941905,0.0005604186951242,0.0001784465484176,6.764602202730462,24.35854745990709,23.418440083185168,33.327143859415635
0.62,31.222203636510944,131.01041743192846,9.880545643905666,6.372265239796468,2.219630505859709,41.3641925573008,-0.1948979924756673,2.437649760039888,442.86563930529206,23.354124841240385,8.715681227527686,71.97809712384954,0.0056099191498566,120.00591232763442,333.7526899479967,15.288,0.0,1.3047815957331963,0.0686370122640965,1.7127572024172496e-08,-0.0030003871571931,0.0006256144329853,0.0001925398113261,6.746272428110192,24.10194352318954,23.702696382503557,41.436415717307796
0.63,31.22220324881813,131.01041823264168,10.094749550118374,6.356088646207418,2.1940692067030785,23.38708324135089,-0.199274987506584,2.419954541202564,286.11251274707894,23.6607146437024,8.833664665661592,71.9763298093775,0.0067637123433948,120.00712606047668,342.5660835203212,15.288,0.0,1.3094495411102027,0.0695382377483334,1.870864436112989e-08,-0.0031914170392859,0.0006923400136289,0.0002074828146854,6.722651026886118,23.83348160022181,24.00527400348036,23.512795517334986
0.64,31.22220285626212,131.01041904373267,10.311617988153865,6.33146969152684,2.166166683502066,22.95682019026572,-0.2039908858419046,2.40105899147642,282.30782441796754,23.998953560958988,8.961408699180387,71.97445156074447,0.0080357820289475,120.00846419337316,352.42297534156586,15.288,0.0,1.3140989470690692,0.0705324858759638,2.0400997813326933e-08,-0.0033881404477128,0.0007604363865904,0.0002234165697844,6.6903415072591885,23.542203030825004,24.339133175141477,23.0829436989793
0.65,31.22220245882813,131.0104198652373,10.53116635666746,6.320027516756608,2.1432608286811754,40.70101755172961,-0.2083422933795431,2.3831371426267967,436.7781447787475,24.287550696843383,9.073586637628589,71.97245908005475,0.009428564133145,120.00992928637812,360.9423877839264,15.288,0.0,1.3187181847391167,0.0713808443821022,2.2207397471793132e-08,-0.0035907210649069,0.0008299378186192,0.0002396171526704,6.67215614018194,23.302105264582156,24.624134811800037,40.771259226297886
0.66,31.22220205598948,131.0104206982471,10.753766283156002,6.305576598255593,2.1198196714455406,34.59417527634401,-0.2128543535550154,2.364567013780233,383.51251517160017,24.58700583356818,9.189036036788854,71.97034888572222,0.0109445382542142,120.01152395399104,369.8898822686039,15.288,0.0,1.323322169527372,0.0722611212029661,2.413057409497152e-08,-0.0037997173449315,0.0009010103979953,0.000256684808244,6.6509979353051945,23.05743676899601,24.919910367954863,34.67554537694968
0.67,31.22220164794596,131.01042154235515,10.979283859357988,6.283714009862025,2.094392011221947,23.762343204068465,-0.2176899231681312,2.3448241734945143,289.1562440103425,24.915179492526235,9.31332671153432,71.96811732653038,0.012586344178138,120.01325097623445,379.8217225505026,15.288,0.0,1.327911216441097,0.0732258087007456,2.6173559735332352e-08,-0.0040150879020543,0.0009736153939365,0.0002748482039425,6.622230542532696,22.79341040044228,25.244092560108065,23.878746697747598
0.68,31.22220123487958,131.01042239719166,11.207597626026969,6.264113306407202,2.070186511216348,29.71612529565365,-0.2225189239995956,2.324937057389856,340.8999924858462,25.234610461992364,9.434790520941103,71.96576071496145,0.0143566079996272,120.01511311916188,389.6148011971264,15.288,0.0,1.332468851135297,0.0741648085837937,2.833938707694792e-08,-0.004236823455543,0.0010477259371036,0.0002937387730949,6.596036474426352,22.54266359645568,25.559723849242165,29.807766598310405
0.69,31.222200816878527,131.0104232625797,11.438651267067554,6.251817282725696,2.048826718614372,36.63555738577112,-0.2271496974455716,2.3055269737067863,401.0140726853634,25.52443525124581,9.546924608370352,71.96327531826262,0.0162579181822969,120.01711311232955,398.60696635805766,15.288,0.0,1.337008024560832,0.0750168024972669,3.0631056706224066e-08,-0.0044649701757904,0.0011233339872026,0.0003131045450253,6.577707527260793,22.321581158078505,25.846195617450164,36.708733519118695
0.7,31.2222003938036,131.01042413881123,11.67254651901992,6.239065833890331,2.0277296999375194,30.694648313260373,-0.2318575313480751,2.2857191894063664,349.27032420985284,25.81531116247937,9.659279305905857,71.96065751022289,0.0182928031439056,120.01925361520937,407.7346074330006,15.288,0.0,1.3415302667278757,0.0758718925609872,3.3051480298442646e-08,-0.00469978286486,0.0012004996375858,0.00033331900058,6.559067351903465,22.10398530304387,26.13375971350888,30.780508527352193
0.71,31.22219996571511,131.01042502576655,11.909246364178992,6.221507216883551,2.005474593722251,25.188098857727773,-0.2368111463018291,2.2649572255925867,301.33126406340574,26.125368218480965,9.777508897134728,71.95790343620409,0.020463872946495,120.0215373810352,417.5781976430948,15.288,0.0,1.3460222668728907,0.0767833636156915,3.5603711404200466e-08,-0.0049413299944718,0.0012792211924861,0.0003546511073152,6.535538181321412,21.87553377924977,26.44032311068274,25.29083697348595
0.72,31.22219953261901,131.01042592343833,12.148751643198464,6.198255144808285,1.9818149992568284,30.886793771705605,-0.2420630585632368,2.2430596967773644,350.79220534145287,26.45928401198851,9.903072443026016,71.9550091406253,0.0227737864957511,120.02396721496112,428.3109351203223,15.288,0.0,1.3504948380864863,0.0777649638448488,3.8290853007109873e-08,-0.0051897553755807,0.0013595213735597,0.00037723330509,6.506198808801632,21.63345074634837,26.7705247134002,30.96908040002964
0.73,31.22219909451593,131.01042683183016,12.391067043053637,6.188255654537831,1.9627643547584128,39.128590808853694,-0.2468578556482673,2.222497470824417,422.320318528234,26.736534962962267,10.010864468265387,71.95197064045449,0.0252252706958601,120.02654598661312,437.3238121494471,15.288,0.0,1.354950347177808,0.0785800310323883,4.1116091964053456e-08,-0.0054452277835586,0.001441430695883,0.0003999411780335,6.490913596445396,21.439309068844693,27.0447849689193,39.19243616433438
0.74,31.222198651342328,131.01042775107732,12.636241444680657,6.173803994092679,1.9426583807172684,24.41921160815867,-0.2518930886164396,2.2009868753057487,294.48281347105944,27.031889159778807,10.124193932440596,71.94878388903292,0.027820967633404,120.02927648463546,447.0287463600032,15.288,0.0,1.3593828348428996,0.079448311741923,4.408254389399332e-08,-0.005707912223471,0.0015249770229416,0.0004238560692031,6.4711018290321904,21.23522304141596,27.336982760753884,24.519496098357976
0.75,31.2221982034826,131.01042868039215,12.884012618177415,6.1564695811265215,1.9219997367182693,28.54481866624707,-0.2571159975501376,2.1786884184220967,330.24688556441487,27.339184718788264,10.24114998614913,71.94544476894832,0.0305635339410734,120.0321615131001,457.23918365488953,15.288,0.0,1.3637863344212533,0.0803516960723243,4.7193506794692347e-08,-0.0059775471490808,0.0016100539396943,0.0004489138024461,6.4484084714597945,21.026317519503237,27.64103511287181,28.628996918328976
0.76,31.22219775082242,131.0104296200144,13.1344646992454,6.143678849105083,1.903097097503952,30.743925539515665,-0.2622115747053898,2.1566511045233687,349.27032420986166,27.625677264655103,10.351516795999746,71.94194925834283,0.0334555726538887,120.0352038132259,466.8611596549144,15.288,0.0,1.3681696694339327,0.0811939462891118,5.0452068922434936e-08,-0.0062544080998692,0.0016967248886182,0.000474616784762,6.430604634146374,20.83627235381479,27.92456009318899,30.820591436178425
0.77,31.22219729330366,131.01043057006802,13.387642722435832,6.131886870344244,1.884822710425064,28.734816658177408,-0.2673254403454507,2.134393093696093,331.7687666960708,27.906595452362687,10.46004134210968,71.93829309417876,0.0364997401532612,120.0384061932212,476.3926265263498,15.288,0.0,1.3725333150813248,0.0820198202840587,5.3861408152264574e-08,-0.0065386973275341,0.001785028982028,0.0005012235587285,6.4139705859598495,20.653512794371228,28.202609315055614,28.815217943797393
0.78,31.222196830997525,131.01043153041024,13.643501844070986,6.115902621847915,1.8655770774726392,23.566649768995983,-0.2726901761884737,2.1111235953005982,286.8734378128899,28.205513613702305,10.574081270408204,71.93447211797033,0.0396986624734971,120.04177141942564,486.6409728484222,15.288,0.0,1.376871553541699,0.0828986050858767,5.742476583666317e-08,-0.0068304572934747,0.0018749553355458,0.0005291837582086,6.393075415148758,20.461543234328037,28.498505998403665,23.662590392882667
0.79,31.22219636400017,131.01043250084695,13.901979941222324,6.097507874127137,1.8459140700774817,33.57592758040494,-0.2782368980983166,2.087063221108304,373.6203323159534,28.514863329587488,10.691280010296875,71.9304819207256,0.0430550225564,120.04530232921891,497.3618332527331,15.288,0.0,1.3811823013662663,0.0838080568274337,6.114546080741245e-08,-0.0071297254307781,0.0019664919371139,0.0005584136591705,6.369782324209242,20.26605038512525,28.80476867624459,33.64188106430678
0.8,31.222195892079235,131.0104334818606,14.163242874146237,6.086809845295456,1.8288729974999,34.02336963101257,-0.28349151312804,2.063831597631615,377.42502064505743,28.787415331290404,10.796890737601885,71.9263180774436,0.0465715502388972,120.04900180271912,506.9023647209924,15.288,0.0,1.385474838883348,0.0846093640269178,6.502671342035877e-08,-0.0074369491364163,0.0020597509218811,0.0005880286977882,6.35463903960776,20.09854438294558,29.074645248822414,34.08708625491341
0.81,31.22219541534601,131.0104344732257,14.42721788630619,6.070997079351723,1.8105867395691249,22.09143529439352,-0.2890537023914613,2.039378325318986,273.9374926939919,29.08286572840284,10.90954794190704,71.9219760910429,0.0502509535161095,120.0528727001092,517.3475023753459,15.288,0.0,1.3897469605428308,0.0854779796550773,6.907195047832967e-08,-0.0077521077201714,0.002154701177722,0.0006192229217361,6.334268020110973,19.918843365231822,29.36722469586257,22.187251505380804
0.82,31.222194934003344,131.01043547452815,14.69376883544894,6.0530267038500245,1.7919497026698912,28.420218436435903,-0.2947951269085467,2.014131167913352,328.72500443277005,29.38784031425857,11.025084763161512,71.91745145662735,0.054095922112328,120.05691786011896,528.2410966265271,15.288,0.0,1.3939967398072286,0.0863745957680595,7.328464553455391e-08,-0.008075106337355,0.0022512904301231,0.0006517706974645,6.311755708580248,19.73619950302584,29.669273229400936,28.493024488515434
0.83,31.222194448035665,131.01043648580355,14.962910973223188,6.04431269698,1.7763037847333272,36.15801296186898,-0.3001373859679317,1.9900942761543288,395.68750322465047,29.64685400142904,11.126173162863092,71.91273946465543,0.0581091809135019,120.06114016773527,537.579683445351,15.288,0.0,1.3982211044526696,0.0871361344964045,7.766818792795087e-08,-0.0084061413525957,0.0023495537001754,0.000684451985959,6.298988564189166,19.585635282957217,29.92583045294865,36.21398154068567
0.84,31.222193957331687,131.01043750728402,15.234725506825956,6.033575094477119,1.7603059774559162,22.282934804334506,-0.3056366095289677,1.9653430392398097,275.4593748256452,29.91401678758892,11.229706111593096,71.90783554960083,0.0622933523085945,120.0655423932428,547.2978564682182,15.288,0.0,1.4024209195728088,0.0879216318841426,8.222587137833677e-08,-0.0087454629509059,0.0024495403345275,0.0007184786796268,6.284205781494694,19.43222886417507,30.190481506124787,22.371525886563813
0.85,31.22219346220844,131.0104385383201,15.508997054818137,6.015075664452416,1.7423070981213635,24.309948198821985,-0.3116078778140963,1.93876076392242,292.96093233939376,30.218349661179875,11.344762241491283,71.90273506382361,0.066651044057394,120.07012729454364,558.4757578409238,15.288,0.0,1.4065968221147531,0.0888163851632458,8.696127387505681e-08,-0.0090927910636809,0.0025511442831609,0.0007545931572534,6.26143817887314,19.25853900885666,30.49198844300117,24.389126146679573
0.86,31.222192962481728,131.01043957929394,15.785857366779508,6.002139962107451,1.7261663521329105,30.470505677304168,-0.3173525520265591,1.91279565083441,346.2265619465587,30.49376485985263,11.45068910433876,71.89743318598498,0.0711849540416185,120.07489772615536,568.6871152674322,15.288,0.0,1.4107516945516505,0.089626152834041,9.187772022519174e-08,-0.009448556710308,0.0026544678112202,0.0007912430026085,6.244551717129872,19.105102398227164,30.76486942055104,30.532134155259346
0.87,31.222192458179126,131.01044063015166,16.06529140453544,5.991745183522999,1.710982552513838,28.367116745183527,-0.323018404724598,1.8869348642886337,327.964078366998,30.75470457245196,11.551996427309073,71.89192503564404,0.0758977475209146,120.07985651109377,578.4459154069148,15.288,0.0,1.4148853294005477,0.0903933822402161,9.697870125544544e-08,-0.0098128673427829,0.0027595175418683,0.0008287607862497,6.230392569814615,18.96250804986307,31.02342514031633,28.431640411814623
0.88,31.2221919493404,131.010441690814,16.347275566350895,5.977421442586514,1.694905766837301,24.50314804352828,-0.3289637176168071,1.8599021026715497,294.4828134710418,31.0341268370482,11.658989771597843,71.88620580784418,0.0807920376681353,120.08500641136293,588.9886689788825,15.288,0.0,1.4189967382696382,0.0912149426897327,1.02267729523867e-07,-0.0101857760702243,0.0028662843315596,0.0008680477187609,6.212233290311876,18.81121655567341,31.300323184685997,24.575836038720922
0.89,31.22219143605445,131.0104427611007,16.631752310462858,5.9592742536348124,1.6779818416989032,26.884916111555825,-0.3351963199613444,1.8316545298074696,315.028134248087,31.33213761278284,11.771709860646451,71.8802704946437,0.0858704683278908,120.0903502300032,600.3383174402585,15.288,0.0,1.4230855839140426,0.0920911461465333,1.0774837900004753e-07,-0.0105673294495703,0.0029747574409263,0.0009091872829374,6.190186731727145,18.65163039306391,31.595676707970583,26.949323353562583
0.9,31.22219091824228,131.0104438411768,16.918780200108962,5.950375198809534,1.6638647362714605,29.70804169675605,-0.3409562815970951,1.804919366884448,339.37814235421445,31.580185079148176,11.86871033791396,71.87411393658067,0.091135751085814,120.095890842383,609.8645409281678,15.288,0.0,1.427150187881448,0.0928205057055671,1.1342416994525865e-07,-0.0109578158390564,0.0030849944331317,0.0009502213328299,6.177819198404531,18.52259525935487,31.841507607521432,29.764773248978585
0.91,31.222190395980693,131.01044493088642,17.208309756002045,5.937596468117032,1.6488647404688073,22.583313779954047,-0.3470008250423448,1.7769754520626548,277.7421810230789,31.84681170007279,11.971434111250897,71.86773117350258,0.0965904378502871,120.10163094937894,620.188751683213,15.288,0.0,1.4311910172496956,0.0936044806749666,1.1929868398390106e-07,-0.0113572459463883,0.0031969734138862,0.0009931458283357,6.161498740418502,18.384927054076847,32.10577901912584,22.655774376826667
0.92,31.222189869486925,131.0104460297852,17.500194713333894,5.921072903945487,1.633035140374416,26.90399963297615,-0.3533359638815691,1.7477861202262956,315.02813424806214,32.13195080549803,12.079872775932069,71.86111700708983,0.1022371127537446,120.1075732969408,631.3264390801545,15.288,0.0,1.435208131811056,0.094442875542582,1.2537569613380964e-07,-0.0117654266303653,0.0033106167117218,0.0010380221735001,6.141368523888461,18.23908764185896,32.38843263649802,26.963026515519516
0.93,31.22218933866532,131.01044713807173,17.794504708108676,5.912945669938107,1.6197051691293611,32.01983391064917,-0.3592125703166613,1.720080508790833,359.1625070654728,32.36992267559443,12.173458457273904,71.85426631933882,0.1080783250419652,120.1137205859782,640.6942683536572,15.288,0.0,1.4392036032751645,0.0951426431943829,1.3165861877955954e-07,-0.0121827004485171,0.0034259957025539,0.0010827664972507,6.130012292803739,18.12067884145535,32.62431148310918,32.068013257652154
0.94,31.222188803398964,131.01044825598754,18.091323498862995,5.8970188522949485,1.604434002572246,23.21551015808543,-0.3656364127863449,1.6901822195608869,283.0687504837787,32.648476431500285,12.279667898893225,71.84717384359129,0.1141165772063415,120.12007547978412,651.7498999144868,15.288,0.0,1.4431773859009795,0.0959616980978063,1.3815092351697445e-07,-0.0126093223000826,0.0035431556296095,0.0011302951555885,6.110641812969233,17.982175992657737,32.90046739920301,23.2798264130522
0.95,31.22218826399888,131.01044938289573,18.39044033808968,5.882083399540628,1.5896236115168565,30.09602944934224,-0.3720621406861608,1.6600778069627362,342.4218736174873,32.920018659826106,12.383606829324687,71.8398342519228,0.1203544324513346,120.1266406983816,662.6173502401565,15.288,0.0,1.4471278838797237,0.0967601523682974,1.4485656395871272e-07,-0.0130450041803711,0.0036619937933271,0.0011790413057752,6.092366065369052,17.849270947843195,33.169684120415695,30.144075324636805
0.96,31.22218772015161,131.01045051944126,18.69207428564973,5.871279069969904,1.5761055130297037,29.48596810311925,-0.3782773981757103,1.6305572674469244,337.09533515678345,33.16656409926755,12.479625915969244,71.83224213708044,0.126794414804939,120.133418926036,672.5600125353296,15.288,0.0,1.4510582000747847,0.0974851427481345,1.5177880029203e-07,-0.0134903991010984,0.0037826630835876,0.0012283932586996,6.078431127890712,17.73097456826209,33.414106952169185,29.533440804798897
0.97,31.222187171878893,131.01045166558055,18.996213420801386,5.858303800765285,1.5621783193663734,18.82173702544156,-0.3846935905942465,1.6000964064922298,245.02188719299323,33.423169764726566,12.578714331063797,71.82439193496828,0.133439089053598,120.14041289251432,682.987350411726,15.288,0.0,1.4549679517399263,0.0982397105579168,1.5892139140614945e-07,-0.0139456162950234,0.0039051671948585,0.0012796311509176,6.062310934932951,17.60896175646375,33.66852575953069,18.893546049473915
0.98,31.2221866194899,131.0104528206805,19.30264830264244,5.83797786825486,1.5464795201336452,27.470934172870017,-0.3916787430716202,1.567304374670741,319.5937466429581,33.71998377076378,12.690346657121498,71.81627816101411,0.1402909493251746,120.14762524733086,695.1512731134796,15.288,0.0,1.4588544949379187,0.0991124696785743,1.662884724245076e-07,-0.0144102668280824,0.0040293772299062,0.0013339699758828,6.038650665604907,17.46838414844559,33.96287471129908,27.518395294253512
0.99,31.222186062826395,131.01045398506696,19.61149087227357,5.829891578387255,1.534180174642991,30.036170210708416,-0.3978722145370263,1.5372748157568072,341.6609485517054,33.94449642689936,12.779215495472856,71.80789500981919,0.1473525653177834,120.15505873285085,704.4180351524175,15.288,0.0,1.462720787036162,0.0997727229090471,1.7388354182716457e-07,-0.0148848524849761,0.0041554025642344,0.0013870358883407,6.027704023765253,17.36536621978378,34.18545608888303,30.078115584007392
1.0,31.22218550188673,131.0104551587436,19.92274479216008,5.814654079962313,1.5201617197018835,26.86580306447781,-0.4046237842862793,1.5049438345810946,314.2672081822764,34.208165908861545,12.880298209704163,71.79923700218303,0.1546262807594342,120.1627158432826,715.3825177772071,15.288,0.0,1.4665656618361635,0.1005480771507318,1.817103206231321e-07,-0.0153694340858861,0.0042832334349926,0.001443272964774,6.00942214131411,17.244328613914785,34.44692433925558,26.91096339136448
1.01,31.22218493686404,131.01045634131535,20.23628044002276,5.800552504761536,1.5065998077677976,28.108036938097296,-0.4113510884636897,1.4724940062816647,324.9203161036979,34.46317742624517,12.978594800524778,71.79029825553967,0.1621145703238934,120.17059922411003,726.066328337038,15.288,0.0,1.47038857912306,0.1012979909996108,1.897728416564661e-07,-0.0158638688825844,0.0044128076180694,0.0015007631561912,5.992369475147701,17.12890997105929,34.69980629958108,28.149585944200986
1.02,31.22218436767635,131.01045753295048,20.55215660326437,5.788231735081191,1.4936508464912968,23.434098193479524,-0.4180008991911858,1.4401294961130011,284.59063161540416,34.70539371143341,13.07280037877864,71.78107310221428,0.1698197696880398,120.17871136473696,736.2858255960061,15.288,0.0,1.4741904796113916,0.1020103035524125,1.980746915208419e-07,-0.0163684430592223,0.004544174896613,0.0015593331190239,5.977208736344496,17.020860491958388,34.939989263816415,23.48202835912902
1.03,31.222183794396148,131.0104587335006,20.87032598706136,5.771035735645154,1.4796011455302625,19.11095566252621,-0.4250745623196961,1.4059328700369047,247.30469339049705,34.974603211946096,13.175426166831848,71.77155568535048,0.1777441829119456,120.187054733862,747.7300061899138,15.288,0.0,1.4779706781673632,0.1028019658606079,2.0661973126135578e-07,-0.0168831489042734,0.0046773079385397,0.001620792919,5.957068430567667,16.901358082402055,35.20699258530071,19.16731493855162
1.04,31.22218321708881,131.01045994283214,21.19074643635516,5.7583773054389695,1.466859683860943,30.51323226059989,-0.4318592802844627,1.3726245664672712,345.46563688072297,35.21427867781975,13.268702472268696,71.76174012157807,0.1858901514252841,120.19563183054603,757.9899452088384,15.288,0.0,1.4817297183768878,0.1035068258429659,2.1541182940225945e-07,-0.0174080636918179,0.0048122019817669,0.0016825856539586,5.941661113201947,16.796880633033066,35.44466728863804,30.547142969969403
1.05,31.22218263545037,131.01046116156692,21.513627894225348,5.741780288246296,1.4532646860053788,18.32380775042308,-0.4390070058423545,1.3377007519312611,240.45625879819983,35.475594492506566,13.368717010075637,71.75162040916327,0.1942599504629861,120.2044450948176,769.257513048923,15.288,0.0,1.4854696737639657,0.1042753024464995,2.2445428425611725e-07,-0.0179438787179817,0.004949007685257,0.0017471912921647,5.9222414793783065,16.683617282299224,35.703848299395176,18.377815455797812
1.06,31.222182049732343,131.01046238919002,21.838800705870568,5.721848397284885,1.4389811080494914,26.19569676900996,-0.4464894762183914,1.3012512944343493,308.17968365593924,35.75554129339664,13.474542407223485,71.74119028810843,0.2028559607564039,120.21349707993046,781.4218171203238,15.288,0.0,1.4891889597397476,0.1050985506173337,2.3375151234868497e-07,-0.0184902734296786,0.0050876172331533,0.0018145443007171,5.8994344838503725,16.563291655700215,35.98155215572221,26.231796297576718
1.07,31.222181459810884,131.01046362595469,22.16635176734208,5.709434832395476,1.4267246462530911,30.888399488979783,-0.4534198436845737,1.266715204527603,348.5093681440308,35.98644550317131,13.564860100893984,71.73044350434161,0.2116805593613224,120.2227903276069,791.5221249562022,15.288,0.0,1.4928897168342798,0.1057776531145681,2.433072076386589e-07,-0.0190477198005142,0.0052281239610877,0.0018812614987135,5.884424106020757,16.466095483407905,36.21053172697504,30.917687170207845
1.08,31.22218086557748,131.01046487208174,22.49635675862713,5.695343940723856,1.414181080680876,20.723780554153187,-0.4605390981844058,1.2312197275580867,261.00157857466235,36.22514628996004,13.657564936185576,71.71937368621423,0.2207360246943355,120.23232728911928,802.0319783582563,15.288,0.0,1.4965721820135889,0.1064796807292147,2.531251876578636e-07,-0.019616531335202,0.0053705788218085,0.001950229941772,5.867730326632847,16.366363998384948,36.44726278057126,20.765429895265413
1.09,31.22218026732365,131.0104661269745,22.828618782068403,5.6730859737772805,1.399757512716659,19.04701332631628,-0.468411104490973,1.1925384944652293,246.54375332474407,36.51350650353198,13.765879477555083,71.70797445669064,0.2300245978463273,120.24211037251384,814.8254996207032,15.288,0.0,1.5002341860249195,0.1073276850652384,2.6321009522821626e-07,-0.0201962472928755,0.00551483984602,0.0020237824088877,5.842672179824949,16.246171170333866,36.73335802846069,19.090056932247787
1.1,31.222179665129296,131.0104673904691,23.16308543716513,5.654948285988822,1.3864904772044944,38.432692446556125,-0.4759979038925424,1.1547282103841745,413.1890617385841,36.77356810551316,13.865227413236068,71.69623932754295,0.2395485001070328,120.2521419686514,826.44721086364,15.288,0.0,1.503876446477567,0.1080925172901253,2.735660152752301e-07,-0.0207869329448561,0.0056608975766846,0.0020977408194999,5.821902579811932,16.139473918647024,36.99133626537577,38.45298193815324
1.11,31.22217905856525,131.01046866344075,23.500050169747176,5.645092116686564,1.3753702001056198,28.084446945784915,-0.4829029001583766,1.1193743213741396,324.1593910376397,36.97711468113241,13.946668795637526,71.68416167478782,0.2493099584005161,120.26242447723102,835.5944752818275,15.288,0.0,1.50750243594752,0.1086912370110542,2.841960522895484e-07,-0.021389664786114,0.0058089895865755,0.0021704439997035,5.809697332992663,16.057605989810643,37.19313657927668,28.110893872891
1.12,31.22217844769568,131.0104699457563,23.839470147261547,5.619568484207403,1.3605765620550827,10.469963680229972,-0.4912737427759511,1.0779663486029087,172.73281794065943,37.280508071017486,14.059591808804216,71.67173492663989,0.2593110664106107,120.27296015950904,849.3349686655578,15.288,0.0,1.5111105768833266,0.1095834570716973,2.951045470903043e-07,-0.0220043764216933,0.0059590696822237,0.00225106644965,5.7814166614383735,15.93482899972199,37.49420685223649,10.53676899264647
1.13,31.222177833148905,131.01047123613316,24.180921047143897,5.602443143817377,1.3479448915059131,33.145759736286024,-0.4989447857825652,1.0390786676318875,367.5328077900705,37.52655459533871,14.154369312321489,71.65895204957586,0.2695541523899005,120.28375152575094,860.5547408327324,15.288,0.0,1.5146984829292975,0.1103071187339504,3.062971554136213e-07,-0.0226299808764323,0.00611084741692,0.0023302690265392,5.761816552194006,15.837046400377425,37.738269752621385,33.16579591796927
1.14,31.222177214217048,131.01047253601283,24.524883658853973,5.5911674284264254,1.336830411397966,18.270036355495147,-0.5061134450139552,1.0019543336803198,239.69531773195544,37.73043804110533,14.235749040436362,71.64580640762637,0.2800411597180077,120.2948006847832,869.9022656293336,15.288,0.0,1.5182709019690583,0.1109068527302894,3.177761223291148e-07,-0.0232681691326894,0.0062647034279289,0.0024089228625718,5.748268629297975,15.757195581644329,37.9404078190861,18.304488294872357
1.15,31.22217659141559,131.010473844342,24.871009373826567,5.564076128857344,1.3220708021096348,18.0075153045619,-0.514844235941774,0.9583038452926708,237.41251153546767,38.03836738182403,14.350023667555227,71.63229130875808,0.2907739732634538,120.306109685086,884.129874229217,15.288,0.0,1.521823512559331,0.1118124333283138,3.295469757740508e-07,-0.0239178353760338,0.0064203427142638,0.0024963078126322,5.718506466763712,15.636256444428376,38.24601934989165,18.04034418438895
1.16,31.22217596489001,131.01047516082306,25.21920158309901,5.55403832268554,1.3114681852078507,47.43971844862991,-0.5219755542496122,0.920827615008826,490.0437743845894,38.22777666049497,14.426742598116231,71.61839960771171,0.301754694942697,120.31768080692255,892.926850892937,15.288,0.0,1.525357571793511,0.1123696367387306,3.4161406829403906e-07,-0.0245789830299926,0.0065777405391418,0.0025779994429599,5.706303504003303,15.563518135373984,38.43376361319948,47.45152545978974
1.17,31.22217533370764,131.01047648735215,25.57009024607086,5.535624430744102,1.2989973184249632,8.262818415915241,-0.5299693674853144,0.8796107312808129,153.70937929486794,38.47111114642147,14.520478307686991,71.6041245283357,0.3129850649143137,120.32951595329192,904.300195049266,15.288,0.0,1.5288730710998584,0.1130853604530908,3.53979054574722e-07,-0.0252538229268327,0.0067373904471359,0.002665551589014,5.685532352613016,15.47003606135349,38.67513968823099,8.326388817695532
1.18,31.22217469909245,131.01047782143496,25.922849882707617,5.506126526188844,1.2840606233269487,22.98499885125447,-0.5391516159970052,0.8332818232903778,280.02501822196746,38.78944984223219,14.638004626488051,71.58945894585143,0.3244669609296619,120.3416171727185,919.2966722373828,15.288,0.0,1.5323669538826152,0.1140215670753074,3.666497186693883e-07,-0.0259395602114057,0.0068986043138218,0.0027604935929839,5.653420380447669,15.348487156646051,38.99113272952764,23.00641682779454
1.19,31.22217406048993,131.0104791641982,26.277855671283977,5.5006218978509,1.27480940950238,40.28817193930696,-0.5459135375421164,0.7965420594790626,428.4078130529292,38.93668057024088,14.701198978691874,71.57439552050242,0.3362022994310776,120.35398655933032,926.2569646356576,15.288,0.0,1.5358454117530649,0.1144548102725208,3.796282857613664e-07,-0.0266379276648629,0.0070617622310897,0.0028454769000474,5.645970618000666,15.293482573383972,39.136910642563016,40.29974316362515
1.2,31.222173417419828,131.01048051661385,26.63542971075569,5.475558141164889,1.2611404918251807,4.0070592244481205,-0.5547561234962118,0.751027449353631,117.1843741360236,39.21848508676776,14.807072205449598,71.55892740763655,0.3481925512755955,120.36662574051546,939.680789494386,15.288,0.0,1.5393088685473135,0.1152836430335802,3.929177530921966e-07,-0.0273500025300174,0.0072270819410322,0.0029425846972102,5.618484428660099,15.187719274544277,39.41656857628086,4.114403992618364
1.21,31.222172771112035,131.01048187617965,26.99474592276716,5.451375699148217,1.2477937032421011,32.319375097371314,-0.5635722169043038,0.7053183675402884,359.92343213200894,39.49209196942167,14.910363905883615,71.54304702019017,0.3604395605647924,120.37953674095108,952.8049610635704,15.288,0.0,1.542751531313597,0.1160883875369578,4.065262162372367e-07,-0.0280729522090951,0.0073938800485525,0.0030413333424292,5.591939283943983,15.086116689421944,39.688079452775845,32.33198253011778
1.22,31.22217212062477,131.0104832448058,27.356436923137647,5.443639213515937,1.2382961828687948,23.360538330641624,-0.5706289903033948,0.6665861828459223,283.0687504825761,39.64353726779058,14.974757633625217,71.5267471982225,0.3729448278461399,120.3927212208099,960.093296571586,15.288,0.0,1.5461804025754422,0.1165340419803082,4.204544298884666e-07,-0.0288094535657355,0.0075627442566645,0.003132983639516,5.582290620796379,15.03038799070156,39.838033235219214,23.377012334366263
1.23,31.22217146632888,131.01048462173435,27.720252631639656,5.417624623972968,1.2247489402312364,8.980155360689182,-0.5797400437769189,0.6190715712421367,159.79687382222795,39.9243862174018,15.080320662035128,71.5100209717188,0.3857095613895784,120.40618054151848,973.7107373034596,15.288,0.0,1.5495915177237067,0.1173600925486315,4.347080131041991e-07,-0.0295584689976263,0.00773340507291,0.0032370970010831,5.553934941980122,14.92751661780569,40.11675468048337,9.020118537513424
