Time,Latitude,Longitude,Altitude,Angle of Attack,Angle of Sideslip,X-Acceleration,Y-Acceleration,Z-Acceleration,Thrust,True Velocity,Ground Velocity,Pitch,Roll,Yaw,Dynamic Pressure,cp,parachute_deploy_gain,Wind Speed,Mach,omega_x,omega_y,omega_z,Cmq,Angle of Attack(total),Angle of Attack(gust),True Velocity(gust),Acceleration
0.0,31.222186000000004,131.010384,3.000000003643237,0.0,0.0,0.0,0.0,0.0,2.2828121974499247,0.0,0.0,69.99999999623421,0.0,113.69999999388332,0.0,15.288,0.0,0.0,0.0,0.0,0.0,0.0,-0.0,0.0,90.0,0.0,0.0
0.01,31.22218600000153,131.01038399999584,2.99999882256592,0.0,0.0,0.0,0.0,0.0,34.24218696174923,7.502283530665459e-11,7.190531319924593e-11,69.99999999623329,-4.83564628150269e-13,113.69999999388072,3.446445726795683e-21,15.288,0.0,0.0,2.204725565824978e-13,-3.659182332138578e-19,7.589415207398531e-19,4.811147140404426e-19,-1.5108918610345807e-31,0.0,89.9999999995224,7.502283530665459e-11,0.0
0.02,31.22218600000288,131.01038399999217,2.999997775701936,0.0,0.0,0.0,0.0,0.0,25.871876237766408,1.5320717031631675e-10,1.4674636035870463e-10,69.99999999623222,-9.67129256300373e-13,113.69999999387804,1.4372842949972735e-20,15.288,0.0,0.0,4.5023593667086093e-13,-7.284483346386986e-19,1.5178830414797062e-18,9.757819552369542e-19,-6.170906918166791e-31,0.0,89.99999999902465,1.5320717031631675e-10,0.0
0.03,31.22218599928065,131.01038400193067,3.000201659671132,18.81500467334555,-0.00012974450181,11.96616230539064,-1.8916256735984712e-05,3.349833086198469,180.34219359854663,0.0882870268161719,0.0553390044312322,69.99999999799445,-4.212591857125379e-12,113.69999999488518,0.0047728553458352,15.288,0.0,0.0,0.0002594525584132,3.2187251995663407e-17,-7.20264389268894e-10,1.2365134327422308e-11,1.6874092354518158e-13,18.815004673776716,89.46786891739345,0.0882666465974854,12.426199017587786
0.04,31.22218599548236,131.0103840121632,3.001799604587872,9.46752327608497,-4.6177622759613696e-05,55.21900012092241,3.931876292165237e-06,3.349616504302861,548.6359724538078,0.3767519978512604,0.1853356633749705,70.00000000507204,-2.4624598767003407e-11,113.70000000019972,0.086915163246288,15.288,0.0,0.0,0.0011071759353184,1.6174128009138757e-15,-1.3693172015529268e-08,2.7753303060112748e-11,1.3689612277852356e-11,9.467523276196548,87.63554493451223,0.3767447442872393,55.32050167054111
0.05,31.222185984749512,131.01038404118162,3.00777936418888,5.376730308971262,-2.257790939128127e-06,80.28807156553681,5.266841443842784e-05,3.348887800834877,761.6984298824644,1.018787885905993,0.4366201147110198,70.00000000894464,-1.1355399380652658e-10,113.70000001523856,0.635552918586145,15.288,0.0,0.0,0.0029939522895272,1.6418815498809788e-14,-9.32122351075408e-08,4.303264669380585e-11,2.5199270302492604e-10,5.3767303089717045,83.57022052969386,1.0187875312530217,80.35788377762394
0.06,31.22218596447235,131.01038409608267,3.0201664202003013,4.296730121134882,2.4863835723705905e-05,60.21296515808257,0.0001057204249726,3.347700952379021,590.4875390737208,1.721098934225416,0.7081674028809783,69.99999995523842,-3.0560354507026086e-10,113.70000004366592,1.8138247671743823,15.288,0.0,0.0,0.0050578622752421,8.328976953118383e-14,-3.2824985336199985e-07,5.923438275930214e-11,1.4991363363716091e-09,4.296730121206683,79.20467073327266,1.7211028398275985,60.305955550063224
0.07,31.22218593493329,131.01038417609837,3.038741944736831,3.8204913578752526,4.8016684030909405e-05,91.4060317508128,0.0001597686613101,3.346072557365335,855.2937749779139,2.4375792548422868,0.9844712334613328,69.99999973536046,-5.939103491363046e-10,113.7000000850886,3.6383156301599167,15.288,0.0,0.0,0.007163413150771,2.709313825263564e-13,-7.906546256197275e-07,7.920022733617308e-11,5.114174483651565e-09,3.820491358176508,74.87999294483174,2.437586797285377,91.46725557277466
0.08,31.222185894468456,131.01038428575305,3.0647976109320942,3.588632851766762,7.220043782492885e-05,19.18449428359557,0.0002119618497595,3.3440615022685813,241.2171988638848,3.1292508166901074,1.2522236515868983,69.99999919480445,-9.914748373602156e-10,113.7000001418522,5.996012698481753,15.288,0.0,0.0,0.0091960591623389,6.80386533246681e-13,-1.5973238302190878e-06,1.0839624626357699e-10,1.3263625118823921e-08,3.58863285249208,70.86684630658345,3.1292621579083604,19.473766155861934
0.09,31.22218584634549,131.01038441616095,3.0957981580345013,3.551302481506045,9.685468678862004e-05,57.102946699906326,0.0002554087225869,3.341892818148368,563.0937377043176,3.701810007254615,1.479132491047967,69.99999812344194,-1.4359264356978275e-09,113.7000002093888,8.390904013834115,15.288,0.0,0.0,0.010878666406854,1.440096519545733e-12,-2.748643691533636e-06,1.5214952332699618e-10,2.6999776649034504e-08,3.5513024828250237,67.68737872952666,3.701825221153239,57.20065357568538
0.1,31.222185790329306,131.01038456796124,3.1319266121977414,3.608446747536112,0.0001234669721807,54.26147302645416,0.0002914860332524,3.3396271157106168,538.7437595981919,4.174070299823608,1.6716491241860567,69.9999963052332,-1.902380107712657e-09,113.70000028805804,10.668380938744466,15.288,0.0,0.0,0.0122665227999911,2.687800116751415e-12,-4.315796035622946e-06,2.1749089204950437e-10,4.7802076800548326e-08,3.608446749645647,65.17160335282355,4.174089693970246,54.36414778470795
0.11,31.222185727066616,131.0103847393952,3.172681775073216,3.633547373470009,0.0001485939126744,42.987553988990406,0.0003293995000288,3.337005588796181,442.8656393052949,4.672024955140527,1.8729475711242067,69.99999349387662,-2.3433348587116544e-09,113.70000037699285,13.365573690709628,15.288,0.0,0.0,0.0137298902182575,4.5789425819531184e-12,-6.340230783164189e-06,3.1157625832417107e-10,7.860218435507205e-08,3.6335473765043056,62.62546922225161,4.672048296217748,43.116880735560244
0.12,31.22218565692512,131.0103849294629,3.2177790417108385,3.650108937861461,0.0001727442530266,46.86777100765684,0.000367618259785,3.334068179146888,475.58594813540446,5.17479364099247,2.0758708919414386,69.99998941286465,-2.702771525550512e-09,113.70000047573096,16.396890189902592,15.288,0.0,0.0,0.0152074069417046,7.288473386564583e-12,-8.86736416607888e-06,4.42271554299792e-10,1.217615295152289e-07,3.6501089419435786,60.16906436414164,5.174820775596283,46.986210423745625
0.13,31.222185580265183,131.0103851371844,3.2669395832841857,3.7280113734654137,0.0001995014041665,51.64515456841877,0.0003986198234033,3.3311573548369657,515.9156326236895,5.579364582999854,2.2451120211463422,69.99998375846928,-2.9114380666036422e-09,113.70000058383452,19.060875702782603,15.288,0.0,0.0,0.0163963474924215,1.100846422415094e-11,-1.1941028436408576e-05,6.179653149059831e-10,1.7678562106638216e-07,3.728011378795934,58.279338776943774,5.579395920607139,51.75247433579817
0.14,31.22218549718016,131.01038536230575,3.320091807147376,3.768719651034081,0.0002242721760019,48.1660778383537,0.0004326225136175,3.32784677779744,486.2390860568404,6.025734265159953,2.428648685938864,69.99997621008868,-2.890941335368725e-09,113.70000070125378,22.232643351545065,15.288,0.0,0.0,0.0177081261985351,1.5941871344608664e-11,-1.560901486259027e-05,8.477542742712431e-10,2.495765160917323e-07,3.7687196576976176,56.27980129251342,6.025769493750979,48.280903250602165
0.15,31.22218540777004,131.01038560455507,3.377159065217065,3.821894709649632,0.000249725644238,46.56959330999435,0.0004643042952466,3.324387732286376,472.54218587214,6.441023336496372,2.6014999612196745,69.99996641132823,-2.546763407193136e-09,113.70000082794672,25.402620271850456,15.288,0.0,0.0,0.0189285691155931,2.2314099732464315e-11,-1.992367942778425e-05,1.1417519574710292e-09,3.4051816697623295e-07,3.821894717796148,54.501255563441134,6.441062563308839,46.68809885900716
0.16,31.22218531193176,131.01038586421257,3.4382223512025254,3.8463320955387794,0.0002733212404609,36.974247749122085,0.0004987816203583,3.3205066466509234,391.1218908297564,6.895451966878468,2.7877331692857847,69.99995397923414,-1.77088415515292e-09,113.70000096417354,29.113317717489338,15.288,0.0,0.0,0.0202640360420561,3.0367358387834494e-11,-2.4945905791363795e-05,1.5114297685186711e-09,4.5643121540033697e-07,3.846332105235269,52.641145594326446,6.895494900078523,37.12304892183151
0.17,31.222185210004127,131.010386140357,3.503019838429153,3.8860314262554336,0.000297865039677,46.520531453299206,0.0005306403365217,3.31650761597812,471.78125980632376,7.314788342774694,2.9619016331667103,69.99993849340957,-4.3039914767238207e-10,113.70000110959404,32.761746921137856,15.288,0.0,0.0,0.0214963781445172,4.0366633128431416e-11,-3.0713078585132897e-05,1.96747427715988e-09,5.961228045584824e-07,3.886031437653654,51.00464968745696,7.314835131305714,46.63860064094784
0.18,31.22218510147516,131.01038643438045,3.571950002194137,3.9107265153396016,0.0003214293682635,38.895647526122765,0.0005639254295027,3.312149448254175,407.10156721191447,7.754626295791602,3.1430587898572058,69.9999195084231,1.6149322372810674e-09,113.70000126508234,36.81988229018681,15.288,0.0,0.0,0.0227889722876034,5.2593391349219385e-11,-3.731786027786564e-05,2.525509173087448e-09,7.6786585232224e-07,3.9107265285284982,49.36615848311875,7.754676785798701,39.036415444581515
0.19,31.222184986476247,131.0103867459258,3.644912152926752,3.920599115663931,0.0003437679584038,43.86258669386953,0.0005989384366483,3.307389681300437,448.9531328318269,8.219206165926856,3.332657190859447,69.99989653019398,4.538529095696477e-09,113.70000143063515,41.36350714675367,15.288,0.0,0.0,0.02415428010977,6.735860419174937e-11,-4.481243905342629e-05,3.199401151670645e-09,9.773118416308382e-07,3.92059913071168,47.71893898797248,8.21926016487149,43.987104227715655
0.2,31.222184864792144,131.01038707557822,3.722074668489528,3.943376465171875,0.000367328732016,40.28070981710589,0.0006315894240138,3.30251450988504,418.51563019916136,8.65238089736321,3.511445117640573,69.99986902534273,8.534090245934178e-09,113.7000016067622,45.83799876721736,15.288,0.0,0.0,0.025427299120469,8.499785987217288e-11,-5.328041996372527e-05,4.006766070954748e-09,1.2232205148646746e-06,3.9433764822533854,46.2587826635041,8.652438597225508,40.41586552155969
0.21,31.22218473678744,131.01038742234647,3.803156063113743,3.9664546506877016,0.000390962054969,38.67679184347145,0.0006636984664108,3.297405915846789,404.8187610144644,9.079179692250786,3.688002035198235,69.99983642883521,1.3827831253856693e-08,113.70000179318536,50.47126980736161,15.288,0.0,0.0,0.0266815841422463,1.0586558589671407e-10,-6.275155280099118e-05,4.961340042512481e-09,1.5117124669161171e-06,3.9664546699249135,44.88773728276958,9.079241104426773,38.817098210937615
0.22,31.2221846022986,131.01038778667507,3.8882846911135607,3.956175711337521,0.0004112685792646,46.713636108302936,0.0007011135033803,3.291572407481395,472.5421858721365,9.580256326712124,3.889976788904857,69.99979815126248,2.0662823443484168e-08,113.70000199039316,56.195522894218605,15.288,0.0,0.0,0.0281541581291438,1.3033127211465288e-10,-7.330053770532661e-05,6.0817207473359025e-09,1.8632831045819008e-06,3.956175732680424,43.35679625546934,9.580320928629488,46.8294591882524
0.23,31.222184460898035,131.01038816972698,3.977794004014759,3.9879066397329104,0.0004360962274406,38.89105719050748,0.0007308686121188,3.286096544282012,406.3406421461021,9.977039034039262,4.056142701351626,69.99975353557706,2.9316661139418326e-08,113.70000219928508,60.9462612310605,15.288,0.0,0.0,0.0293202403623685,1.5880617816859538e-10,-8.505067486192354e-05,7.393319440773217e-09,2.2514912291167663e-06,3.987906663538912,42.20670487756048,9.97710753587448,39.0296395118868
0.24,31.222184313516166,131.01038856897196,4.070963590490852,4.003523997322975,0.000459165577055,40.0792299321398,0.0007630441688766,3.280134925833028,416.2328240017114,10.408422364424831,4.234121060914368,69.99970190737699,4.010976417051318e-08,113.70000241888,66.32994780718496,15.288,0.0,0.0,0.030588009649109,1.91711512587616e-10,-9.795845222523724e-05,8.904557280909524e-09,2.7052895870113487e-06,4.003524023611085,41.011349410369874,10.408494489985014,40.21323112692186
0.25,31.22218416001652,131.01038898478134,4.167901030441617,4.0261356185860135,0.0004830526730531,41.17760020658354,0.0007934613160587,3.2740610008587527,425.36408079150686,10.816813039390448,4.4041629376391525,69.99964258149416,5.3372865854010094e-08,113.70000264972064,71.63651430352668,15.288,0.0,0.0,0.0317882126436337,2.2947426169209347e-10,-0.0001121037688082,1.0637152702866709e-08,3.217380562698304e-06,4.026135647516394,39.93186687113378,10.816888917126896,41.30755663120434
0.26,31.222184000702686,131.0103894163294,4.26837241014618,4.053359329950934,0.000507503069958,44.80261175215926,0.0008224724146494,3.2678597736729302,455.8015834241788,11.207047269494833,4.567925492611352,69.99957484039399,6.947299261165984e-08,113.70000289176392,76.89781807056055,15.288,0.0,0.0,0.0329350617559806,2.7254099134167665e-10,-0.0001275114371842,1.260720913253598e-08,3.7915697709142366e-06,4.053359361668992,38.945390435244384,11.207126987890645,44.921630958721536
0.27,31.22218383516388,131.01038986473338,4.372698316214008,4.0614460923241,0.0005296455772492,41.029837477288126,0.0008548809954683,3.2610328932384265,423.84219965987256,11.645685385842508,4.748226940060522,69.99949794024376,8.879821051920497e-08,113.70000314600205,83.0342688744587,15.288,0.0,0.0,0.0342241635563461,3.2137296827284217e-10,-0.0001442952656441,1.4842505534226832e-08,4.458527942364847e-06,4.061446126801262,37.8838346421185,11.645768582375233,41.15922617924542
0.28,31.222183663504484,131.01039032970942,4.48079961904222,4.081133040992532,0.0005533279247169,47.27661484082626,0.0008845140695959,3.254218495915602,476.3468732012221,12.047344998676092,4.915789434712848,69.99941106884992,1.1178948978424788e-07,113.70000341275257,88.85982357848233,15.288,0.0,0.0,0.0354045979054623,3.764736350660473e-10,-0.0001625146963723,1.7365685655384934e-08,5.194620655212288e-06,4.081133078439725,36.956255322213885,12.047431915223257,47.38848224631549
0.29,31.22218348566054,131.0103908114315,4.592727908358551,4.1001100265020245,0.0005770279952742,37.989969791857405,0.0009138463939581,3.247164755122801,397.97031042211177,12.446314684600782,5.082367374004485,69.99931338876085,1.3891902435864665e-07,113.70000369260468,94.8417675268915,15.288,0.0,0.0,0.0365771315767517,4.3836067907166327e-10,-0.0001822432988888,2.0202163500922312e-08,6.018074062137429e-06,4.100110067036654,36.07377590258778,12.446405323946324,38.12849176886316
0.3,31.222183301933686,131.01039130907952,4.708251093558373,4.112858061667493,0.0005998635114143,35.655053282557844,0.000944131403186,3.2397207148238625,378.1859457108711,12.860033399289696,5.253940723820665,69.99920403105713,1.707002607527005e-07,113.7000039856728,101.2505662360602,15.288,0.0,0.0,0.03779301412572,5.075709863465428e-10,-0.0002035013069687,2.3370674033523645e-08,6.94335970778e-06,4.112858105337573,35.19685285507256,12.860127625629724,35.80193592228613
0.31,31.222183112488807,131.0103918222051,4.827243246502713,4.136140889545823,0.0006242383343011,37.56633644061071,0.0009716215464757,3.232339252743767,394.1656220930212,13.2364445751808,5.4126574282679245,69.99908210036875,2.0768081583188525e-07,113.7000042923011,107.26326115439352,15.288,0.0,0.0,0.0388992619788015,5.846561731689753e-10,-0.0002263323252403,2.6893437641668458e-08,7.948283231812338e-06,4.1361409365698805,34.43286455705216,13.236542630309057,37.70514091683033
0.32,31.22218291741533,131.01039235056504,4.949637017503345,4.1622282001352975,0.0006491019906456,40.83513712643371,0.0009979686925508,3.224840963348891,421.55939346242695,13.59846554462374,5.566374262777002,69.99894668612772,2.504388718903276e-07,113.70000461297312,113.2095365840355,15.288,0.0,0.0,0.0399632243410653,6.701756367872645e-10,-0.00025078340164,3.0793566854276295e-08,9.047716714467492e-06,4.16222825066026,33.72644865222576,13.598567505326,40.96227562489027
0.33,31.222182716732533,131.01039289410716,5.075419569102976,4.187801887681037,0.0006739743721461,40.48743503284469,0.0010239291638211,3.217136801802925,418.5156301991682,13.956637761217308,5.718704299733134,69.99879684673242,2.995902922462564e-07,113.70000494831164,119.25032483364384,15.288,0.0,0.0,0.0410158804634189,7.647061680070125e-10,-0.0002769136723495,3.509664608790402e-08,1.0253455741189656e-05,4.187801941818244,33.053267359159875,13.956743628864118,40.61505097607
0.34,31.222182510255863,131.01039345333336,5.204736257784645,4.19642921746386,0.0006961879027693,31.814592723444047,0.0010535137542081,3.208669900766693,345.46563688075645,14.367047160772364,5.88887983533068,69.99863160305904,3.557915789971256e-07,113.70000529927128,126.36523219087664,15.288,0.0,0.0,0.042222056531773,8.688448410811866e-10,-0.0003048202762282,3.9835373705550826e-08,1.1618525957862828e-05,4.196429275109305,32.30947868183619,14.367156517712404,31.97598901989736
0.35,31.222182298183583,131.0103940277045,5.337435501771672,4.210915783240843,0.0007193441544952,34.813487415034444,0.0010813034848195,3.200164272309822,370.5765700527033,14.754132934586384,6.050986755458457,69.99844991734221,4.1975736284587617e-07,113.70000566632532,133.26448209504355,15.288,0.0,0.0,0.0433596939127697,9.832256819293898e-10,-0.0003345386312107,4.503361101379695e-08,1.309465610343774e-05,4.210915844572415,31.63649055965014,14.75424592890194,34.96026256388454
0.36,31.222182080444604,131.0103946174141,5.4735747500461605,4.22903876037745,0.0007431682866607,39.2632255716727,0.0011077666085529,3.1915717453569297,407.8625232777193,15.124417129017054,6.2072589919251575,69.99825073022951,4.922382611919288e-07,113.70000605036684,140.03566173682628,15.288,0.0,0.0,0.0444479595865755,1.1084921261805627e-09,-0.0003661511460057,5.0723697896912267e-08,1.4691545926915382e-05,4.229038825557203,31.017264542603208,15.124533865618538,39.39272792946638
0.37,31.22218185710795,131.01039522227452,5.613102797925907,4.249164960780052,0.0007674149135003,37.28328237034959,0.001133274451316,3.1828514669894137,391.1218908297666,15.483077353331511,6.359470679857624,69.99803294268581,5.740349991123437e-07,113.70000645214331,146.75405277514704,15.288,0.0,0.0,0.0455020695186381,1.245311285088233e-09,-0.0003997125883071,5.6934243389647934e-08,1.641828325195534e-05,4.2491650299519,30.439178816713017,15.483197898584232,37.418894813348615
0.38,31.2221816281124,131.0103958424523,5.756069531572451,4.260095806433531,0.0007900626414612,38.9278000801764,0.0011607546399008,3.1735466295306622,404.8187610144602,15.87126705947922,6.521735074464384,69.99779542676283,6.659911329739736e-07,113.70000687263192,154.20298254405043,15.288,0.0,0.0,0.0466429667223463,1.3943646956867835e-09,-0.0004353006984059,6.369875435270817e-08,1.8328108041903096e-05,4.260095879559656,29.83470194713067,15.87139116222873,39.05694584372078
0.39,31.22218139339905,131.0103964781077,5.9025231349944285,4.274091258047817,0.0008133283308351,33.320076729592266,0.0011870382950339,3.164143363712209,357.64062493382744,16.24457853509073,6.678818328235205,69.9975369905506,7.690136753559805e-07,113.70000731287368,161.54010621938565,15.288,0.0,0.0,0.0477401448128051,1.5563705124515804e-09,-0.0004730068442167,7.105463478762673e-08,2.0383860516746246e-05,4.274091335289374,29.274934656826048,16.244706292406182,33.46997636540994
0.4,31.22218115316572,131.01039712870306,6.0523126585892895,4.286421841403391,0.0008363022448449,31.88018820767003,0.0012133780841982,3.1544430614236454,345.465636880754,16.62063299903514,6.836764518435374,69.99725641601981,8.840594270905819e-07,113.70000777359816,169.10340080049767,15.288,0.0,0.0,0.0488453895716005,1.7320643186450851e-09,-0.0005128553637434,7.9027539265021e-08,2.2612406375611563e-05,4.286421922834417,28.730746964325096,16.620764365084565,32.03586915718869
0.41,31.22218090752676,131.01039779392735,6.205351877049411,4.30025870409831,0.0008595777771371,35.882550741685804,0.0012389121673015,3.1445895889870297,378.94687077668647,16.987310563534386,6.99141560549392,69.9969524610574,1.0121301778427253e-06,113.70000825570062,176.64448930727934,15.288,0.0,0.0,0.0499230826371405,1.922193031274436e-09,-0.0005548883906878,8.764667734700782e-08,2.5005077415911235e-05,4.300258789847355,28.21875643368965,16.987445585695873,36.020076248499606
0.42,31.222180656535848,131.0103984736348,6.36160173428776,4.322008670726048,0.0008844838439129,40.34064925656127,0.001261804338223,3.134918999355981,416.2328240017114,17.318628721060172,7.133856886815013,69.99662385300175,1.154276942054023e-06,113.70000876021427,183.59942989625057,15.288,0.0,0.0,0.0508968652507098,2.1275184665783874e-09,-0.0005991661829955,9.694534598491077e-08,2.752657757470936e-05,4.322008761057615,27.772396468009568,17.318767655457478,40.462275036947325
0.43,31.222180400205527,131.0103991677914,6.521055075967404,4.339436441324956,0.0009085827200945,35.541853595187746,0.0012854696362701,3.124839917627212,375.9031395134336,17.662848429084132,7.280642039343927,69.99626930133451,1.3115939750280808e-06,113.70000928827632,190.96736675963504,15.288,0.0,0.0,0.0519085689713619,2.3488101247838237e-09,-0.0006457514522491,1.0695800287133593e-07,3.0255957891170616e-05,4.339436536261635,27.322335771349252,17.662991148924057,35.67895714766603
0.44,31.22218013836212,131.0103998768696,6.683849332059896,4.342209064313268,0.0009296474314902,32.82948243168077,0.0013129688908547,3.113754688841357,353.0750125389216,18.063580761318697,7.446730341918701,69.99588746395321,1.4852372182848018e-06,113.7000098413532,199.7278270846888,15.288,0.0,0.0,0.0530863610987301,2.586862292117705e-09,-0.0006947575786514,1.1773083546077225e-07,3.329010177793299e-05,4.342209163639375,26.81344244367223,18.06372678999575,32.9768158972058
0.45,31.22217987077456,131.0104006014978,6.850166573233225,4.3420317510315165,0.0009500780330031,38.11022602597878,0.001341042003417,3.1022288449712887,397.2093853562869,18.47486275310604,7.616350301328129,69.99547690348253,1.6764536248320808e-06,113.70001042108892,208.92306716049887,15.288,0.0,0.0,0.0542951637545535,2.842521175226318e-09,-0.0007463379956615,1.2932090054593452e-07,3.657529369088674e-05,4.342031854775571,26.30944884471334,18.47501199101448,38.23628058998621
0.46,31.22217959739673,131.01040134180155,7.020045503401754,4.351169003849846,0.0009725797783515,44.3937050866137,0.0013660055515545,3.09098240974522,449.7140588976434,18.844323061800488,7.771531995684422,69.99503610583268,1.8865779683531e-06,113.70001102895836,217.3591612614144,15.288,0.0,0.0,0.0553810645782081,3.1166808800591503e-09,-0.000800596194505,1.417768495237597e-07,4.001824400409673e-05,4.351169112337076,25.873596578896564,18.844475834274814,44.50118229261506
0.47,31.22217931813738,131.01040209802923,7.193559875579052,4.358630093683735,0.0009947969928181,30.22514089990685,0.0013910994973101,3.079396422776949,331.0078106302534,19.2180591098146,7.9280875671397615,69.99456352718363,2.1170044481277104e-06,113.70001166656292,226.0625808853568,15.288,0.0,0.0,0.0564795377574197,3.4102493884459798e-09,-0.0008576351980594,1.551487523304888e-07,4.3718862242359527e-05,4.35863020698899,25.44665981168229,19.218215372160817,30.381603425148434
0.48,31.22217903348153,131.01040286886197,7.370336324605091,4.365514409145237,0.001016880998596,29.779838936311712,0.001416009414045,3.067527859335786,327.2031223011574,19.5915905767454,8.084483592791102,69.99405758812365,2.369198154608765e-06,113.70001233476164,234.93171707892955,15.288,0.0,0.0,0.057577416115756,3.7241711041759195e-09,-0.0009173883913609,1.6944871263079066e-07,4.767297940601472e-05,4.365514527349481,25.03354780044292,19.59175030803913,29.937410312943754
0.49,31.22217874361868,131.01040365378466,7.5502307795521535,4.3786401372577615,0.0010404145545081,37.2489281064929,0.0014385799934191,3.0558405437943126,389.60000969812296,19.93403005898306,8.23012235628909,69.99351671352461,2.644660619562788e-06,113.700013034871,243.21198709852868,15.288,0.0,0.0,0.0585839249886784,4.059374595909599e-09,-0.0009798792959512,1.8470833984680338e-07,5.180951737438081e-05,4.378640260624215,24.667474291142685,19.934193486919103,37.37406598941686
0.5,31.22217844858332,131.0104044527036,7.733219389747018,8.792399750972384,-4.8123698451361046,38.345722404316895,0.3383692684437108,2.7208941832854325,397.97031042210494,21.11829598195023,8.366361539570502,69.99293932307316,2.9449363413826395e-06,113.70001376847225,272.96368497326165,15.288,0.0,2.5051569778986185,0.0620644805855095,4.416751211901175e-09,-0.0010494275467989,1.0298120881856823e-05,5.878216235921901e-05,10.014141862321807,20.08069711847139,20.363259173347725,38.44362347161613
0.51,31.22217814840553,131.01040526517357,7.919252440370696,8.740522864135436,-4.743619497130096,29.43638317375545,0.3462870537233332,2.700969378763894,323.3984349720841,21.46263947963656,8.508900478997646,69.99230157946727,-3.752054642688869e-05,113.69997112486264,281.9328171251011,15.288,0.0,2.515098703127512,0.0630766027682477,4.7961684311558755e-09,-0.0011946897126404,-7.009441565604166e-05,6.800873900791834e-05,9.935983178603252,19.82701390957643,20.718364421477947,29.56206698897676
0.52,31.222177842942088,131.01040609102648,8.108348617929003,8.686394977643912,-4.675907899328051,35.27445727404052,0.3545194047965268,2.680385196553152,372.0984511843415,21.81569805095188,8.654367077035333,69.99157938535889,-0.000205861494305,113.69979239871792,291.27936032904245,15.288,0.0,2.525006160168803,0.0641143442194406,5.1817983844494155e-09,-0.0013447906515002,-0.0001524635518455,7.781124740173929e-05,9.85645623914967,19.57231792209539,21.082023191287508,35.37792369244398
0.53,31.22217753205448,131.0104069306369,8.300619891978862,8.63485903314408,-4.610846398099567,37.01678154483032,0.3627884578733798,2.6595443266516785,386.5562464348624,22.16510135854548,8.798408635505853,69.99076989421083,-0.0005052629105772,113.69947419927983,300.67887007935303,15.288,0.0,2.5348809012218445,0.0651413499223813,5.5742348486269815e-09,-0.0014999497934905,-0.0002369002754665,8.817734302265334e-05,9.780563698061927,19.327324483605175,21.441612792279876,37.11397186274034
0.54,31.222177215643967,131.01040778425644,8.496143708594364,8.585122753119425,-4.547951351889879,32.5633497314915,0.3711241065915037,2.638390412583887,349.2703242098436,22.51250369376139,8.941596417723334,69.98987017107015,-0.000938989151569,113.69901305099016,310.17222597841254,15.288,0.0,2.5447300930265544,0.0661624818078495,5.9740965373531235e-09,-0.001660349875346,-0.0003234722900149,9.91347285165289e-05,9.707373578388712,19.090322629506783,21.798863118838725,32.67216832117415
0.55,31.222176893985427,131.01040865112145,8.69470784115995,8.539344180503432,-4.488270628663035,34.48799075096784,0.379423888588057,2.6171230146763484,365.2500005919907,22.851923270747115,9.081862107105607,69.98887723486352,-0.0015103189183797,113.6984054621838,319.589532538036,15.288,0.0,2.5545422100928605,0.0671601597499638,6.382044317679849e-09,-0.0018258833968963,-0.0004120924521833,0.000110659811686,9.639270417229802,18.865388963624024,22.147628189677285,34.589229557768746
0.56,31.22217656707964,131.0104095312138,8.89631266745327,8.498997707076862,-4.432479122173738,32.218911010203456,0.3876054823068765,2.595908777875092,346.2265619465787,23.17875959763297,9.217609765548891,69.98778810990191,-0.0022224717016753,113.6976480042655,328.79030807316406,15.288,0.0,2.5643170823964407,0.068120863148448,6.798736631922314e-09,-0.0019966614107842,-0.0005027903355558,0.000122738366322,9.577863260887254,18.6552148039168,22.48320168341484,32.325643181170776
0.57,31.222176234998123,131.0104104243235,9.100903801914466,8.456270182572794,-4.3764755745966895,31.863958660281604,0.3960193420312456,2.574054871131379,343.1828296833023,23.513592919392423,9.355984635151591,69.9865997898369,-0.0030786596136435,113.69673725603565,338.3514821747482,15.288,0.0,2.5740504302776888,0.0691050759452481,7.224855752248017e-09,-0.0021727229585205,-0.0005955573236403,0.0001354879087571,9.51434261625265,18.444496286470773,22.826806041753084,31.970211937098462
0.58,31.222175897719367,131.01041133049378,9.3084990459043,8.406200243296366,-4.317733472087351,41.82023178332668,0.4049199288231447,2.5510430214482542,426.1250058573153,23.8707002093399,9.501938339274233,69.98530921651161,-0.0040821176793854,113.6956697716596,348.6998437666958,15.288,0.0,2.5837422429035755,0.0701547577055168,7.661097191203036e-09,-0.0023541856351129,-0.0006904257291349,0.0001490302388889,9.443146530811353,18.22360446779092,23.19311397398724,41.89992323450253
0.59,31.22217555484703,131.0104122507863,9.519406937398804,8.367275939829481,-4.265636310045978,33.98312395528992,0.4134149438265,2.5286616340857524,360.68438819711065,24.198463162963662,9.637548545822892,69.98391315352977,-0.0052362822493972,113.69444189115896,358.3341589848855,15.288,0.0,2.59340409901126,0.0711182053463656,8.108157596001837e-09,-0.0025415193773029,-0.0007876081569028,0.0001630951131857,9.38495482226699,18.028131140235036,23.529037384180675,34.079579741189235
0.6,31.22217520658948,131.0104131846186,9.733467087245876,8.314831768833207,-4.207673704451658,30.25017547752249,0.422727419694511,2.5044389536914142,329.4859594986058,24.56689119725665,9.787109687013848,69.98240829737898,-0.0065446279207532,113.6930499125508,369.32109816468767,15.288,0.0,2.603028233830339,0.0722011732849712,8.566807517652949e-09,-0.0027346487905533,-0.0008870346848672,0.0001781568690948,9.312166198410251,17.810490100238646,23.906545283429367,30.35661426056983
0.61,31.222174852898885,131.0104141321047,9.950717813785968,8.26122089088909,-4.150104527108394,35.37484404478423,0.4322681481463189,2.4795522904931504,372.0984511843297,24.94165437485616,9.938708022993804,69.98079125137191,-0.0080107044680061,113.6914900537316,380.6669451795557,15.288,0.0,2.612617288041996,0.0733027678868696,9.037820235024338e-09,-0.0029337369276619,-0.0009887579345821,0.0001940386192579,9.23859166795856,17.59442523849751,24.290327364256,35.464272535976235
0.62,31.22217449388729,131.01041509292384,10.171073556278564,8.230539550078316,-4.104807804256571,43.88269110193026,0.4407350760976236,2.4566790346184386,442.86563930529206,25.24979011988264,10.06704140026162,69.97905852524852,-0.0096381339410809,113.68975845494164,390.12250930481713,15.288,0.0,2.6221745252259847,0.0742085539992297,9.522005561324248e-09,-0.0031388405076274,-0.001092776211724,0.0002101646084804,9.191035370061924,17.425807416191553,24.60555984776969,43.953613021387284
0.63,31.22217412937481,131.0104160675504,10.39467517426028,8.193714737060942,-4.057253269220214,25.06754371782172,0.4496437631578669,2.43271636624502,286.11251274707894,25.57719187224744,10.201898544704695,69.97720665294224,-0.0114303901914729,113.6878514168454,400.2965635512463,15.288,0.0,2.631683895402622,0.0751709698625475,1.0020165854068505e-08,-0.003350207039592,-0.0011991821594283,0.0002272206224421,9.137059560396684,17.248951496882764,24.9404125082646,25.189323859072644
0.64,31.22217375993244,131.0104170544163,10.621081301347132,8.146761961024358,-4.005547008641101,24.61759276584288,0.4592545717024215,2.40710759135742,282.30782441796754,25.937532837760934,10.348033740332472,69.97523221801848,-0.0133909954662208,113.68576517851112,411.6461185514812,15.288,0.0,2.641153921287417,0.0762302010740358,1.0533183459824468e-08,-0.0035674001519558,-0.0013077287528291,0.000245354645549,9.072256108275171,17.056218048539765,25.30885537742433,24.739259392772446
0.65,31.222173385541225,131.01041805355882,10.850308115225271,8.116624386838236,-3.9627780551592937,43.19062997769669,0.4680357897938701,2.38304041319126,436.7781447787475,26.246215598414608,10.476112617220076,69.97313172109911,-0.0155233559942612,113.68349611118065,421.493150376656,15.288,0.0,2.6505683337370773,0.0771376167139568,1.1061900923643748e-08,-0.0037905810716895,-0.0014184679532191,0.0002638011697455,9.026515390925134,16.898678042053792,25.624240033676383,43.25885408770952
0.66,31.22217300570717,131.01041906630823,11.082740192605987,8.083089908674241,-3.9190664458723727,36.79925563195837,0.477126184836162,2.3581459080024096,383.51251517160017,26.566195396161287,10.607950083599,69.9709016393511,-0.0178309122587248,113.68104054686115,431.82339666130525,15.288,0.0,2.659944132782023,0.0780782419441796,1.1607128333695027e-08,-0.0040203337038638,-0.0015316559530449,0.0002831952778009,8.97738057504689,16.7378812211045,25.95106979927815,36.877821472884
0.67,31.22217262061056,131.0104200921594,11.3182393013149,8.040716323926334,-3.871835170499751,25.46193220487532,0.4868783007247166,2.3316669694900654,289.1562440103425,26.91607197637637,10.749998656265058,69.96853823354772,-0.0203173351176943,113.67839457072569,443.2624929731942,15.288,0.0,2.669289199320883,0.0791067419372452,1.2169794755454264e-08,-0.0042565970042224,-0.0016472318952843,0.0003037798313781,8.918836993544375,16.563536738838053,26.308348310211446,25.57310526592331
0.68,31.222172230415136,131.0104211306524,11.55668008966088,8.001502926146202,-3.8268058806294,31.69428883786997,0.4965759944694382,2.305104573533959,340.8999924858462,27.2568472419384,10.888744796831714,69.96603769814736,-0.0229862672450051,113.6755543000386,454.5471290769832,15.288,0.0,2.6785714517155848,0.0801085010823341,1.2750848228755342e-08,-0.0044993449717012,-0.0017651532315655,0.0003251619275154,8.864148991662445,16.398275099352514,26.656180803152083,31.781882256272038
0.69,31.22217183519785,131.01042218156408,11.79800455708114,7.971665001621216,-3.786871275447637,38.93761992533396,0.5058058824517794,2.2793549118798304,401.0140726853634,27.56679869980773,11.01665691247362,69.96339634012138,-0.0258413099601331,113.67251588708352,464.93290528693706,15.288,0.0,2.687813257444758,0.0810196761297781,1.335122642202871e-08,-0.0047486111529288,-0.0018854065452234,0.0003470704631908,8.820156365598404,16.2534891683853,26.972391333145115,39.00755752229045
0.7,31.222171434824936,131.0104232452456,12.04231816371666,7.941574278673971,-3.747428194496025,32.71945231610706,0.5151624983808246,2.2531531043367137,349.27032420985284,27.87784194584613,11.14479573725398,69.96061035152158,-0.028885989563332,113.66927557186622,475.47285542249847,15.288,0.0,2.697020265741679,0.0819340677104327,1.39718689367221e-08,-0.0050046513905299,-0.0020080839102199,0.000369902703887,8.776203469070866,16.11102473214233,27.289616896683103,32.80098552143401
0.71,31.222171029347685,131.01042432154424,12.2895828694715,7.905846430482288,-3.7059361859065736,26.95575327645737,0.5250067396166068,2.2257052903447274,301.33126406340574,28.208851197187293,11.27971082379166,69.95767581711573,-0.0321239112048569,113.66582950936991,486.81944045528337,15.288,0.0,2.7061623104126595,0.0829071481249093,1.4613770280300582e-08,-0.0052675224606692,-0.0021331817907997,0.0003939453758041,8.726343675830854,15.960915796182368,27.627129915717653,27.05257900491843
0.72,31.22217061876701,131.01042541044438,12.539799779008836,7.86342455707247,-3.661962792292935,32.921356598006305,0.5354492963755099,2.196759640286253,350.79220534145287,28.56471063596488,11.423092278344429,69.95458883213665,-0.0355587690606511,113.66217375062185,499.16753929352353,15.288,0.0,2.715266420618605,0.0839532728455267,1.5277926862892222e-08,-0.0055373612326048,-0.0022607344133337,0.000419340163739,8.669434455766106,15.801140146286446,27.989882405939703,32.99891178689493
0.73,31.22217020307873,131.0104265119441,12.792973992426615,7.837606281158801,-3.626235506382268,41.54929640480808,0.5448704333877875,2.169854901199128,422.320318528234,28.861551417759475,11.545860877122296,69.95134519866549,-0.0391943511231176,113.65830425705532,509.5836246189704,15.288,0.0,2.724335429717989,0.0848259466991658,1.5965387138917902e-08,-0.0058143306765474,-0.0023907878969022,0.0004448797282851,8.631078335332601,15.67473244394204,28.292323869654982,41.60948432528377
0.74,31.222169782219776,131.01042762620295,13.049156293968863,7.806576144217066,-3.5886366750652567,26.15175605291264,0.554762419758238,2.141728213065261,294.48281347105944,29.17723882024177,11.675014399600755,69.94794093329777,-0.043034325639015,113.65421710542024,520.7794215701581,15.288,0.0,2.7333497086120664,0.0857540200316653,1.6677182181770527e-08,-0.0060985891476886,-0.0025233844601382,0.0004717219653819,8.58726574052589,15.5412855827545,28.61390558030209,26.245172998707183
0.75,31.22216935654218,131.0104287522498,13.308075704994774,7.772287128332694,-3.550082171205817,30.47080395207996,0.5650150980310491,2.1126095757652035,330.24688556441487,29.505362429626107,11.808341939414907,69.94437183852313,-0.0470823483291097,113.64990839550472,532.5452843527911,15.288,0.0,2.7423110720835657,0.0867186524268808,1.741445311390121e-08,-0.0063898441873625,-0.0026583586865826,0.0004997962070779,8.54014700314985,15.404354838826412,28.94807356898763,30.549177644688076
0.76,31.22216892593599,131.01042989037248,13.569819466418991,7.7438281797608175,-3.514683852471444,32.773228182578784,0.5749545796369291,2.0839939790417223,349.27032420986166,29.811809634225124,11.934009830210163,69.94063384860219,-0.0513420633823694,113.64537422755296,543.6512593186394,15.288,0.0,2.751231044588003,0.0876195843533433,1.8178249755964487e-08,-0.0066883713623967,-0.0027958077392842,0.0005285663797111,8.499679384858497,15.2805453953721,29.260070564478795,32.844452943848886
0.77,31.222168490343407,131.01043104071707,13.834434385863652,7.716838125133299,-3.4804290251523966,30.67029297360459,0.58489118256931,2.0551976863640458,331.7687666960708,30.112442651457417,12.057516015581534,69.93672267281941,-0.0558171125405165,113.64061071463686,554.6572004843894,15.288,0.0,2.760110570744424,0.0885034359995279,1.896968116178813e-08,-0.0069943680628558,-0.0029357912071604,0.0005583085127141,8.461065251111606,15.161757995959364,29.56607429517162,30.744638659646377
0.78,31.222168049826674,131.01043220310308,14.101874298013696,7.684954994890737,-3.444445882737451,25.26012396930643,0.5953146994925621,2.025111317556046,286.8734378128899,30.431819066796805,12.187383226147654,69.93263407676268,-0.0605111622462114,113.63561393365246,566.470575206615,15.288,0.0,2.7689251065058573,0.0894423846330611,1.9789887215996423e-08,-0.0073078630730024,-0.0030782913916621,0.0005895042520647,8.417332797861262,15.036400590874022,29.89109261168939,25.348162426192847
0.79,31.22216760447109,131.0104333772867,14.37207517376437,7.65039156400031,-3.407754840063524,35.73884180661297,0.606082279677233,1.9940483316781403,373.6203323159534,30.76206463802179,12.320882484519148,69.92836370529372,-0.0654279038965354,113.63037993661732,578.8169239583947,15.288,0.0,2.7776951572621065,0.0904132874630436,2.064004099674416e-08,-0.0076288801583183,-0.0032232888472589,0.000622061941018,8.370912237704793,14.908436919111988,30.227091297416003,35.79955835142263
0.8,31.22216715405786,131.01043456385375,14.645208783942104,7.6254363836626275,-3.375765507896659,36.20757115461972,0.6161884582053003,1.96428923185171,377.42502064505743,31.0539555121532,12.44093108774148,69.92390711016162,-0.0705711339838435,113.62490465957153,589.8379635888474,15.288,0.0,2.7864277154383124,0.0912714699722076,2.152127279046788e-08,-0.0079578728255823,-0.0033709558977367,0.0006550280340067,8.335208118251495,14.800115736785822,30.523998242193485,36.26604926538379
0.81,31.222166698686607,131.01043576252223,14.921200087055352,7.594485269747588,-3.3415756742715166,23.716102912053447,0.626898988250084,1.9329598069388456,273.9374926939919,31.36970494941521,12.569113961507211,69.9192597031976,-0.0759445824855878,113.61918411641788,601.8776621918411,15.288,0.0,2.795118322504285,0.0921997842696343,2.2434830706879826e-08,-0.0082948032065325,-0.0035212437664724,0.0006896853108884,8.29318091968646,14.683068517933778,30.845108981187224,23.80300135049822
0.82,31.22216623854159,131.01043697277913,15.1999084797881,7.561131727463668,-3.306769410892369,30.34193661481557,0.637940545818237,1.9006656631369352,328.72500443277005,31.695373409974835,12.700605878220166,69.91441695561112,-0.0815519885115108,113.61321430152378,614.4230199217399,15.288,0.0,2.8037530538176,0.0931572606402248,2.338197910156732e-08,-0.0086395564344637,-0.0036740709251014,0.0007257886121918,8.248749740439708,14.563819839633084,31.176235597587745,30.4081011515108
0.83,31.22216577360512,131.01043819466264,15.481349947979457,7.539213374301645,-3.2773249717325195,38.443146645463,0.6481008508197998,1.8701982556942007,395.68750322465047,31.97312266254013,12.815335696666809,69.909374237741,-0.0873970984437714,113.60699120254267,625.2217857218458,15.288,0.0,2.8123364271978923,0.0939739040447495,2.4363956976253162e-08,-0.0089923220258483,-0.0038294904046588,0.0007620228561479,8.216965480119892,14.467220726955404,31.45860233940041,38.49406707835648
0.84,31.22216530377152,131.01043942845237,15.765608688646644,7.515045457321235,-3.24728402821844,23.916802104011275,0.6585481411777432,1.8388780702990792,275.4593748256452,32.2593578756291,12.93286978674207,69.90412690982247,-0.093483541592586,113.6005109334042,636.4489522750076,15.288,0.0,2.820877595112505,0.094815497267275,2.5382007897598545e-08,-0.0093533452628049,-0.0039875778127157,0.0007996904713819,8.182921836727193,14.36852454028499,31.74954872582991,23.99642850705316
0.85,31.222164829330968,131.01044067334715,16.052462114558004,7.481694915344706,-3.2136938283781697,26.039001195001187,0.669939217224129,1.8051629846339776,292.96093233939376,32.584337873315576,13.063725720375148,69.89867040245433,-0.0998149383359778,113.59376960719004,649.3187971151087,15.288,0.0,2.8293697292064888,0.0957709762789132,2.643747778734992e-08,-0.0097223190956534,-0.0041481688415637,0.0008395876544385,8.139091296169294,14.255299986370815,32.079796675164644,26.11009412447877
0.86,31.222164350110454,131.01044192981047,16.342046703810254,7.455268532649603,-3.1834421213868067,32.48903201694704,0.6808122927695609,1.7724492387878523,346.2265619465587,32.87916050652045,13.183980889064776,69.89299986839822,-0.1063950087171621,113.5867632382656,661.1036227323488,15.288,0.0,2.8378186317497462,0.0966378264836978,2.7531632376618512e-08,-0.0100996767650705,-0.0043114205260693,0.000880041979714,8.102966233085601,14.15637573854366,32.37936383259002,32.54446624359164
0.87,31.22216386613291,131.01044319777142,16.634347092673647,7.4320935199329154,-3.154920295258584,30.28690014907661,0.6914774498732504,1.740024245745432,327.964078366998,33.15887930479738,13.298858987221797,69.88711044336652,-0.1132274197552724,113.57948789516053,672.3812477025193,15.288,0.0,2.846223875463286,0.0974602922805139,2.8665816235025296e-08,-0.0104855142602934,-0.0044773424264175,0.0009214092800665,8.070541288495622,14.065087154484129,32.66355597698158,30.344721881730965
0.88,31.22216337743271,131.0104444771283,16.929339065565355,7.404358254598215,-3.12481488889382,26.24131210588133,0.7026769557025774,1.706136542641212,294.4828134710418,33.457857782823474,13.420297041400712,69.88099733907883,-0.1203158197611058,113.5719396562247,684.5416266078015,15.288,0.0,2.8545734190452925,0.0983393745613879,2.984138783735518e-08,-0.0108798713052883,-0.0046459198914686,0.0009646562621694,8.03334056971259,13.967500911535865,32.96725630203016,26.30610419359897
0.89,31.222162884089624,131.01044576765523,17.22696327394782,7.372211539047416,-3.0932171233767387,28.734992749769525,0.7144258295119195,1.6707358442573563,315.028134248087,33.7762133762613,13.548342608100969,69.87465554487217,-0.1276638364267419,113.5641146309366,697.6106566046828,15.288,0.0,2.862874174690656,0.0992754190735288,3.105975413604696e-08,-0.0112827809013345,-0.0048171356896381,0.0010098698336013,7.991534559111614,13.863869616728577,33.29056795546768,28.792387376813117
0.9,31.22216238602848,131.0104470695501,17.527280485495524,7.35136239901321,-3.0666590019435698,31.69092793371149,0.72515321985041,1.6375543828057306,339.37814235421445,34.04245251742678,13.658154690043077,69.86807999623909,-0.1352752131955866,113.55600879609216,708.6313172154296,15.288,0.0,2.871132545840631,0.1000582911478901,3.232229292077782e-08,-0.0116945259749267,-0.0049910778758954,0.0010549435521344,7.962113664837589,13.78200523146174,33.5609728106631,31.741492479853573
0.91,31.22216188331833,131.01044838261757,17.830239701437826,7.326026942143035,-3.038551764747589,24.23108045769713,0.7364194225347281,1.6028855296965347,277.7421810230789,34.328059430846004,13.774570574186848,69.86126570823639,-0.1431535020338867,113.54761833118464,720.5506779861248,15.288,0.0,2.879346094102568,0.1008980978925905,3.3630442134235326e-08,-0.0121150998623568,-0.0051677113284969,0.0011020197402711,7.92799391523944,13.693868647824042,33.8509885338167,24.295201496068902
0.92,31.222161376157487,131.01044970630804,18.13568980029564,7.2963766613092975,-3.008986455362732,28.7550680122242,0.7482396916442849,1.5666746756694967,315.02813424806214,34.632968332516334,13.897581953778015,69.85420759230603,-0.1513022493447045,113.53893942161756,733.3861692178051,15.288,0.0,2.8875109588612484,0.1017946464380459,3.4985712876912386e-08,-0.0125442866644836,-0.0053469150496891,0.0011511609996731,7.889366713857354,13.599762129951914,34.16053507755551,28.807434258593307
0.93,31.222160864456093,131.01045104086128,18.443702995293112,7.276942063278467,-2.983903554468257,34.11179540969094,0.7590746729649823,1.5326264164368435,359.1625070654728,34.88866586312508,14.003365756929076,69.84690050382463,-0.1597249982199098,113.52996825352092,744.2334079764563,15.288,0.0,2.89563131074548,0.1025465595439024,3.6389513353792696e-08,-0.0129824243744412,-0.0055287984100575,0.0012001283588759,7.861910193624354,13.52527190342097,34.42016723412784,34.15464425468532
0.94,31.222160348105465,131.01045238657008,18.75436610430385,7.248341226021719,-2.9553789927074163,24.89292049730808,0.7709862716548607,1.4957666820019286,283.0687504837787,35.18668804248811,14.123745818738966,69.83933933603457,-0.168425189400447,113.52070111835748,756.9797461388715,15.288,0.0,2.903707051116709,0.1034228841848316,3.7843285233153526e-08,-0.0134297604580934,-0.0057134309838181,0.0012520487336598,7.82470847542338,13.4362328162744,34.72266402420677,24.949734040333336
0.95,31.22215982739012,131.0104537426487,19.06746129737811,7.221089808708807,-2.9276989554091686,32.09744451193588,0.782857605769452,1.458783644753152,342.4218736174873,35.47738770858078,14.241472914107804,69.83151871926711,-0.1774063655616031,113.51113420204564,769.5160578431002,15.288,0.0,2.9117349560450903,0.1042776949742579,3.934864888616339e-08,-0.0138859842530411,-0.0059006540731371,0.0013052383307513,7.789102665684696,13.351118173791283,35.017705931529484,32.140112942395106
0.96,31.22215930202085,131.01045510988538,19.38321534806003,7.198922241404989,-2.9023465864946214,31.458655073646824,0.7942542793026708,1.4227438212725003,337.09533515678345,35.741997472239284,14.3500023292513,69.8234334010054,-0.1866720316978573,113.50126371848506,781.0141235485441,15.288,0.0,2.919721276555648,0.1050558293641325,4.090699586610047e-08,-0.014351751134375,-0.0060907028625188,0.0013590394409984,7.7591053608060605,13.276446280211667,35.286292883032374,31.500825685747426
0.97,31.2221587720168,131.01045648822307,19.70161608755687,7.174318238073884,-2.8762864192181183,20.29180151312148,0.8060152883406424,1.3855992093203628,245.02188719299323,36.01709306358054,14.46206188686909,69.81507783354351,-0.1962257092317733,113.49108587380556,793.0586071933368,15.288,0.0,2.9276652354013897,0.1058647933818948,4.2519915197503886e-08,-0.0148271579072623,-0.0062835829186257,0.0014148214505488,7.726614775935205,13.19900132719081,35.565476792048706,20.355017918484556
0.98,31.22215823766089,131.01045787688082,20.02244703031923,7.141125261748382,-2.847087751580437,29.34848104820196,0.8188876030542929,1.3454929258124515,319.5937466429581,36.33413678010957,14.588626286567688,69.80644659454624,-0.2060708852644548,113.48059689612856,807.0571284482457,15.288,0.0,2.9355610120960582,0.1067970644206921,4.4189115465100656e-08,-0.0153117920386325,-0.0064790956181565,0.0014738814435295,7.685021496001608,13.108018658304816,35.88710130496815,29.39071737737133
0.99,31.22215769880701,131.01045927625526,20.34582413505868,7.122629242161254,-2.823971973034652,32.03461549717045,0.830108043744455,1.3092399725848525,341.6609485517054,36.575721901944576,14.688803222480391,69.79753404471681,-0.2162110904342955,113.4697929708468,817.7996280444779,15.288,0.0,2.9434115837269985,0.1075075487665755,4.5916117812948097e-08,-0.0158061519484105,-0.0066774089698888,0.0015315361513878,7.659343025406934,13.044138091820304,36.13231299915535,32.07210281103589
1.0,31.22215715545359,131.01046068634818,20.6717513370954,7.095783622845064,-2.797812750899507,28.71452196373937,0.8424183840410452,1.2700681720719986,314.2672081822764,36.85815880630636,14.803101588326257,69.78833469389875,-0.2266495949343343,113.45867055813342,830.4524560655934,15.288,0.0,2.951218869177601,0.108338118090266,4.770255286287535e-08,-0.016310286764897,-0.0068785087099215,0.0015925381019068,7.624817020870387,12.967108039766009,36.41885404057327,28.754938941015876
1.01,31.22215660777711,131.0104621066709,21.00009469730816,7.070432107322085,-2.7724913082425644,30.015091216440865,0.8546371814653129,1.230895787791061,324.9203161036979,37.13154997294178,14.914150081583468,69.77884280191033,-0.2373897962011073,113.44722598203268,842.7911379845483,15.288,0.0,2.9589817894394947,0.1091421080370185,4.955015356624686e-08,-0.0168240397473596,-0.0070823001814682,0.0016548333541004,7.592012541183943,12.89405944747556,36.69621799173794,30.052474272239387
1.02,31.222156055702506,131.01046353742743,21.330915167706905,7.047331074168679,-2.7482864302331502,25.120309092340275,0.8666557378184565,1.191998478649735,284.59063161540416,37.391575407661485,15.020437229496302,69.76905279752343,-0.2484349811087028,113.43545567165808,854.6091359728392,15.288,0.0,2.9667022136519687,0.1099068204902244,5.14605241499187e-08,-0.0173476891225917,-0.0072888603050568,0.0017182347437172,7.561733904148482,12.826278291969468,36.96004110809576,25.163502964327332
1.03,31.22215549929633,131.01046497843268,21.66416394889993,7.018602704213402,-2.7221417834039965,20.59267782038964,0.8794834950330978,1.1508390122810683,247.30469339049705,37.67976489769976,15.136452257091468,69.7589589667748,-0.2597883228632708,113.42335618403511,867.8056468777728,15.288,0.0,2.9743787745839207,0.1107543259339423,5.343538595637741e-08,-0.0178812133610561,-0.0074981473241189,0.0017846718385065,7.52553870320018,12.750065811316102,37.25233271089335,20.64355350865231
1.04,31.222154938618427,131.0104664295197,21.99979756716064,6.995378774581108,-2.698353839592304,32.53292763747032,0.891687720717452,1.1110154258048723,345.46563688072297,37.937115949778125,15.24161727957016,69.74855539154449,-0.2714530918851677,113.41092397034856,879.67191434383,15.288,0.0,2.982012551369836,0.1115111951978425,5.547648278005612e-08,-0.0184246774192188,-0.0077101540209228,0.0018514134109345,7.4953463921124195,12.68470763514654,37.51341618478425,32.564103594794915
1.05,31.22215437339183,131.01046789145073,22.33803332023937,6.967641871784399,-2.673067009322757,19.767410855480595,0.9045732193157356,1.069235284985113,240.45625879819983,38.21704557071848,15.35456069403313,69.73783631014484,-0.2834324656138146,113.39815556744364,892.6726183195541,15.288,0.0,2.989607669096919,0.1123344404993197,5.758537933434052e-08,-0.0189787704629624,-0.0079251130713082,0.0019211013384745,7.460432811896394,12.612845680843456,37.79731348877666,19.81696366079154
1.06,31.222153803846705,131.01046936358995,22.678695830872066,6.936115246808211,-2.646575786035412,28.01061658094948,0.9180833487875624,1.0256205852290992,308.17968365593924,38.51641642749048,15.474209569206812,69.72679559648093,-0.2957297419110471,113.3850473889444,906.683118116504,15.288,0.0,2.9971609710435967,0.113214840595785,5.976401199757171e-08,-0.0195431529904904,-0.0081428588349042,0.0019936613329748,7.421576877128126,12.535714646743775,38.100841094084814,28.044418622341393
1.07,31.22215322987059,131.01047084624628,23.021875111997662,6.91358643749165,-2.623723172475056,32.924665953237,0.9304451163367682,0.9846892711945076,348.5093681440308,38.764576725049416,15.57587717903434,69.71542701029139,-0.3083482667753219,113.37159579158391,918.3739560561106,15.288,0.0,3.0046767162858035,0.1139447222198428,6.201411456698496e-08,-0.020118289974683,-0.008363535397225,0.0020654879920069,7.392438947646295,12.475406413277495,38.35258727586656,32.95252599130398
1.08,31.22215265136592,131.01047233968947,23.367649565817896,6.889211710086422,-2.600381991788245,22.27915626084641,0.943138662639832,0.9426737106365284,261.00157857466235,39.02086419857399,15.680284778477091,69.70372437591305,-0.3212912077610811,113.35779731873971,930.5266370859358,15.288,0.0,3.0121553746235734,0.1146985019976528,6.433747543567316e-08,-0.0207044853009607,-0.0085872220769131,0.0021396535707953,7.36142658657386,12.413160664270396,38.61253736405903,22.31902659071186
1.09,31.22215206859933,131.01047384318326,23.71581561593229,6.855370096056708,-2.5737120606315664,20.52241915057336,0.9572839918464238,0.8966749504708798,246.54375332474407,39.32899252308733,15.802743718228411,69.69168142812353,-0.3345617089114127,113.34364853468038,945.2488581550092,15.288,0.0,3.0195926260616264,0.1156046731339618,6.673615449367559e-08,-0.0213012591715132,-0.0088137011194297,0.0022186342569586,7.320413181714024,12.335806218699206,38.92485072178484,20.564292022816336
1.1,31.222151481644524,131.01047535652384,24.066319165418207,6.826505893755308,-2.54912367199292,40.82431304439277,0.9708167394600944,0.8519890591468708,413.1890617385841,39.607563332900256,15.914797598684732,69.67929181315822,-0.3481628870749849,113.3291460291844,958.6545716515576,15.288,0.0,3.0269852167372604,0.1164239719877714,6.921206075508694e-08,-0.0219086645431698,-0.0090429585225086,0.0022979841347708,7.284808395276789,12.268252318721292,39.207280007726375,40.844741473598525
1.11,31.222150890113035,131.01047688078668,24.41946387163024,6.807487304200936,-2.528386549020195,29.98614537408681,0.982952562648534,0.8106744461659465,324.1593910376397,39.8271064940262,16.006094413459493,69.66654904569697,-0.3620978721225174,113.31428637492832,969.2787147900322,15.288,0.0,3.034344038564773,0.1170697720212256,7.17668280731602e-08,-0.0225277759478945,-0.0092753611272349,0.0023759392749826,7.259787088351408,12.218875855668998,39.430077351338994,30.013202148287203
1.12,31.222150294065685,131.0104784158067,24.775205518675325,6.770228790637849,-2.5011220710832056,11.537380241292366,0.9979394710863336,0.7616949890249204,172.73281794065943,40.15090661603787,16.13381574843937,69.65344669867098,-0.3763696155854306,113.29906633013312,985.069873402373,15.288,0.0,3.041665925069465,0.1180220399653917,7.44024851916523e-08,-0.023158513264368,-0.0095108395001974,0.0024622347367129,7.215432358825644,12.1392892178777,39.75815604306679,11.605481690839948
1.13,31.222149694073327,131.0104799600022,25.13310526409708,6.742945894110473,-2.47773641082694,35.285683233589666,1.0115019732720207,0.7161524852222336,367.5328077900705,40.414810611824365,16.24050746750663,69.63997788390192,-0.3909813976567455,113.2834822976371,998.0274588629266,15.288,0.0,3.048946062952053,0.1187982553930815,7.712146997342249e-08,-0.0237997666431405,-0.0097489467921,0.0025469577400051,7.181791176604529,12.078016212225762,40.025729982977055,35.307441876823276
1.14,31.22214908949704,131.01048151514766,25.49366054539639,6.72263054688211,-2.4570796859932966,19.70512325444651,1.024029240432062,0.6730683501266417,239.69531773195544,40.634666014686296,16.331664181506625,69.62613612042188,-0.4059359750362342,113.26753123612032,1008.8805326107564,15.288,0.0,3.05619402491348,0.1194450004881701,7.99252251811992e-08,-0.024453228040574,-0.0099902707682999,0.0026310332908804,7.155645931430221,12.029904994631922,40.24882712827224,19.743189695743965
1.15,31.22214848080637,131.01048307994455,25.85651082069409,6.683951576021459,-2.4299459887592287,19.429183283892414,1.0395831550102823,0.6217611971793762,237.41251153546767,40.963182063703215,16.46087970506707,69.61191487536522,-0.4212360295994851,113.25121017821004,1025.2235817504309,15.288,0.0,3.063401095990282,0.1204111616309027,8.281619713738332e-08,-0.0251177720628796,-0.0102343590650448,0.0027242886079977,7.110065649484621,11.951337117258078,40.58160145303984,19.466907386680184
1.16,31.22214786813436,131.0104846540246,26.22155623487716,6.665322064357628,-2.4102499001691164,50.25493592399808,1.0519585355744474,0.5785593502905518,490.0437743845894,41.1678947720149,16.546598632117025,69.5973071640548,-0.4368845494069882,113.2345158259622,1035.4599464054213,15.288,0.0,3.070570320662835,0.1210134126146077,8.579649974365278e-08,-0.0257933896163132,-0.0104811742585211,0.0028114486890178,7.085872571193056,11.908343811883553,40.789405256225706,50.26927423792321
1.17,31.222147250642365,131.0104862397241,26.58944851565926,6.637040144542104,-2.387254798675424,9.221114864988468,1.065975671953307,0.5307579551365482,153.70937929486794,41.42892134193504,16.651990318239683,69.58230637858729,-0.4528840316404817,113.21744540198809,1048.595261351364,15.288,0.0,3.077711075356174,0.1217812082812616,8.886746489143256e-08,-0.0264822918979312,-0.0107314791836021,0.0029047377641946,7.051508419264241,11.849922516959316,41.0540407231184,9.297686136531407
1.18,31.22214662943781,131.01048783396791,26.95933381400572,6.5959675675640685,-2.359886078541056,24.639834504970207,1.0822742858424677,0.4765972072829652,280.02501822196746,41.76829240919885,16.784898945270438,69.56690556429074,-0.469237169653899,113.19999591214868,1065.8071977592729,15.288,0.0,3.084808106760296,0.1227793093838888,9.203227635826433e-08,-0.0271816596002825,-0.0109842155407119,0.0030057648102234,7.003657886663009,11.77057248650773,41.39770717041956,24.668196264828648
1.19,31.222146004022896,131.01048943814365,27.33160029995897,6.582971448316074,-2.3426823314825764,42.76265867237207,1.0938103723287769,0.4348530831928428,428.4078130529292,41.928903097842976,16.854897667010913,69.5510975552544,-0.4859467191707012,113.1821642932638,1073.9811997120537,15.288,0.0,3.0918737415209656,0.1232519477563019,9.529248213168929e-08,-0.0278932200211895,-0.0112399699712676,0.0030961994457382,6.985663916111092,11.740567500037375,41.56101794213588,42.77885570073578
1.2,31.222145373970385,131.01049105345055,27.706581214208967,6.547324508182857,-2.3176236350974104,4.7601903374359456,1.1093500042999522,0.3821326491635636,117.1843741360236,42.23008901571967,16.974269164493997,69.53487568721683,-0.5030148296939438,113.16394812412838,1089.426729923094,15.288,0.0,3.09890882385398,0.1241378230221265,9.864988065426e-08,-0.0286180435548191,-0.0114990816334369,0.0031993596869559,6.943733467673944,11.672757409110478,41.86613681609631,4.902662015906828
1.21,31.222144740388966,131.01049267680142,28.083422085718208,6.512832434520496,-2.293161743870616,34.414202504567726,1.1247993343243563,0.3293412131737165,359.92343213200894,42.52270518551808,17.090632483113076,69.51823259490641,-0.52044416274636,113.1453444298674,1104.5365262380678,15.288,0.0,3.1058996922651545,0.1249985170284365,1.021078183193734e-07,-0.0293532802262987,-0.0117604990273863,0.0033041741976365,6.903108465692308,11.607939719994256,42.16259234071481,34.43415416708514
1.22,31.22214410243621,131.01049431055247,28.46277735909004,6.497558589289156,-2.275580988643046,25.029590362102308,1.1367905916275511,0.2855843879642155,283.0687504825761,42.68766838925664,17.161956611047085,69.50116122574309,-0.5382369480539441,113.12635069418832,1113.0824954969128,15.288,0.0,3.112851394967316,0.1254839753478882,1.0566747560094401e-07,-0.0301016000617518,-0.0120251301387728,0.0034014304724408,6.88290032151911,11.577263437220951,42.33031492840252,25.057019874408578
