Time,Latitude,Longitude,Altitude,Angle of Attack,Angle of Sideslip,X-Acceleration,Y-Acceleration,Z-Acceleration,Thrust,True Velocity,Ground Velocity,Pitch,Roll,Yaw,Dynamic Pressure,cp,cg,parachute_deploy_gain,Wind Speed,Wind Direction,Mach,omega_x,omega_y,omega_z,Cmq,Angle of Attack(total),Angle of Attack(gust),True Velocity(gust),Acceleration
0.0,31.222216000000007,131.010392,3.000000004412624,0.0,0.0,0.0,0.0,0.0,2.2828121974499247,0.0,0.0,69.99999999623412,0.0,119.9999999935444,0.0,1.274,1.0271675151847728,0.0,0.0,0.0,0.0,0.0,0.0,0.0,-0.0,0.0,90.0,0.0,0.0
0.01,31.22221599999084,131.01039200000497,3.000002745347096,0.0,0.0,0.0,0.0,0.0,34.242186961749226,3.465174813755316e-14,2.8705476994166025e-14,69.9999999962611,-2.1713911667908447e-11,119.99999999352175,7.352495975525499e-28,1.274,1.0271659134330349,0.0,0.0,0.0,1.0183245502395064e-16,-3.3305335486039093e-18,7.169286865560398e-18,5.624298769768554e-18,-7.715917190115602e-34,0.0,89.99999999999979,3.465174813755316e-14,0.0
0.02,31.222215999994315,131.0103920000094,3.0000030495639742,0.0,0.0,0.0,0.0,0.0,25.871876237766216,3.8197434737535036e-11,2.4171837235633357e-11,69.99999999628672,-1.1921727947863515e-11,119.99999999353136,8.93414285188691e-22,1.274,1.027164492361118,0.0,0.0,0.0,1.1225230367947217e-13,-6.657678965418802e-18,1.4338573731120796e-17,1.1241821275959074e-17,-1.7010872994127372e-30,0.0,89.99999999975682,3.8197434737535036e-11,0.0
0.03,31.222215999994315,131.0103920000094,3.0000030495639742,0.0,0.0,9.81877837424427,-2.5122800045972096e-05,3.3498614629347925,180.34219359854663,1.2659015405517447e-10,1.1364406173918436e-10,69.99999999631459,-1.6431898037347223e-11,119.99999999352724,9.812605835254651e-21,1.274,1.0271551940870716,0.0,0.0,0.0,3.720154642239108e-13,-9.991600645811728e-18,2.150108433310316e-17,1.6859343782149594e-17,-8.453698244545225e-30,0.0,89.99999999919412,1.2659015405517447e-10,10.374487003414373
0.04,31.222215999994315,131.0103920000094,3.0000030495639742,18.83801224594347,-0.0001111777826462,48.68248476615645,-1.016330065874988e-05,3.3497854396877287,548.635972453808,0.1556173050466994,0.0975908358443652,69.99999999633813,-2.0932768807056278e-11,119.99999999352085,0.0148286043323172,1.274,1.027133720825283,0.0,0.0,0.0,0.0004573186944143,-1.3322134194415637e-17,-1.04744143520903e-11,1.336824254131964e-11,5.0626055458604615e-15,18.83801224625964,89.06236267790787,0.1555998412814392,48.79759610369246
0.05,31.22221599164764,131.01039201704114,3.002326315126219,5.772385609593056,-4.395076213712875e-06,71.20344550265034,4.905512691849684e-05,3.349217396035405,761.6984298824663,0.8326471944351852,0.3620326097059287,70.00000001316391,-1.0866255162484559e-10,120.00000000231074,0.4245281043148827,1.274,1.027093426565204,0.0,0.0,0.0,0.0024469331205246,-5.0245994431125096e-18,-7.32924164976824e-07,2.217344936947165e-11,1.895424184525467e-09,5.772385609594774,84.74112356985832,0.8326465040582279,71.28217104309611
0.06,31.22221596664444,131.01039206837547,3.015081730143309,4.056581213689704,3.169093567502233e-05,53.16249142470188,0.0001203825427859,3.3481235983850643,590.4875390737236,1.657216205300742,0.6755452977614796,69.99999964391398,-3.9285905645317736e-10,120.0000000287861,1.6816755551786196,1.274,1.027050317124926,0.0,0.0,0.0,0.0048701272653724,3.095757869075056e-13,-7.483541766772344e-06,3.074135420506017e-11,3.8518749565858254e-08,4.056581213813337,79.59316473687034,1.657221183301277,53.26781792157489
0.07,31.22221592883117,131.0103921460222,3.034593611434361,4.115662018628709,6.450869598349036e-05,81.18203554989698,0.0001593212642178,3.347059402768047,855.2937749779172,2.099899704220947,0.8579771146174259,69.99999543281565,-8.233801910783518e-10,120.00000006883089,2.700101932075157,1.274,1.027003201295312,0.0,0.0,0.0,0.006171060252819,3.4704292086287e-12,-2.6327204536316785e-05,1.9541142932033486e-10,1.7170712165327165e-07,4.115662019133419,76.90111966094352,2.099909837223217,81.2510043180746
0.08,31.22221588914193,131.01039222747755,3.0542761843835606,3.459696193892355,8.037433511260004e-05,16.298214211652088,0.0002413456836072,3.344878926597744,241.2171988638792,3.051964775152957,1.2149999716613011,69.99998042886442,-1.0128995578004475e-09,120.00000011111383,5.703497661025892,1.274,1.0269597189470347,0.0,0.0,0.0,0.0089689344021769,1.458982438104473e-11,-5.702803872814215e-05,7.043261397829576e-10,5.405702492731987e-07,3.459696194824858,71.30331929508368,3.051977400323993,16.63790856991177
0.09,31.2222158241468,131.01039236098703,3.0886872184095737,4.313676956300389,0.0001337561018991,50.35975918308536,0.0002293282821279,3.344215841840564,563.0937377043203,2.893161298572128,1.191209213966114,69.99994788602814,-7.098432023887522e-10,120.00000018106356,5.125380275808925,1.274,1.026918932011013,0.0,0.0,0.0,0.0085022553945842,3.8672912027154325e-11,-0.0001115933708951,2.016054215232918e-09,1.0027525988343615e-06,4.313676958370176,72.2316578138625,2.893182308931483,50.47067588835877
0.1,31.2222157788302,131.01039245392113,3.109877853389092,4.035124630954496,0.0001457499816535,47.804664812504015,0.0002878217657545,3.341734392237128,538.7437595981891,3.5677148583138303,1.4531247507621967,69.99988403958329,1.9248461973355822e-09,120.0000002323013,7.7939962029572305,1.274,1.0268846934974103,0.0,0.0,0.0,0.0104845969583028,8.579678749070606e-11,-0.0001726817043215,3.984565639703107e-09,1.913455350430327e-06,4.0351246335824245,68.43243098813296,3.567737752667411,47.92132267234452
0.11,31.222215703308,131.01039260899836,3.148841432727305,4.043401107254707,0.0001752764476999,37.67622367577205,0.0003286462930162,3.3392563999062723,442.86563930529127,4.034183355956686,1.6436552022667772,69.99978525353545,7.302513231814865e-09,120.00000031883242,9.96528118825134,1.274,1.026848594915519,0.0,0.0,0.0,0.0118554331868328,1.5870341853361987e-10,-0.0002596204409236,7.232030302688121e-09,3.252930323390323e-06,4.04340111104746,65.92012987243639,4.034210888316708,37.82391391539392
0.12,31.222215627491828,131.01039276462643,3.186995101203875,4.17874459224363,0.0002066711490009,41.15991989399172,0.0003576945202315,3.336766085769504,475.58594813540793,4.361857560629481,1.7865750500940407,69.99963665601238,1.781774420198147e-08,120.00000041104812,11.649831899889556,1.274,1.0268114448194128,0.0,0.0,0.0,0.0128183893919737,2.682972478760441e-10,-0.0003710216542429,1.2215991071490164e-08,5.026311388647148e-06,4.178744597345269,64.21681651392016,4.361890024457652,41.29495143136631
0.13,31.22221554594398,131.01039293200228,3.2277173449026786,4.202734874672792,0.0002327160860324,45.44886120763352,0.0003953741266062,3.333578629398489,515.9156326236897,4.792165672014363,1.9646716520715424,69.99942424225341,3.613383418913551e-08,120.00000051758742,14.061726603124043,1.274,1.026779572895131,0.0,0.0,0.0,0.0140829618979635,4.248908088871395e-10,-0.0005056103199642,1.908859219307828e-08,7.5253154423526356e-06,4.202734881104192,62.048594618540655,4.792202226971676,45.570952718869485
0.14,31.222215454191247,131.01039312033683,3.2737880595608355,4.184830647080848,0.000257138757548,42.32232525579263,0.0004369426767266,3.329727443445437,486.2390860568421,5.269261304374574,2.158791628597544,69.99913473613935,6.515851355725497e-08,120.00000064630268,17.000925061330125,1.274,1.0267449573927567,0.0,0.0,0.0,0.0154850332441425,6.382432869666793e-10,-0.0006690086306358,2.8426433029675884e-08,1.0948547100483978e-05,4.184830654966803,59.74181173116622,5.269301695636157,42.45310707234106
0.15,31.222215353826755,131.0103933263496,3.3242182719560263,4.21963947489699,0.0002846467688673,40.886944113003565,0.0004726792395108,3.325585650885676,472.5421858721398,5.6781946837482895,2.329510773545807,69.99875162806286,1.0876776246115984e-07,120.00000079954532,19.742017654108928,1.274,1.0267115958081523,0.0,0.0,0.0,0.0166867950518804,9.204756288136623e-10,-0.000865746478554,4.08948221429571e-08,1.526771148078443e-05,4.219639484480408,57.84996018384879,5.678239395958187,41.02196629910223
0.16,31.222215247130432,131.01039354534575,3.3775922280208457,4.253495568077899,0.0003118339050386,32.26872905470846,0.0005078415214353,3.32090791922544,391.1218908297597,6.081244877834229,2.4981889727471702,69.99825581174558,1.7187028096464329e-07,120.0000009800088,22.644030778355887,1.274,1.026675762255412,0.0,0.0,0.0,0.0178712695992133,1.2856146928958252e-09,-0.0010961187242953,5.6923362293832417e-08,2.0702404729358337e-05,4.253495579487569,56.06022383757386,6.081293860589489,32.43916312841722
0.17,31.22221513260033,131.01039378041813,3.4348437275053194,4.364838523348639,0.0003448792023946,40.840448242802736,0.0005326487904353,3.3162727284953744,471.78125980632416,6.362544479165355,2.6250789114832647,69.99762801982864,2.5997588617291615e-07,120.00000119506798,24.78723182122683,1.274,1.0266409836796937,0.0,0.0,0.0,0.0186979513961862,1.747791994374917e-09,-0.0013624931601664,7.706724512977917e-08,2.6923621797558364e-05,4.364838536947241,54.85936171416122,6.362598652663785,40.97486885600156
0.18,31.222215014088988,131.01039402363364,3.4935801365785646,4.353948305387995,0.0003681615230806,33.992183768165326,0.0005718025428208,3.310131992647221,407.1015672119096,6.81502088160835,2.810667639293692,69.99684761766231,3.794979223522764e-07,120.00000144728236,28.437950785509614,1.274,1.0266048342046536,0.0,0.0,0.0,0.020027681385988,2.3221419748804155e-09,-0.0016616990447559,1.0147209890543081e-07,3.517105786247627e-05,4.353948320923495,52.99157233768714,6.815078712285162,34.152972512863755
0.19,31.22221488419521,131.01039429023237,3.558399965607869,4.432620772533925,0.0003996774584738,38.45149959021069,0.0005986099513107,3.304145139297767,448.95313283182486,7.1223367465208405,2.946425726785696,69.99589577323147,5.440084577183829e-07,120.00000176148238,31.060341085698347,1.274,1.026566130444714,0.0,0.0,0.0,0.0209308229359413,3.022391489754689e-09,-0.0020041563310821,1.3135864879722746e-07,4.433199397898183e-05,4.432620790516937,51.77883352025967,7.122399527709208,38.59320142454953
0.2,31.222214751373183,131.01039456280608,3.624052454705669,4.443889400961181,0.0004246617145652,35.23432408779927,0.0006337972852267,3.2968110145188256,418.5156301991588,7.530482904611057,3.1167566004785483,69.99474776398331,7.478025600151903e-07,120.00000211715036,34.72195181863731,1.274,1.026529240027363,0.0,0.0,0.0,0.0221302820454282,3.866698391504749e-09,-0.0023849544920781,1.668144671071589e-07,5.57780533277244e-05,4.443889421210987,50.22448880200342,7.530549610317194,35.38822625098952
0.21,31.222214608673173,131.01039485566503,3.6948551453492566,4.493351735844891,0.0004538195602194,33.79371564104691,0.0006629296043866,3.2891790438445727,404.8187610144608,7.868284042829251,3.2629204975089228,69.99338155599101,1.0150082652278477e-06,120.00000255293388,37.906665490338085,1.274,1.0264923657015164,0.0,0.0,0.0,0.0231230169900677,4.871073773182836e-09,-0.0028117605859743,2.089322918608601e-07,6.870935089180403e-05,4.493351758715364,48.992529909481824,7.868355328639073,33.95340801819282
0.22,31.22221446109996,131.01039515850383,3.767700382407304,4.5412639153933885,0.000482649303782,41.008966751568416,0.0006914639179131,3.2808061382386606,472.5421858721387,8.20057841132235,3.4071691679735228,69.9917708347139,1.3454961520984431e-06,120.00000305929996,41.175744234065135,1.274,1.0264494137127138,0.0,0.0,0.0,0.0240995709751246,6.054779813287368e-09,-0.0032829112061357,2.580881224843564e-07,8.3609968899004e-05,4.54126394098788,47.82515604752711,8.2006542256977,41.13999323561041
0.23,31.22221430675399,131.0103954752338,3.843768625625224,4.52371495179584,0.0005047555656171,33.98493478127787,0.0007294889663961,3.2705214710765107,406.340642146096,8.647938096586296,3.5908865300848416,69.98989017772566,1.7539876018835507e-06,120.00000365514876,45.79040229326471,1.274,1.0264133390858623,0.0,0.0,0.0,0.0254142776666487,7.436335125872812e-09,-0.0038001790077148,3.1489825108822685e-07,0.0001020628978177,4.523714979897577,46.31461705147579,8.648017383405135,34.14194053232237
0.24,31.222214142622448,131.0103958120587,3.92493179063287,4.57837522350066,0.0005351929930195,35.051650311058864,0.0007555049947555,3.26053011385611,416.2328240017099,8.954297884844461,3.72617527247482,69.98771316795013,2.25257161141768e-06,120.0000043564586,49.09180568115741,1.274,1.0263750048312463,0.0,0.0,0.0,0.0263146218848643,9.034877387788232e-09,-0.0043732521010013,3.809642748985157e-07,0.00012161410144,4.578375254714954,45.32798984252032,8.954381952763216,35.20297212911011
0.25,31.22221397517227,131.0103961556623,4.0071748888306855,4.6034117733065,0.0005618935542827,36.03738579534623,0.000785606492708,3.249069743648399,425.3640807915084,9.311611941121669,3.8789349536029696,69.98520781816889,2.8559738498748624e-06,120.00000517181904,53.08749562138344,1.274,1.0263373768840591,0.0,0.0,0.0,0.0273647110956883,1.0873791100894836e-08,-0.0049950711786164,4.5609738277273444e-07,0.0001444478241125,4.603411807525074,44.2165428352526,9.311700203154778,36.183554686886296
0.26,31.22221379934012,131.01039651647062,4.09364247475714,4.621386912291471,0.0005881033207375,39.29107511182762,0.0008162761165496,3.236407051295005,455.80158342417656,9.67833954512075,4.034902068846398,69.98234620927953,3.5784678110229355e-06,120.00000612171208,57.350948423913096,1.274,1.0263006300381676,0.0,0.0,0.0,0.0284424679130479,1.2973286442992724e-08,-0.0056712051373577,5.414206381221602e-07,0.0001704578711045,4.621386949630312,43.12063533194282,9.678431924174348,39.42414126789902
0.27,31.222213616776543,131.01039689108487,4.183310605341074,4.617158109135719,0.0006115457810536,35.90419462403674,0.0008503454714941,3.221982799915672,423.8421996598744,10.088790784535757,4.205862468567124,69.97909721779352,4.436165972465058e-06,120.000007221354,62.31798301949865,1.274,1.026260090595354,0.0,0.0,0.0,0.0296487219805601,1.5355910600537293e-08,-0.0064045199323113,6.379142666348734e-07,0.0002006609239367,4.617158149547818,41.94410287616451,10.08888684592241,36.048472443180565
0.28,31.22221342607797,131.0103972823952,4.277051150896916,4.642105655370123,0.0006389739579882,41.51133203546672,0.0008785747638736,3.2071101123224945,476.3468732012228,10.432377224420517,4.35383399240675,69.97542808435722,5.446665372087172e-06,120.00000849080963,66.63429581008447,1.274,1.0262212716723291,0.0,0.0,0.0,0.0306584788590473,1.8045308789081613e-08,-0.0072006835403936,7.469524967369969e-07,0.0002332868227611,4.642105699250441,41.0023231023774,10.432477594215127,41.63503624837164
0.29,31.22221323001776,131.01039768469093,4.373143569786686,4.62134615173668,0.0006600657405645,33.17552944492765,0.0009148746278066,3.1894209319791806,397.9703104221098,10.876662296046485,4.536381530986506,69.9713027936179,6.629751536885327e-06,120.00000994797426,72.43000748232016,1.274,1.026183007522519,0.0,0.0,0.0,0.0319641703260467,2.1067646517035105e-08,-0.0080566154554079,8.688043379161898e-07,0.000272130659453,4.621346198772975,39.83162628795024,10.876765978930557,33.32848872465723
0.3,31.22221302403368,131.01039810736614,4.4744193758467325,4.664362353358112,0.0006905183788532,31.08096762732793,0.0009381960428197,3.172549142946348,378.1859457108735,11.168362145070317,4.66647911311536,69.96668711012893,8.005507138509574e-06,120.00001161892672,76.36634300732833,1.274,1.0261430389738484,0.0,0.0,0.0,0.0328214509167604,2.4447409007156216e-08,-0.0089829108229115,1.0056222251461646e-06,0.0003115527202986,4.664362404357781,39.09908960432563,11.168470611443622,31.242464973103964
0.31,31.22221281503337,131.01039853619727,4.576593712520673,4.700143580504286,0.0007196683316923,32.79732593144512,0.0009620705970519,3.154230688182399,394.1656220930229,11.470279728974068,4.800072153432283,69.96154070456518,9.597499105113692e-06,120.00001352112182,80.55022837857167,1.274,1.0261054058068628,0.0,0.0,0.0,0.0337087616009043,2.8214060606649844e-08,-0.0099686353219717,1.1565909895184251e-06,0.0003550834484269,4.700143635477137,38.36463422765983,11.47039277421126,32.94865339301887
0.32,31.222212598991007,131.01039897947376,4.68216432480395,4.718667719113184,0.0007464384342556,35.7316568886908,0.0009885845337584,3.133859770838664,421.5593934624264,11.808280530415894,4.946054328851105,69.95582953472353,1.14278227255889e-05,120.00001568218067,85.36654007972253,1.274,1.026068246703101,0.0,0.0,0.0,0.0347021168382987,3.2392058795580455e-08,-0.0110163301561155,1.3226102501723267e-06,0.0004039614423012,4.718667778018562,37.5686120062341,11.808397780690962,35.8688218659563
0.33,31.222212376029034,131.0103994369436,4.791055524254013,4.72141404831576,0.0007708346814671,35.42013590291081,0.0010176135371143,3.1111955852784385,418.5156301991632,12.181577273013426,5.104163223586657,69.94951809396906,1.351997394754887e-05,120.00001812674968,90.84831229869296,1.274,1.0260310883392356,0.0,0.0,0.0,0.0357992034445943,3.700677535501642e-08,-0.0121310534481307,1.5051409581878843e-06,0.0004588955105349,4.721414111097893,36.7208578211118,12.181698355442045,35.55651229220977
0.34,31.222212145785647,131.0103999093516,4.903491659547144,4.73024573449122,0.0007962944975467,27.63851074646407,0.0010446307681611,3.0871492806781062,345.4656368807584,12.53557620048282,5.2556261014174765,69.94256797855994,1.5899658158227497e-05,120.000020882338,96.20413272674828,1.274,1.0259901535019136,0.0,0.0,0.0,0.0368395817555172,4.208561016221623e-08,-0.0133180771902383,1.7057647550599631e-06,0.0005184333231541,4.730245801363397,35.94841996438923,12.535701282129995,27.810389570354005
0.35,31.222211909310875,131.01040039453565,5.018822212845608,4.780248518778662,0.0008286678570753,30.332092807652543,0.0010618579815451,3.063967690608957,370.5765700527057,12.774786382148209,5.367579971644358,69.93493776125636,1.8594985713558667e-05,120.00002397748868,99.9096898192772,1.274,1.025950003202184,0.0,0.0,0.0,0.0375426220587071,4.7658312175989686e-08,-0.0145774693288123,1.9252724355785177e-06,0.0005782798420984,4.780248590437683,35.44790728185619,12.774916548990808,30.486451961956565
0.36,31.22221166933814,131.0104008868675,5.135354490370708,4.798132156899578,0.0008554457330409,34.32674769697476,0.0010851169437774,3.0374319611165923,407.8625232777224,13.09301701329486,5.506730645516068,69.92658597246795,2.163521613217148e-05,120.0000274401514,104.94818266210537,1.274,1.0259105142325406,0.0,0.0,0.0,0.0384778908056978,5.3755109608570216e-08,-0.0158991451700967,2.162609490834569e-06,0.0006464142451675,4.798132232978766,34.796094028187134,13.09315138639638,34.46087058603792
0.37,31.222211421355144,131.01040139563804,5.255882891363927,4.797392186816851,0.0008791822061288,32.551601855236584,0.00111162791192,3.0078619428913056,391.1218908297639,13.457513730739372,5.661815946371007,69.91747693543164,2.5047738471809164e-05,120.0000313040604,110.87154396328836,1.274,1.025872170958032,0.0,0.0,0.0,0.0395491312153729,6.040098808671168e-08,-0.0172926678053148,2.420031948898497e-06,0.0007226353721561,4.797392267189059,34.07332166419882,13.457651832357364,32.69027405888565
0.38,31.22221116634284,131.01040191882743,5.379799334000849,4.811698494594017,0.0009057112478668,34.02947987649063,0.0011338447913587,2.9774881690446744,404.81876101445977,13.77554886562956,5.800899861213392,69.90756948297444,2.886339581486796e-05,120.00003560072224,116.17243393848278,1.274,1.02583050512925,0.0,0.0,0.0,0.0404838339452728,6.762496638941508e-08,-0.0187646375218858,2.69955777313946e-06,0.0008026686661094,4.8116985796350695,33.46655348088405,13.775691134419684,34.15949264475229
0.39,31.222210906095896,131.01040245274032,5.505993307722699,4.813508003664984,0.000929862892873,29.00025983045028,0.0011579891265804,2.9442136901860865,357.6406249338268,14.124492165837273,5.950648592462506,69.8968186645841,3.311602501056718e-05,120.00004036395212,122.13093644173792,1.274,1.02579027384009,0.0,0.0,0.0,0.0415093739609825,7.545934774906889e-08,-0.020311592409804,3.0013532510753577e-06,0.0008908380763632,4.813508093268025,32.821616487639595,14.124638228358922,29.149330452482886
0.4,31.222210638473225,131.0104030017851,5.635788650457906,4.841647069358873,0.0009592124397379,27.71178845184976,0.0011749448424961,2.91135549588368,345.4656368807565,14.390874239274588,6.07193451174791,69.8851815212744,3.783947407715338e-05,120.00004563180136,126.77947425345651,1.274,1.0257493418632293,0.0,0.0,0.0,0.0422922854866381,8.39343718693383e-08,-0.021938519432511,3.3271332720311508e-06,0.0009803271643914,4.841647164150728,32.348088166612904,14.391024912012275,27.864299944624147
0.41,31.22221036681104,131.01040355909262,5.767123077463226,4.86553909860892,0.0009876699832274,31.306062598221665,0.0011918093836199,2.876450850006428,378.9468707766882,14.663028799871563,6.195223154320929,69.87261222561014,4.307011032901644e-05,120.0000514391194,131.6183642808765,1.274,1.025708445186429,0.0,0.0,0.0,0.0430921644173401,9.308325447883581e-08,-0.0236371933433427,3.6760977501392174e-06,0.0010761942383903,4.865539198612839,31.87689439156756,14.663183942709727,31.437931330109585
0.42,31.22221008906472,131.01040412887247,5.901259531771367,4.867510642114694,0.0010118258958528,35.308283402190774,0.0012128114559048,2.8374461227958245,416.23282400171047,14.9952917972178,6.33928625560071,69.85906967380902,4.884273094936628e-05,120.00005782486392,137.64909586091787,1.274,1.0256701057426505,0.0,0.0,0.0,0.0440686959134695,1.0293499639582845e-07,-0.0254093547296826,4.049238334851429e-06,0.0011830797791891,4.867510747027452,31.315270489291198,14.995450734457847,35.422111438762386
0.43,31.222209804115888,131.01040471342728,6.038886819939341,4.854590670645608,0.0010330089741511,31.00586934514032,0.0012363751872706,2.794478603999558,375.90313951343126,15.369430568701889,6.497852263156962,69.8445117629242,5.519340856908871e-05,120.00006482835984,144.60167924299955,1.274,1.0256308158337524,0.0,0.0,0.0,0.0451682983415116,1.135186446762958e-07,-0.0272634397889413,4.449073329427772e-06,0.0013010625065656,4.854590780289497,30.70250814963406,15.369592833372094,31.13154422839874
0.44,31.22220951192321,131.01040531284193,6.180028459770617,4.866912332640401,0.0010595850174406,28.57707721036899,0.0012525768202179,2.752165534925872,353.07501253892326,15.659290812546615,6.627318538707029,69.82889155423543,6.216182865383864e-05,120.00007249162944,150.1053167542629,1.274,1.025586171750536,0.0,0.0,0.0,0.0460202245100907,1.2486676023179565e-07,-0.0292060158163984,4.8779154055816594e-06,0.001420032405556,4.866912447705031,30.24619499837236,15.659457251771938,28.709297424144207
0.45,31.222209215425703,131.01040592106523,6.322872201489905,4.881836476567178,0.0010866574689855,33.31904824532484,0.0012669045761511,2.7082028218433374,397.2093853562887,15.934249290371609,6.751662050993672,69.81215834018458,6.97909417564726e-05,120.00008085697964,155.42080512416243,1.274,1.0255397023523487,0.0,0.0,0.0,0.0468283602442113,1.3701614206272197e-07,-0.0312276295846745,5.334643585560923e-06,0.0015449645531859,4.8818365972149325,29.82567893138932,15.934419982127675,33.428929688274074
0.46,31.22220891307435,131.0104065412864,6.468371919199588,4.869610441729251,0.0011078049156487,38.95909776354321,0.0012868374716666,2.6582856015412624,449.7140588976424,16.292139278621757,6.904766425053949,69.79426683863348,7.812149592850748e-05,120.00008996920153,162.4785746623087,1.274,1.02549635315424,0.0,0.0,0.0,0.0478802236363867,1.499987870203256e-07,-0.0333272350234362,5.819761874615242e-06,0.0016858511402973,4.869610567434908,29.29014635640275,16.292313292210977,39.04968351401366
0.47,31.22220860266524,131.01040717804253,6.6178810515614845,4.838450928223533,0.0011247917292402,26.253747818137555,0.0013104398935566,2.6026193242279367,331.0078106302504,16.710658191447514,7.078951441335346,69.77517236812905,8.719457259907165e-05,120.0000998741591,170.9309671061642,1.274,1.025453319323251,0.0,0.0,0.0,0.0491102725711187,1.6384464803343264e-07,-0.0355167087264168,6.3368207228363735e-06,0.0018427306558807,4.838451058652396,28.68386015667837,16.710834873319172,26.382435512333956
0.48,31.222208284201663,131.0104078313267,6.771393590864176,4.869339340099417,0.0011561785713505,25.860860976019296,0.0013165328518772,2.5543454292827983,327.20312230115803,16.911139899671,7.177575416403102,69.75482343794755,9.70562828082882e-05,120.00011062072316,175.0543877818846,1.274,1.0254092882449153,0.0,0.0,0.0,0.0496995461609974,1.7858865391586845e-07,-0.0378054080201581,6.88909442277235e-06,0.0019849793891693,4.869339477030596,28.40887970825325,16.911321511776286,25.986704537635287
0.49,31.22220796480208,131.01040848648364,6.924537656029012,4.881367714530694,0.0011829003785372,32.565703383222065,0.0013261973190012,2.5011623511055703,389.6000096981238,17.169005224738054,7.296160258358563,69.73316318155707,0.0001077573203115,120.000122255028,180.4309832312717,1.274,1.025367445590036,0.0,0.0,0.0,0.05045746454003,1.942747077649401e-07,-0.0401641298712614,7.47069711110948e-06,0.002140948887153,4.881367857509675,28.058569663954906,17.169191034294997,32.66161128464712
0.5,31.222207637929923,131.01040915697027,7.081324512896956,4.862566137860805,0.001202418260511,33.47759680712428,0.0013425340759632,2.4399894027711366,397.970310422106,17.52898693231981,7.450304424940405,69.71015149227495,0.0001193385310595,120.0001348274002,188.0736471953394,1.274,1.0253278572281015,0.0,0.0,0.0,0.0515154948878309,2.109295159784217e-07,-0.0426011733481599,8.084173008518589e-06,0.0023184335011768,4.862566286171007,27.57768313050809,17.529175807738486,33.56639745442473
0.51,31.22220730314019,131.01040984370235,7.24202048914867,4.8479762258125,0.001223054804074,25.49162310288008,0.0013562860883156,2.3767006597692686,323.39843497208153,17.86914397471067,7.597652147346554,69.68574349602717,0.0001318441288964,120.00014838524436,195.4407439266201,1.274,1.025286455263166,0.0,0.0,0.0,0.0525152689856776,2.2858192086249162e-07,-0.0451315948093539,8.734206149830708e-06,0.002503767471626,4.847976379721193,27.13799345359824,17.86933609171003,25.602178740977283
0.52,31.222206962738102,131.01041054193402,7.405210501673173,4.865306299521403,0.0012516517170965,30.733671928447727,0.0013599291289974,2.317711624364424,372.098451184342,18.08534843773428,7.701914987606457,69.65988568649581,0.0001453248538387,120.00016298000436,200.19561780583155,1.274,1.0252426840672306,0.0,0.0,0.0,0.0531507657929359,2.4726951523704535e-07,-0.0477531686556663,9.421346966092632e-06,0.0026812161964639,4.865306460134566,26.8699055233151,18.085545046726228,30.820940596104087
0.53,31.222206619320115,131.01041124632013,7.569307468221277,4.848802699234936,0.0012715119568563,32.301199055744725,0.0013711327835325,2.2490252325653923,386.55624643486095,18.41963113311156,7.8474319110539055,69.6325258319474,0.0001598315062727,120.0001786629144,207.6614205945027,1.274,1.0251993415311351,0.0,0.0,0.0,0.0541332845214831,2.67031759303889e-07,-0.0504479325599339,1.0141887756417996e-05,0.0028848299490111,4.848802865552398,26.45837260670532,18.419830861742675,32.37940050117613
0.54,31.22220626697288,131.01041196903336,7.737918664599091,4.831496690588052,0.0012913635058467,28.31291960103712,0.0013809098107221,2.177242866245296,349.2703242098436,18.75116898748492,7.992112829440902,69.60362200959217,0.0001754082864028,120.00019548734956,215.20067397992847,1.274,1.0251561018460285,0.0,0.0,0.0,0.0551077428911958,2.878941684235108e-07,-0.0532336286085667,1.090122304443916e-05,0.003098869611663,4.831496862756785,26.061835558272342,18.751371834390056,28.396510432451375
0.55,31.222205908994248,131.01041270328463,7.909026079894722,6.513254524653416,3.221351441463697,30.068444254434496,-0.1684980275329739,2.0122048554421923,365.2500005919912,19.321439881558085,8.113323699629928,69.57312211246325,0.0001921068626005,120.00021350480982,228.48556729167785,1.274,1.025112921033824,0.0,1.2532017829729258,0.0,0.0567838195707577,3.0989272306468813e-07,-0.0561100530405476,1.1700476995263424e-05,0.0033655954893797,7.263252841114067,28.864298325220624,19.8271820386331,30.136169296172707
0.56,31.222205546564343,131.01041344664463,8.081909946161325,4.810342823913507,3.7176272572454514,28.03042976437236,-0.235108892120724,2.0084270036974394,346.22656194657776,19.3659675013274,8.249440985479161,69.54097415464405,0.0002099796112633,120.00023276987916,229.5360925416556,1.274,1.0250709539098009,0.0,1.2577738927225492,30.0000128556565,0.0569147928845154,3.33055098311298e-07,-0.0602110325869796,0.0020678997594897,0.003619843662322,6.076812776472285,28.97675653822029,19.94952135975822,28.10327468455851
0.57,31.22220517743276,131.01041420478916,8.258244915209472,4.8037526064167295,3.6723339813954174,27.71927526898558,-0.2851107559330314,1.9314050807002807,343.1828296833045,19.63641028476296,8.373692340605086,69.50647648621381,0.0033802394768671,120.00361702871795,235.9877332964224,1.274,1.0250279191823897,0.0,1.2623102824056371,30.000012855656493,0.0577097140869292,3.590241254556729e-07,-0.0632520940388236,0.0044502288829347,0.0038557084967408,6.0440427771503815,28.63475312734672,20.212864281699837,27.78794406152962
0.58,31.2222048035822,131.01041497272382,8.436460728683517,4.79240545226928,3.626195388912416,36.65390064373288,-0.3369556893699348,1.8510696776065632,426.12500585731766,19.91226644437323,8.499550427880918,69.4702361633593,0.0101845048287214,120.01088204973908,242.6605576586674,1.274,1.024981594484354,0.0,1.2668518344190975,30.0000128556565,0.058520549170554,3.8751232436280244e-07,-0.0663744355619203,0.006869333829453,0.0041028089175066,6.007142042864823,28.292175179979655,20.48148770345684,36.70215839005378
0.59,31.22220442401868,131.01041575281204,8.617342054419206,4.746915451589128,3.5559526542405377,29.632485526713527,-0.393197893238028,1.7564454531212332,360.68438819710633,20.32290152646477,8.67308152084671,69.43220612638865,0.0206570598561955,120.0220663707526,252.7677624979877,1.274,1.0249386802161349,0.0,1.271362045875436,30.000012855656493,0.0597274945174854,4.185682706082248e-07,-0.069577620058672,0.0093252708743172,0.0043894235975917,5.928663726584824,27.78856645959628,20.881110747971768,29.687099954423367
0.6,31.222204035008243,131.01041655272584,8.803093182870995,4.735221570794211,3.512232790501204,26.294091590512984,-0.4489430854008074,1.670388650226749,329.4859594986072,20.58429929569488,8.794142419984565,69.39233929503243,0.0348299666756682,120.03720633270916,259.3072670928873,1.274,1.024891335813742,0.0,1.2758603388208034,30.000012855656493,0.0604958498671961,4.5223429560483074e-07,-0.0728829314306791,0.0118336206183951,0.0046570015847028,5.89321620755423,27.479208164500005,21.135654077183705,26.350920300950044
0.61,31.222203643783505,131.01041735758187,8.989349776673329,4.7248360399718505,3.470694654172953,30.897634012532407,-0.506002961069199,1.5827216216946876,372.0984511843332,20.83074855993377,8.910064331158468,69.35057607709517,0.0527565461439153,120.05636116173793,265.5488949394559,1.274,1.0248423929069768,0.0,1.2803990073380749,30.000012855656493,0.0612202760590563,4.885824846801652e-07,-0.0762654763982149,0.0143748629013824,0.0049313924126028,5.860245138075012,27.1925000404524,21.375590657153637,30.942282305944886
0.62,31.222203246801584,131.01041817465887,9.178243763157734,4.692990314730992,3.414530424944424,38.53195645297684,-0.5669118733880318,1.4842055016179725,442.86563930529206,21.16242859022409,9.056357883667063,69.30687086939595,0.0744578000075409,120.07955576313611,274.06771502330844,1.274,1.0247996097896497,0.0,1.2848708641997275,30.000012855656493,0.0621951955993998,5.276581239394331e-07,-0.0797218926475003,0.0169461246124219,0.0052368716185576,5.801472662558872,26.811062683466,21.69846435155574,38.5646978872819
0.63,31.22220284214581,131.01041900788724,9.370913011568716,4.639562182939367,3.344206495677439,21.67058487830885,-0.6327285936358336,1.373020782905766,286.11251274707456,21.585084911375933,9.235198192609896,69.26117968895994,0.0999478477242513,120.10680787286196,285.11912906304855,1.274,1.024756158874558,0.0,1.289325687086788,30.000012855656493,0.0634374968039476,5.694978498357933e-07,-0.0832652564189319,0.019556482228781,0.0055787689052219,5.717061659539004,26.336213309333463,22.110093424898988,21.723254372019948
0.64,31.22220242893544,131.01041985906016,9.567867763977748,4.647472972719616,3.318774010711503,21.27872483461437,-0.6920749457886495,1.2864626020771808,282.3078244179702,21.718055171928647,9.311258271420511,69.21345073665918,0.1292518979877726,120.13814727788385,288.6373200276464,1.274,1.024708534665538,0.0,1.2937921625597824,30.000012855656493,0.0638284316423656,6.141470664684101e-07,-0.0869098277462125,0.0222157367239103,0.0058587152964249,5.708685847161933,26.190523612251894,22.239075511399346,21.32880878868686
0.65,31.22220201727422,131.0104207074594,9.763080979417564,4.6360658750873975,3.280389095330036,37.937575303480806,-0.7547682104923203,1.1900697887127976,436.7781447787504,21.928994806431632,9.415209983734368,69.16362367648392,0.1624070352161709,120.17361667260222,294.2658929184961,1.274,1.0246641738210605,0.0,1.2982800188985424,30.000012855656493,0.0644485161035418,6.616864704847276e-07,-0.0906053416946793,0.0248868066704196,0.0061670427519047,5.677196439996208,25.95988296285749,22.443995653069173,37.96374008262165
0.66,31.222201598100323,131.0104215716437,9.9619440733303,4.56975604268604,3.2043383926762954,32.21412978352233,-0.8281089260860623,1.0638085416853449,383.5125151715984,22.39047361920436,9.608897492245044,69.11166673274597,0.199391807248208,120.21319636376276,306.7755515583431,1.274,1.0246195561629028,0.0,1.3026528790692793,30.000012855656493,0.0658049331364865,7.121330118493266e-07,-0.0943634479851285,0.0275779077910737,0.006557876297601,5.579307228838704,25.466690662624703,22.893547573252675,32.242326384993476
0.67,31.22220116731043,131.01042245996635,10.166853974740892,4.537078199761116,3.152915292668254,22.06094546243844,-0.8978357692580741,0.9512395753276524,289.15624401033847,22.68356915011681,9.742684752768309,69.05754112124586,0.2401945848134368,120.25687734551002,314.8534230963756,1.274,1.024572383541697,0.0,1.3070334748352543,30.000012855656493,0.0666664862578529,7.654983185266815e-07,-0.0982255862470745,0.0303178781727713,0.0069155004282433,5.523147854477847,25.159461717018228,23.17857800989764,22.099689601777484
0.68,31.22220073481237,131.01042335216894,10.371945632058468,4.527066615107668,3.118030015357145,27.658508426849124,-0.9640679262925524,0.8496731238737831,340.89999248584934,22.85349900160377,9.832502048415993,69.00118388825561,0.2848438754314517,120.30469377872907,319.5821335326572,1.274,1.0245245285832842,0.0,1.3114710163685197,30.000012855656493,0.067166061574277,8.218578185065805e-07,-0.1021610027172151,0.033084301959458,0.0072463096707805,5.495106860642893,24.980536059524077,23.34303629814478,27.688345197610197
0.69,31.222200299140543,131.0104242512502,10.578091815819276,4.487958599151405,3.0638469801183974,34.15932454860557,-1.037221228112656,0.7298853093927099,401.0140726853658,23.15746043180362,9.97072673807672,68.94254942610534,0.3333317385061486,120.35664104364336,328.13333395615894,1.274,1.024479631064582,0.0,1.3158365215353072,30.000012855656493,0.0680595575521155,8.812604077803483e-07,-0.1061463509338584,0.0358605731344949,0.0076289794075291,5.432285042164319,24.66929008801429,23.638499059176,34.182861408282974
0.7,31.222199854642763,131.0104251686865,10.78858347757712,4.43364796026675,3.0002551073721766,28.593591753347347,-1.1155718868770137,0.5978700785136051,349.270324209851,23.530572012279386,10.1342342161342,68.88160523992687,0.3856229532673254,120.41268550165393,338.7853959827961,1.274,1.0244351749185203,0.0,1.3201562065186498,30.000012855656493,0.0691562931879353,9.437135496036276e-07,-0.1102028142592894,0.0386609324753716,0.0080479790084306,5.35170885081088,24.296662411436948,24.001635635716006,28.621590427903644
0.71,31.22219940283753,131.0104261013428,11.002502694754032,4.3995862854817736,2.9512185317822177,23.4377801695414,-1.190354503817139,0.4764313871182326,301.3312640634036,23.78814851080772,10.256342378315011,68.81830632034361,0.4417006534624092,120.47281337157104,346.2358810273324,1.274,1.0243880468141104,0.0,1.3244986051041865,30.000012855656493,0.0699134786087767,1.0092453680158089e-06,-0.1143401787958111,0.0414914957051276,0.0084413566907967,5.2961233253035385,24.039843417543445,24.25151987338521,23.47282407353528
0.72,31.22219894787583,131.0104270407876,11.217431927410985,4.372444481001184,2.9074374904291047,28.795482494760414,-1.2638325882084005,0.3586443103072318,350.7922053414578,23.996361594550223,10.360820993386374,68.75260168657124,0.5015540043829618,120.53701755777446,352.3162071713908,1.274,1.024337302174265,0.0,1.3288318196893658,30.000012855656493,0.0705255888336373,1.0779101588814048e-06,-0.1185357084705285,0.0443362896192956,0.0088275132392961,5.249289906943892,23.83107901484147,24.452864833518586,28.825435133894974
0.73,31.22219848832332,131.01042798991585,11.434197794609988,4.323653891738712,2.849979894119142,36.53600669769712,-1.344232265736651,0.2239855408956992,422.3203185282354,24.31020151408809,10.503985570016008,68.68445314223894,0.5651459832540897,120.60526309858474,361.58458247942,1.274,1.024292465384646,0.0,1.3331181053363736,30.000012855656493,0.0714481427727254,1.1497383751966533e-06,-0.1227781785868328,0.0471873606238269,0.0092628468877862,5.176962651902851,23.527835505638485,24.757690724587924,36.56141292839961
0.74,31.222198020551662,131.0104289560026,11.65485899163529,4.257315368006839,2.781905593862056,22.74434600775704,-1.4316847225932448,0.0730766430897994,294.4828134710563,24.71294063397803,10.679999096507885,68.61382867486856,0.6324255067290778,120.67750013353616,373.6564091900706,1.274,1.0242470321640116,0.0,1.3373750028008689,30.000012855656493,0.0726319814892327,1.2247330800032908e-06,-0.1270832754178492,0.0500547623433319,0.0097462683117427,5.084238662153336,23.151289195660404,25.14974967086337,22.789478639522358
0.75,31.222197544354287,131.0104299393968,11.879495642581132,4.231838015294316,2.741065111230716,26.62638629971749,-1.5062355167361483,-0.0466108889132723,330.24688556441737,24.87103083065795,10.766980770909797,68.54068693361836,0.7033535287573681,120.75369190683668,378.4441423056136,1.274,1.0241984712898409,0.0,1.3416424907331934,30.000012855656493,0.0730967979790282,1.3029090010158723e-06,-0.1314635434430441,0.0529462451392276,0.0101464773218793,5.040656839623983,22.992216834107605,25.30143210933641,26.668996332607378
0.76,31.22219706867313,131.0104309221489,12.10302432148668,4.182150375026729,2.6852386155038808,28.69842681465039,-1.589378144541348,-0.1869124474792687,349.2703242098581,25.155745085615447,10.90066002227692,68.46497900793325,0.7778993774039225,120.83381085740167,387.150000207916,1.274,1.0241522053390697,0.0,1.3459103129038374,30.000012855656493,0.0739337692198576,1.3843355015296331e-06,-0.1358726377513095,0.0558308376154257,0.0106065962835559,4.968709711616717,22.72542867926984,25.577386989164307,28.74301238188532
0.77,31.222196583472943,131.01043192432226,12.331108980902568,4.128510904434815,2.6273903872579023,26.82240094133523,-1.6745933299246585,-0.3320677678503952,331.76876669606884,25.452028070476647,11.039022670116044,68.38668252864511,0.8559857090747925,120.91777947364236,396.3146880196976,1.274,1.0241065975906936,0.0,1.3500933104857626,30.000012855656493,0.0748047495862112,1.4689953761073436e-06,-0.140329551214685,0.0587206854526931,0.0110832942752142,4.892425720403502,22.451953037434038,25.864592959699564,26.876676209695542
0.78,31.222196092817423,131.01043293772915,12.56142250214204,4.079116542077678,2.5729216340546768,21.98394257345572,-1.7584047988113436,-0.4742120097540691,286.8734378128874,25.70990242715436,11.163636050100498,68.30576389449412,0.9375504397414686,121.005536781873,404.37717386943706,1.274,1.0240588105546735,0.0,1.3542977412820585,30.000012855656493,0.0755628512171039,1.5569011449058475e-06,-0.1448327171359341,0.0616141376686635,0.0115545978850234,4.8216104837773965,22.212887140210363,26.11392019374492,22.059251926112015
0.79,31.22219559729288,131.01043396117626,12.793624717004237,4.037567967581146,2.5238400965733234,31.38351459935179,-1.838481216107604,-0.608533579802672,373.6203323159581,25.904752111851785,11.265275505261387,68.22219019032667,1.0225270151619097,121.097017163162,410.5206173059578,1.274,1.0240083170932772,0.0,1.3584798879323714,30.000012855656493,0.0761357248687313,1.6480717512546891e-06,-0.1493716802915192,0.0645041339170354,0.0120067578615346,4.760375539643911,22.025874078116622,26.30106779344781,31.443207770637127
0.8,31.22219509797192,131.0104349925153,13.027110178725035,3.9679648940960006,2.457899586477202,31.809821543677305,-1.93146308900386,-0.7722951878714182,377.42502064505805,26.264158704750056,11.428489379357764,68.13593434914702,1.1108370635129927,121.19214242136648,421.9814324432726,1.274,1.0239625010683884,0.0,1.362631632883745,30.000012855656493,0.0771922471950942,1.7425232345040107e-06,-0.1539317041553282,0.0673809189763961,0.0125446884179531,4.666514039159744,21.710588038570734,26.650126262384365,31.877762408330835
0.81,31.222194588302177,131.01043604461023,13.265450655965491,3.902913303772,2.3953860986933964,20.625281413904577,-2.022808984563901,-0.932745769615556,273.9374926939922,26.583064818515663,11.57719377810816,68.04697769602909,1.202387099864002,121.29081820236551,432.2813650930137,1.274,1.0239149950770308,0.0,1.3667389521397455,30.000012855656493,0.0781297452396916,1.840218594846288e-06,-0.1585372914251576,0.0702594902753418,0.0130766003684633,4.57839799074546,21.431166162632188,26.959221586663617,20.745216418768106
0.82,31.222194073721404,131.01043710668057,13.505629162678074,3.860950689672032,2.3475053566492057,26.572131132198383,-2.1014062864343463,-1.0660851029652725,328.725004432774,26.73258475479025,11.66293366742864,67.95528717059905,1.2971028573839027,121.39297095836696,437.147804600651,1.274,1.0238644186635044,0.0,1.370870268996116,30.000012855656493,0.0785694091475582,1.941175441814912e-06,-0.1631768544624273,0.0731319859536503,0.013534675870911,4.5176738307419,21.281603238420427,27.10122687502989,26.6764052813376
0.83,31.22219355770833,131.01043817192027,13.745764547672223,3.795459260670584,2.2858265513966898,33.83643114956602,-2.191915688645276,-1.2265117333120947,395.6875032246518,27.026723885175887,11.80337312460432,67.86083629182693,1.3948976763890952,121.49851389869094,446.810315525633,1.274,1.0238188483711983,0.0,1.3749727339221711,30.000012855656493,0.0794341250362514,2.0454306144192726e-06,-0.1678168349575754,0.0759773579937161,0.0140723706629466,4.429770676025504,21.024742070406752,27.385685440406643,33.92952841342483
0.84,31.222193031827366,131.01043925674057,13.990377955281383,3.7170230856366966,2.216939812432716,20.82722053788393,-2.29005406924582,-1.4042206031403834,275.45937482564227,27.399826488722017,11.974226118418864,67.76361800945324,1.4956553158714876,121.60732838798748,459.2210686306981,1.274,1.0237739661568126,0.0,1.3790151893404885,30.000012855656493,0.0805309315043848,2.152930468510932e-06,-0.172477504010547,0.0788076734611014,0.0146625128045391,4.327145152084457,20.71396187464517,27.747975693580155,20.99974520026392
0.85,31.22219249791661,131.01044035743868,14.238420899811986,3.6685247958731386,2.166341603426208,22.73804581026845,-2.3686511139999986,-1.5410862047093667,292.9609323393965,27.54212488978417,12.05824706287788,67.66361342050253,1.59927525019653,121.71931277851658,463.9922439957711,1.274,1.0237227741398531,0.0,1.383073966642312,30.000012855656493,0.080949387800923,2.263647004850895e-06,-0.1771671291463982,0.0816272961663524,0.0151390414840234,4.259658979656511,20.56999787184173,27.88233196068818,22.912969734629893
0.86,31.22219196450945,131.0104414574947,14.48536500293468,3.60495497205973,2.107279546708176,28.52285297474729,-2.4552011676567544,-1.6964489086224397,346.2265619465616,27.777832067831376,12.178128610838884,67.56079874118386,1.705661955710814,121.83437087268936,471.956781963936,1.274,1.023674789281455,0.0,1.3871306205444325,30.000012855656493,0.0816423850470184,2.3776318370801006e-06,-0.1818418785892062,0.0844095169860647,0.0156711095297138,4.174980914350253,20.36029903232082,28.10876814408793,28.67854761825082
0.87,31.22219142243405,131.01044257456977,14.736033927258395,3.529275546838952,2.041533778083753,26.554529158369544,-2.548994134406673,-1.868551623186261,327.9640783669946,28.09052831748383,12.32798425324804,67.45517574782279,1.814684180292253,121.95236786340746,482.6306458901838,1.274,1.0236288969245204,0.0,1.3911067621663895,30.000012855656493,0.082561670384668,2.494827192254428e-06,-0.1865125772902911,0.0871605289989539,0.0162541799886388,4.07656386832908,20.09919189993832,28.411143841002875,26.741949724888233
0.88,31.2221908728766,131.0104437062543,14.98974248784762,3.4592119704766486,1.9795526468538631,22.93604215590173,-2.637472099490178,-2.030826989428708,294.4828134710421,28.34492194156376,12.456135238485816,67.34673994696003,1.9262191993943147,122.07317810581984,491.39986123044486,1.274,1.0235805388426191,0.0,1.395085660931188,30.000012855656493,0.0833096043909448,2.615184280993488e-06,-0.1911865903880985,0.0898840320114513,0.0168119908779415,3.984973443043041,19.87976281436626,28.65580748581152,23.176335929432042
0.89,31.222190318933546,131.01044484657933,15.244861610229425,3.3925512218988296,1.9199273526688807,25.175966784358696,-2.721308455152532,-2.1849891555536507,315.02813424808807,28.554981252366712,12.56774845674818,67.23548261104524,2.04014937181946,122.19668141115704,498.69798918585207,1.274,1.0235293752791452,0.0,1.399056441080622,30.000012855656493,0.0839272390289731,2.738695072482152e-06,-0.1958488134465463,0.0925707821572305,0.0173491673351586,3.897591012355784,19.690659548638997,28.8565063000666,25.41670712041794
0.9,31.222189760137635,131.01044599640665,15.501620096609896,3.3175646201647155,1.8559827204317247,27.827102199693577,-2.809776616212469,-2.3506120066987504,339.3781423542166,28.81660356721932,12.699843127855107,67.12140393138303,2.156345631491797,122.32274514405424,507.86552535080887,1.274,1.0234837388140003,0.0,1.402993817424082,30.000012855656493,0.0846964303873307,2.8653378913294253e-06,-0.2004866980996197,0.0952131672902734,0.0179222882577158,3.800928320506768,19.468811207293303,29.108089668559344,28.0672021810376
0.91,31.22218919399585,131.0104471603762,15.761250597457872,3.237398671252159,1.789590834177806,21.14799768933056,-2.900825574053361,-2.523386318937656,277.7421810230785,29.1067366447786,12.843681225395132,67.00451158281854,2.2746702294392414,122.45122713482996,518.1307333438533,1.274,1.023436404813438,0.0,1.4069018814710927,30.000012855656493,0.0855494267350123,2.99505338967813e-06,-0.2051027320713773,0.0978121452719891,0.0185190726748291,3.698645197677374,19.2305546504364,29.387799210688943,21.4946522138325
0.92,31.22218862102263,131.0104483374213,16.02344706548417,3.168164588706508,1.7296093988520969,25.20474407194088,-2.979347302557142,-2.672000974331337,315.0281342480675,29.28368522825508,12.943967559940049,66.88481196178026,2.394987980702607,122.58198784504916,524.4364208264568,1.274,1.0233859136578225,0.0,1.4107995242341391,30.000012855656493,0.0860697619858723,3.127788838589957e-06,-0.2096953890697721,0.1003663183508946,0.0190483757422375,3.609122582289485,19.064323265768703,29.55533037555195,25.520486345054653
0.93,31.222188045505472,131.01044951947597,16.286051913925526,3.0864955137456,1.6632405614014525,30.003445427721804,-3.0668904630391034,-2.8414051587380538,359.16250706547066,29.55469999797427,13.081681160307763,66.7623125542936,2.517163431879428,122.7148872770777,534.1749800964,1.274,1.0233407575091376,0.0,1.4146820259601596,30.000012855656493,0.0868665781525236,3.2635373327761728e-06,-0.2142414055147033,0.102862321147466,0.0196409436421931,3.5057306117754696,18.840738850350416,29.815924522511374,30.29333487621764
0.94,31.222187461001887,131.01045071848702,16.552227160728847,2.9977078880565142,1.593472803343426,21.74707125497049,-3.1594113088703755,-3.0231798915027674,283.06875048378083,29.87734191929949,13.24051164627408,66.63703474518371,2.6410465412603363,122.84976936924797,545.8876190447679,1.274,1.0232914783978162,0.0,1.4185179807514277,30.000012855656493,0.087815144511794,3.402205492972053e-06,-0.2187490271216737,0.1053042690170609,0.0202725962410209,3.394567829065687,18.588192040290167,30.127611776274943,22.18234894333259
0.95,31.22218686877628,131.0104519319721,16.82128718817176,2.922365960299332,1.5312550268759215,28.2017862703686,-3.234463642019867,-3.170981647278574,342.421873617488,30.052452266988467,13.341660470040168,66.50899535957069,2.766494659757353,122.98648584819584,552.2909664243816,1.274,1.0232418269359267,0.0,1.4223539849980904,30.000012855656493,0.0883300950142622,3.5437168639526625e-06,-0.2232193614546298,0.1076920881586737,0.0208075927215257,3.2989287702497148,18.42447128409056,30.292952612231232,28.563221605737628
0.96,31.222186274728937,131.01045314901947,17.090354309814483,2.831423035498408,1.4612936420425653,27.62784341483237,-3.323791748004603,-3.350598448553381,337.09533515678265,30.36546208076156,13.498282708137944,66.37821086640126,2.893367377937356,123.1248906215096,563.8410272209096,1.274,1.0231951201821403,0.0,1.4261797509106262,30.000012855656493,0.0892503636589306,3.6880707140196407e-06,-0.2276244794679567,0.1100103971222104,0.0214386630424731,3.1860001385399896,18.18158309659948,30.594976665202903,28.028054397372077
0.97,31.2221856695766,131.01045438659472,17.363862849838668,2.74291559837724,1.3929819219844224,17.626160139961822,-3.407243628041121,-3.520453964503009,245.0218871929888,30.63770893702443,13.63946226143794,66.24471450557468,3.021508723330711,123.26482033478952,573.9817036664645,1.274,1.0231476260761452,0.0,1.429954830452841,30.00001285565649,0.0900508312913532,3.835136856790884e-06,-0.2319774520998674,0.1122655931378015,0.0220439537173677,3.076118005660434,17.964138060082064,30.85649647071152,18.294382376472587
0.98,31.22218505943929,131.01045563339233,17.63883398147509,2.6661276951121287,1.3309735070983004,25.738509913683952,-3.4715775938119777,-3.6533225991439777,319.593746642963,30.76307647425027,13.722251772862844,66.10853219087132,3.1507734776427725,123.406123012464,578.673424813398,1.274,1.0230935628253934,0.0,1.433741880031076,30.000012855656493,0.0904195940429445,3.984862838694639e-06,-0.2362655169489246,0.1144503224980639,0.0225427070503307,2.979672554852296,17.82948959585584,30.972126501166123,26.227266528940458
0.99,31.222184447635435,131.01045688340042,17.913710878453717,2.5722520699259204,1.260759302226839,28.13962617047616,-3.5543373384004378,-3.8268164997781775,341.66094855170127,31.05994809641961,13.874888067020684,65.96969774648358,3.2810111039915,123.54864050998584,589.8804379818027,1.274,1.0230490803133316,0.0,1.4374992786650111,30.000012855656493,0.0912924495921701,4.137234496116909e-06,-0.2404626895933158,0.1165509917566936,0.0231639661831469,2.864424316579834,17.600909370079442,31.25797172331048,28.620209633269088
1.0,31.22218382411492,131.01045815467097,18.193141444980377,2.477505985043859,1.190519121042961,25.16258134639496,-3.6348494563157727,-3.9983574372627344,314.2672081822764,31.352358032289064,14.026648153470424,65.82826075387473,3.4120593607259484,123.69220146402074,601.0232982841129,1.274,1.022999484445133,0.0,1.4412066642141268,30.000012855656493,0.0921522013116596,4.2920820782415776e-06,-0.2445850164032545,0.1185750945671007,0.0237822477485144,2.7485429216530024,17.377044128196538,31.539350882299384,25.736248615136915
1.01,31.22218319464624,131.01045943668436,18.47438449935812,2.3859698240316964,1.1222897509998249,26.3233989992,-3.706361964453333,-4.154064768361104,324.92031610370094,31.58825778710271,14.15618492203451,65.68426180223827,3.543768676660388,123.83664790977588,610.0852198863847,1.274,1.0229507481225095,0.0,1.4449272352346965,30.000012855656493,0.0928458626701947,4.449320473927985e-06,-0.2486246908357929,0.1205179696097748,0.0243562845798419,2.636599725631171,17.184895676795968,31.764535376195944,26.90566312103028
1.02,31.222182559822432,131.01046072835007,18.75715568482004,2.2904524589754542,1.052569605736466,21.935084674606,-3.779582934298232,-4.3161695011723085,284.59063161543185,31.856502551226946,14.29977169762947,65.53774657566773,3.675988347593184,123.98182018101464,620.4739457402825,1.274,1.0229039803623294,0.0,1.4486240211824444,30.000012855656493,0.0936346004948372,4.608884561557932e-06,-0.2525674527680299,0.1223721795398509,0.0249519673548199,2.520612027825603,16.977417637272463,32.02183049857484,22.67294656638663
1.03,31.222181916837386,131.0104620345718,19.042688253275312,2.198877167231565,0.9850140752862706,17.877267660864952,-3.841200874265101,-4.457199599445702,247.3046933904342,32.05328513414872,14.414670947605444,65.38876967663637,3.808563955819368,124.12755403013468,628.1459236076568,1.274,1.022853416101322,0.0,1.452293759374296,30.000012855656493,0.0942132995608458,4.7706566211239616e-06,-0.2564099587069208,0.124135446824532,0.0254873592831389,2.40932295995551,16.807644789558672,32.20800316171215,18.820684138573753
1.04,31.22218126977156,131.01046334806568,19.329119926145328,2.1085385682229094,0.918312750040342,28.56348531738456,-3.894866221502464,-4.584701413702568,345.4656368807608,32.21127350990844,14.514108277712664,65.23738820954563,3.941343362734405,124.2736871594236,634.3359067181467,1.274,1.0228049544826707,0.0,1.455952789451134,30.000012855656493,0.0946779762520482,4.934568476735446e-06,-0.2601371285640249,0.1258001790034383,0.0259845796389946,2.299750522147968,16.65787312971249,32.35551556362081,29.19010386094319
1.05,31.22218061789252,131.0104646700877,19.61676245499372,2.004716910420488,0.8460854070751646,17.12536297803887,-3.968958326883437,-4.7577537294580114,240.4562587980608,32.549792594109206,14.689642285343425,65.08366873996803,4.0741713590592985,124.4200533123486,647.7209699190087,1.274,1.022755494436122,0.0,1.4595775436724692,30.000012855656493,0.0956732894067406,5.100527487437829e-06,-0.2637384821922941,0.1273612052685749,0.0266204374483851,2.175881029466112,16.42055401611217,32.682690548911125,18.21172446201329
1.06,31.22217995342111,131.0104660140771,19.908956258381625,1.914357761716692,0.7799346108010696,24.50170847369132,-4.010624882399076,-4.866530470822261,308.1796836557233,32.66360348426191,14.77186305895004,64.92768460986774,4.206892721392291,124.56648559160408,652.2401182401866,1.274,1.0227013895379469,0.0,1.4631727733171307,30.0000128556565,0.0960081291967943,5.268312005243728e-06,-0.2672262097572138,0.1288229125212085,0.0270660212491689,2.067084240955986,16.29361432453453,32.786111542939004,25.30023614317695
1.07,31.222179290713232,131.01046735503712,20.19944829042035,1.8124142127384275,0.7094053877876546,28.89140862004326,-4.070968499290307,-5.017453384595068,348.5093681440431,32.94524502236046,14.925501042468689,64.76950254425903,4.339362045330431,124.71282726519456,663.5179631856538,1.274,1.0226540159946436,0.0,1.4667803024790216,30.000012855656493,0.0968362755836225,5.437933303181452e-06,-0.2705708716160116,0.1301722690295503,0.0276403117542928,1.946261393968728,16.087654692882023,33.056675312990016,29.605085965744273
1.08,31.22217861500131,131.0104687184414,20.494558957044628,1.70811611289057,0.6383674027008044,19.350201857209928,-4.1318868663859085,-5.173100528878512,261.0015785751465,33.255962981149274,15.092557765378162,64.60920727209053,4.471426344316968,124.85891258306476,676.0735531504307,1.274,1.0226061614050743,0.0,1.4703232563965951,30.000012855656493,0.0977498973782272,5.609160301223891e-06,-0.2737821685442685,0.131412493956443,0.0282313425643867,1.8234727470773235,15.87069607515415,33.35623542368772,20.45149799093617
1.09,31.222177931682328,131.0104700948214,20.7919043697302,1.611876053169518,0.5708440363946775,17.77142015481683,-4.167113927091254,-5.278317797179626,246.54375332456465,33.401842313006306,15.1902145515927,64.44687840018395,4.602941543487894,125.00458492108656,681.9983610408339,1.274,1.0225512795791307,0.0,1.4738795287268238,30.000012855656493,0.0981790127459296,5.781843883549812e-06,-0.2768550508693388,0.1325403370428628,0.0286726157112701,1.709947763113509,15.731067962650174,33.491508801108075,19.001285524101018
1.1,31.22217724690552,131.01047147367484,21.08890644117689,1.5132626707220769,0.502758036054433,35.93740286331047,-4.201583460158313,-5.385279625150593,413.1890617384087,33.571864197984794,15.298821043543592,64.28259915062239,4.733765946354975,125.1496895765498,688.9393873840265,1.274,1.0224981043155532,0.0,1.4774199961295198,30.000012855656493,0.0986790937631223,5.955952143263904e-06,-0.2797685742783118,0.1335473915518541,0.029121010434088,1.594575422195959,15.581301917925789,33.650836232173226,36.58075265455337
1.11,31.222176554591023,131.01047286530363,21.388078336434976,1.4008083362684247,0.4304603311256409,26.21841105719793,-4.270113958112004,-5.567989681964592,324.1593910379213,34.02229196894131,15.529477279488129,64.11646571516897,4.863755877345775,125.29406891581203,707.5298289779416,1.274,1.0224548851875197,0.0,1.4809147360620851,30.000012855656493,0.1000033913343237,6.131325042942614e-06,-0.2825190253664538,0.1344316633779417,0.029801000152597,1.465442994594177,15.310071031197234,34.08990788354326,27.141139634840794
1.12,31.22217584490036,131.01047428609175,21.69334657038346,1.2986667916476864,0.3620884906999427,9.695245147064412,-4.302483200621203,-5.678152507874215,172.7328179403806,34.23635240049765,15.658932784821884,63.94857711443624,4.992771893535584,125.43756922618796,716.4400602585739,1.274,1.0223979224661404,0.0,1.4843941459728145,30.000012855656493,0.1006329363126873,6.307625990120863e-06,-0.2851195853858294,0.1351955171099497,0.0302636550395971,1.3481917733853406,15.144971181586222,34.29322874902643,12.031232524391752
1.13,31.222175135876505,131.01047570563213,21.99734144641905,1.203647135486209,0.2961287968763977,30.946789325658155,-4.3031825742661,-5.724339563904072,367.5328077894322,34.25136997498816,15.702020024825991,63.77902527313587,5.120682081180001,125.58004436253574,717.0477853026778,1.274,1.0223460397860296,0.0,1.4879032257709006,30.000012855656493,0.1006774237206709,6.4848668292547445e-06,-0.2875455604985128,0.135830229250528,0.030533653443329,1.239534505610833,15.06546607435996,34.29788557053466,31.76459055736457
1.14,31.22217442653046,131.0104771257082,22.300525766728903,1.0928221056294596,0.226374025615467,16.983518813085276,-4.354197700070037,-5.88183283757219,239.6953177322812,34.667814037574914,15.922030877561422,63.60791726863881,5.247352950645577,125.72134564901796,734.5687933814913,1.274,1.0223022138470996,0.0,1.4913575839269435,30.000012855656493,0.1019018552264385,6.663032242872017e-06,-0.2897792449674798,0.136330918371431,0.0311440613325294,1.116019327638667,14.818867436849128,34.70337269385376,18.49310429362413
1.15,31.222173695449605,131.01047858169238,22.61130151999673,0.992946394667532,0.1597290446331484,16.72965075338117,-4.3573176559547,-5.940664643540572,237.4125115347709,34.768787980916386,16.004000061425657,63.43537116237218,5.37265353657186,125.86132640964512,738.8320000989454,1.274,1.0222426194541194,0.0,1.4947641161632907,30.0000128556565,0.1021990143533926,6.841666330762039e-06,-0.2918379148918839,0.1366992862836944,0.0314557332080985,1.0057103738861868,14.705157241354373,34.793878128076244,18.28001443905378
1.16,31.22217297044189,131.01048002748948,22.91868530659593,0.8903561604695268,0.0930124062962193,44.307787287026834,-4.364649103086861,-6.0121728422361045,490.043774385954,34.935913292375545,16.115877122613476,63.2614955656289,5.496459232951524,125.99984619177968,745.9298270810337,1.274,1.02219674531104,0.0,1.498216491336501,30.000012855656493,0.1026906169615779,7.020837752232356e-06,-0.2936987430471937,0.1369300293301366,0.031807527670166,0.8952009293029783,14.565776013883818,34.950523640573984,44.92634414628476
