Time,Latitude,Longitude,Altitude,Angle of Attack,Angle of Sideslip,X-Acceleration,Y-Acceleration,Z-Acceleration,Thrust,True Velocity,Ground Velocity,Pitch,Roll,Yaw,Dynamic Pressure,cp,parachute_deploy_gain,Wind Speed,Mach,omega_x,omega_y,omega_z,Cmq,Angle of Attack(total),Angle of Attack(gust),True Velocity(gust),Acceleration
0.0,31.222186000000004,131.010384,3.000000003643237,0.0,0.0,0.0,0.0,0.0,2.2828121974499247,0.0,0.0,69.99999999623421,0.0,113.69999999388332,0.0,15.288,0.0,0.0,0.0,0.0,0.0,0.0,-0.0,0.0,90.0,0.0,0.0
0.01,31.22218600000153,131.01038399999584,2.99999882256592,0.0,0.0,0.0,0.0,0.0,34.24218696174923,7.502283530665459e-11,7.190531319924593e-11,69.99999999623329,-4.83564628150269e-13,113.69999999388072,3.446445726795683e-21,15.288,0.0,0.0,2.204725565824978e-13,-3.659182332138578e-19,7.589415207398531e-19,4.811147140404426e-19,-1.5108918610345807e-31,0.0,89.9999999995224,7.502283530665459e-11,0.0
0.02,31.22218600000288,131.01038399999217,2.999997775701936,0.0,0.0,0.0,0.0,0.0,25.871876237766408,1.5320717031631675e-10,1.4674636035870463e-10,69.99999999623222,-9.67129256300373e-13,113.69999999387804,1.4372842949972735e-20,15.288,0.0,0.0,4.5023593667086093e-13,-7.284483346386986e-19,1.5178830414797062e-18,9.757819552369542e-19,-6.170906918166791e-31,0.0,89.99999999902465,1.5320717031631675e-10,0.0
0.03,31.22218599928065,131.01038400193067,3.000201659671132,18.81500467334555,-0.00012974450181,11.96616230539064,-1.8916256735984712e-05,3.349833086198469,180.34219359854663,0.0882870268161719,0.0553390044312322,69.99999999799445,-4.212591857125379e-12,113.69999999488518,0.0047728553458352,15.288,0.0,0.0,0.0002594525584132,3.2187251995663407e-17,-7.20264389268894e-10,1.2365134327422308e-11,1.6874092354518158e-13,18.815004673776716,89.46786891739345,0.0882666465974854,12.426199017587786
0.04,31.22218599548236,131.0103840121632,3.001799604587872,9.46752327608497,-4.6177622759613696e-05,55.21900012092241,3.931876292165237e-06,3.349616504302861,548.6359724538078,0.3767519978512604,0.1853356633749705,70.00000000507204,-2.4624598767003407e-11,113.70000000019972,0.086915163246288,15.288,0.0,0.0,0.0011071759353184,1.6174128009138757e-15,-1.3693172015529268e-08,2.7753303060112748e-11,1.3689612277852356e-11,9.467523276196548,87.63554493451223,0.3767447442872393,55.32050167054111
0.05,31.222185984749512,131.01038404118162,3.00777936418888,5.376730308971262,-2.257790939128127e-06,80.28807156553681,5.266841443842784e-05,3.348887800834877,761.6984298824644,1.018787885905993,0.4366201147110198,70.00000000894464,-1.1355399380652658e-10,113.70000001523856,0.635552918586145,15.288,0.0,0.0,0.0029939522895272,1.6418815498809788e-14,-9.32122351075408e-08,4.303264669380585e-11,2.5199270302492604e-10,5.3767303089717045,83.57022052969386,1.0187875312530217,80.35788377762394
0.06,31.22218596447235,131.01038409608267,3.0201664202003013,4.296730121134882,2.4863835723705905e-05,60.21296515808257,0.0001057204249726,3.347700952379021,590.4875390737208,1.721098934225416,0.7081674028809783,69.99999995523842,-3.0560354507026086e-10,113.70000004366592,1.8138247671743823,15.288,0.0,0.0,0.0050578622752421,8.328976953118383e-14,-3.2824985336199985e-07,5.923438275930214e-11,1.4991363363716091e-09,4.296730121206683,79.20467073327266,1.7211028398275985,60.305955550063224
0.07,31.22218593493329,131.01038417609837,3.038741944736831,3.8204913578752526,4.8016684030909405e-05,91.4060317508128,0.0001597686613101,3.346072557365335,855.2937749779139,2.4375792548422868,0.9844712334613328,69.99999973536046,-5.939103491363046e-10,113.7000000850886,3.6383156301599167,15.288,0.0,0.0,0.007163413150771,2.709313825263564e-13,-7.906546256197275e-07,7.920022733617308e-11,5.114174483651565e-09,3.820491358176508,74.87999294483174,2.437586797285377,91.46725557277466
0.08,31.222185894468456,131.01038428575305,3.0647976109320942,3.588632851766762,7.220043782492885e-05,19.18449428359557,0.0002119618497595,3.3440615022685813,241.2171988638848,3.1292508166901074,1.2522236515868983,69.99999919480445,-9.914748373602156e-10,113.7000001418522,5.996012698481753,15.288,0.0,0.0,0.0091960591623389,6.80386533246681e-13,-1.5973238302190878e-06,1.0839624626357699e-10,1.3263625118823921e-08,3.58863285249208,70.86684630658345,3.1292621579083604,19.473766155861934
0.09,31.22218584634549,131.01038441616095,3.0957981580345013,3.551302481506045,9.685468678862004e-05,57.102946699906326,0.0002554087225869,3.341892818148368,563.0937377043176,3.701810007254615,1.479132491047967,69.99999812344194,-1.4359264356978275e-09,113.7000002093888,8.390904013834115,15.288,0.0,0.0,0.010878666406854,1.440096519545733e-12,-2.748643691533636e-06,1.5214952332699618e-10,2.6999776649034504e-08,3.5513024828250237,67.68737872952666,3.701825221153239,57.20065357568538
0.1,31.222185790329306,131.01038456796124,3.1319266121977414,3.608446747536112,0.0001234669721807,54.26147302645416,0.0002914860332524,3.3396271157106168,538.7437595981919,4.174070299823608,1.6716491241860567,69.9999963052332,-1.902380107712657e-09,113.70000028805804,10.668380938744466,15.288,0.0,0.0,0.0122665227999911,2.687800116751415e-12,-4.315796035622946e-06,2.1749089204950437e-10,4.7802076800548326e-08,3.608446749645647,65.17160335282355,4.174089693970246,54.36414778470795
0.11,31.222185727066616,131.0103847393952,3.172681775073216,3.633547373470009,0.0001485939126744,42.987553988990406,0.0003293995000288,3.337005588796181,442.8656393052949,4.672024955140527,1.8729475711242067,69.99999349387662,-2.3433348587116544e-09,113.70000037699285,13.365573690709628,15.288,0.0,0.0,0.0137298902182575,4.5789425819531184e-12,-6.340230783164189e-06,3.1157625832417107e-10,7.860218435507205e-08,3.6335473765043056,62.62546922225161,4.672048296217748,43.116880735560244
0.12,31.22218565692512,131.0103849294629,3.2177790417108385,3.650108937861461,0.0001727442530266,46.86777100765684,0.000367618259785,3.334068179146888,475.58594813540446,5.17479364099247,2.0758708919414386,69.99998941286465,-2.702771525550512e-09,113.70000047573096,16.396890189902592,15.288,0.0,0.0,0.0152074069417046,7.288473386564583e-12,-8.86736416607888e-06,4.42271554299792e-10,1.217615295152289e-07,3.6501089419435786,60.16906436414164,5.174820775596283,46.986210423745625
0.13,31.222185580265183,131.0103851371844,3.2669395832841857,3.7280113734654137,0.0001995014041665,51.64515456841877,0.0003986198234033,3.3311573548369657,515.9156326236895,5.579364582999854,2.2451120211463422,69.99998375846928,-2.9114380666036422e-09,113.70000058383452,19.060875702782603,15.288,0.0,0.0,0.0163963474924215,1.100846422415094e-11,-1.1941028436408576e-05,6.179653149059831e-10,1.7678562106638216e-07,3.728011378795934,58.279338776943774,5.579395920607139,51.75247433579817
0.14,31.22218549718016,131.01038536230575,3.320091807147376,3.768719651034081,0.0002242721760019,48.1660778383537,0.0004326225136175,3.32784677779744,486.2390860568404,6.025734265159953,2.428648685938864,69.99997621008868,-2.890941335368725e-09,113.70000070125378,22.232643351545065,15.288,0.0,0.0,0.0177081261985351,1.5941871344608664e-11,-1.560901486259027e-05,8.477542742712431e-10,2.495765160917323e-07,3.7687196576976176,56.27980129251342,6.025769493750979,48.280903250602165
0.15,31.22218540777004,131.01038560455507,3.377159065217065,3.821894709649632,0.000249725644238,46.56959330999435,0.0004643042952466,3.324387732286376,472.54218587214,6.441023336496372,2.6014999612196745,69.99996641132823,-2.546763407193136e-09,113.70000082794672,25.402620271850456,15.288,0.0,0.0,0.0189285691155931,2.2314099732464315e-11,-1.992367942778425e-05,1.1417519574710292e-09,3.4051816697623295e-07,3.821894717796148,54.501255563441134,6.441062563308839,46.68809885900716
0.16,31.22218531193176,131.01038586421257,3.4382223512025254,3.8463320955387794,0.0002733212404609,36.974247749122085,0.0004987816203583,3.3205066466509234,391.1218908297564,6.895451966878468,2.7877331692857847,69.99995397923414,-1.77088415515292e-09,113.70000096417354,29.113317717489338,15.288,0.0,0.0,0.0202640360420561,3.0367358387834494e-11,-2.4945905791363795e-05,1.5114297685186711e-09,4.5643121540033697e-07,3.846332105235269,52.641145594326446,6.895494900078523,37.12304892183151
0.17,31.222185210004127,131.010386140357,3.503019838429153,3.8860314262554336,0.000297865039677,46.520531453299206,0.0005306403365217,3.31650761597812,471.78125980632376,7.314788342774694,2.9619016331667103,69.99993849340957,-4.3039914767238207e-10,113.70000110959404,32.761746921137856,15.288,0.0,0.0,0.0214963781445172,4.0366633128431416e-11,-3.0713078585132897e-05,1.96747427715988e-09,5.961228045584824e-07,3.886031437653654,51.00464968745696,7.314835131305714,46.63860064094784
0.18,31.22218510147516,131.01038643438045,3.571950002194137,3.9107265153396016,0.0003214293682635,38.895647526122765,0.0005639254295027,3.312149448254175,407.10156721191447,7.754626295791602,3.1430587898572058,69.9999195084231,1.6149322372810674e-09,113.70000126508234,36.81988229018681,15.288,0.0,0.0,0.0227889722876034,5.2593391349219385e-11,-3.731786027786564e-05,2.525509173087448e-09,7.6786585232224e-07,3.9107265285284982,49.36615848311875,7.754676785798701,39.036415444581515
0.19,31.222184986476247,131.0103867459258,3.644912152926752,3.920599115663931,0.0003437679584038,43.86258669386953,0.0005989384366483,3.307389681300437,448.9531328318269,8.219206165926856,3.332657190859447,69.99989653019398,4.538529095696477e-09,113.70000143063515,41.36350714675367,15.288,0.0,0.0,0.02415428010977,6.735860419174937e-11,-4.481243905342629e-05,3.199401151670645e-09,9.773118416308382e-07,3.92059913071168,47.71893898797248,8.21926016487149,43.987104227715655
0.2,31.222184864792144,131.01038707557822,3.722074668489528,3.943376465171875,0.000367328732016,40.28070981710589,0.0006315894240138,3.30251450988504,418.51563019916136,8.65238089736321,3.511445117640573,69.99986902534273,8.534090245934178e-09,113.7000016067622,45.83799876721736,15.288,0.0,0.0,0.025427299120469,8.499785987217288e-11,-5.328041996372527e-05,4.006766070954748e-09,1.2232205148646746e-06,3.9433764822533854,46.2587826635041,8.652438597225508,40.41586552155969
0.21,31.22218473678744,131.01038742234647,3.803156063113743,3.9664546506877016,0.000390962054969,38.67679184347145,0.0006636984664108,3.297405915846789,404.8187610144644,9.079179692250786,3.688002035198235,69.99983642883521,1.3827831253856693e-08,113.70000179318536,50.47126980736161,15.288,0.0,0.0,0.0266815841422463,1.0586558589671407e-10,-6.275155280099118e-05,4.961340042512481e-09,1.5117124669161171e-06,3.9664546699249135,44.88773728276958,9.079241104426773,38.817098210937615
0.22,31.2221846022986,131.01038778667507,3.8882846911135607,3.956175711337521,0.0004112685792646,46.713636108302936,0.0007011135033803,3.291572407481395,472.5421858721365,9.580256326712124,3.889976788904857,69.99979815126248,2.0662823443484168e-08,113.70000199039316,56.195522894218605,15.288,0.0,0.0,0.0281541581291438,1.3033127211465288e-10,-7.330053770532661e-05,6.0817207473359025e-09,1.8632831045819008e-06,3.956175732680424,43.35679625546934,9.580320928629488,46.8294591882524
0.23,31.222184460898035,131.01038816972698,3.977794004014759,3.9879066397329104,0.0004360962274406,38.89105719050748,0.0007308686121188,3.286096544282012,406.3406421461021,9.977039034039262,4.056142701351626,69.99975353557706,2.9316661139418326e-08,113.70000219928508,60.9462612310605,15.288,0.0,0.0,0.0293202403623685,1.5880617816859538e-10,-8.505067486192354e-05,7.393319440773217e-09,2.2514912291167663e-06,3.987906663538912,42.20670487756048,9.97710753587448,39.0296395118868
0.24,31.222184313516166,131.01038856897196,4.070963590490852,4.003523997322975,0.000459165577055,40.0792299321398,0.0007630441688766,3.280134925833028,416.2328240017114,10.408422364424831,4.234121060914368,69.99970190737699,4.010976417051318e-08,113.70000241888,66.32994780718496,15.288,0.0,0.0,0.030588009649109,1.91711512587616e-10,-9.795845222523724e-05,8.904557280909524e-09,2.7052895870113487e-06,4.003524023611085,41.011349410369874,10.408494489985014,40.21323112692186
0.25,31.22218416001652,131.01038898478134,4.167901030441617,4.0261356185860135,0.0004830526730531,41.17760020658354,0.0007934613160587,3.2740610008587527,425.36408079150686,10.816813039390448,4.4041629376391525,69.99964258149416,5.3372865854010094e-08,113.70000264972064,71.63651430352668,15.288,0.0,0.0,0.0317882126436337,2.2947426169209347e-10,-0.0001121037688082,1.0637152702866709e-08,3.217380562698304e-06,4.026135647516394,39.93186687113378,10.816888917126896,41.30755663120434
0.26,31.222184000702686,131.0103894163294,4.26837241014618,4.053359329950934,0.000507503069958,44.80261175215926,0.0008224724146494,3.2678597736729302,455.8015834241788,11.207047269494833,4.567925492611352,69.99957484039399,6.947299261165984e-08,113.70000289176392,76.89781807056055,15.288,0.0,0.0,0.0329350617559806,2.7254099134167665e-10,-0.0001275114371842,1.260720913253598e-08,3.7915697709142366e-06,4.053359361668992,38.945390435244384,11.207126987890645,44.921630958721536
0.27,31.22218383516388,131.01038986473338,4.372698316214008,4.0614460923241,0.0005296455772492,41.029837477288126,0.0008548809954683,3.2610328932384265,423.84219965987256,11.645685385842508,4.748226940060522,69.99949794024376,8.879821051920497e-08,113.70000314600205,83.0342688744587,15.288,0.0,0.0,0.0342241635563461,3.2137296827284217e-10,-0.0001442952656441,1.4842505534226832e-08,4.458527942364847e-06,4.061446126801262,37.8838346421185,11.645768582375233,41.15922617924542
0.28,31.222183663504484,131.01039032970942,4.48079961904222,4.081133040992532,0.0005533279247169,47.27661484082626,0.0008845140695959,3.254218495915602,476.3468732012221,12.047344998676092,4.915789434712848,69.99941106884992,1.1178948978424788e-07,113.70000341275257,88.85982357848233,15.288,0.0,0.0,0.0354045979054623,3.764736350660473e-10,-0.0001625146963723,1.7365685655384934e-08,5.194620655212288e-06,4.081133078439725,36.956255322213885,12.047431915223257,47.38848224631549
0.29,31.22218348566054,131.0103908114315,4.592727908358551,4.1001100265020245,0.0005770279952742,37.989969791857405,0.0009138463939581,3.247164755122801,397.97031042211177,12.446314684600782,5.082367374004485,69.99931338876085,1.3891902435864665e-07,113.70000369260468,94.8417675268915,15.288,0.0,0.0,0.0365771315767517,4.3836067907166327e-10,-0.0001822432988888,2.0202163500922312e-08,6.018074062137429e-06,4.100110067036654,36.07377590258778,12.446405323946324,38.12849176886316
0.3,31.222183301933686,131.01039130907952,4.708251093558373,4.112858061667493,0.0005998635114143,35.655053282557844,0.000944131403186,3.2397207148238625,378.1859457108711,12.860033399289696,5.253940723820665,69.99920403105713,1.707002607527005e-07,113.7000039856728,101.2505662360602,15.288,0.0,0.0,0.03779301412572,5.075709863465428e-10,-0.0002035013069687,2.3370674033523645e-08,6.94335970778e-06,4.112858105337573,35.19685285507256,12.860127625629724,35.80193592228613
0.31,31.222183112488807,131.0103918222051,4.827243246502713,4.136140889545823,0.0006242383343011,37.56633644061071,0.0009716215464757,3.232339252743767,394.1656220930212,13.2364445751808,5.4126574282679245,69.99908210036875,2.0768081583188525e-07,113.7000042923011,107.26326115439352,15.288,0.0,0.0,0.0388992619788015,5.846561731689753e-10,-0.0002263323252403,2.6893437641668458e-08,7.948283231812338e-06,4.1361409365698805,34.43286455705216,13.236542630309057,37.70514091683033
0.32,31.22218291741533,131.01039235056504,4.949637017503345,4.1622282001352975,0.0006491019906456,40.83513712643371,0.0009979686925508,3.224840963348891,421.55939346242695,13.59846554462374,5.566374262777002,69.99894668612772,2.504388718903276e-07,113.70000461297312,113.2095365840355,15.288,0.0,0.0,0.0399632243410653,6.701756367872645e-10,-0.00025078340164,3.0793566854276295e-08,9.047716714467492e-06,4.16222825066026,33.72644865222576,13.598567505326,40.96227562489027
0.33,31.222182716732533,131.01039289410716,5.075419569102976,4.187801887681037,0.0006739743721461,40.48743503284469,0.0010239291638211,3.217136801802925,418.5156301991682,13.956637761217308,5.718704299733134,69.99879684673242,2.995902922462564e-07,113.70000494831164,119.25032483364384,15.288,0.0,0.0,0.0410158804634189,7.647061680070125e-10,-0.0002769136723495,3.509664608790402e-08,1.0253455741189656e-05,4.187801941818244,33.053267359159875,13.956743628864118,40.61505097607
0.34,31.222182510255863,131.01039345333336,5.204736257784645,4.19642921746386,0.0006961879027693,31.814592723444047,0.0010535137542081,3.208669900766693,345.46563688075645,14.367047160772364,5.88887983533068,69.99863160305904,3.557915789971256e-07,113.70000529927128,126.36523219087664,15.288,0.0,0.0,0.042222056531773,8.688448410811866e-10,-0.0003048202762282,3.9835373705550826e-08,1.1618525957862828e-05,4.196429275109305,32.30947868183619,14.367156517712404,31.97598901989736
0.35,31.222182298183583,131.0103940277045,5.337435501771672,4.210915783240843,0.0007193441544952,34.813487415034444,0.0010813034848195,3.200164272309822,370.5765700527033,14.754132934586384,6.050986755458457,69.99844991734221,4.1975736284587617e-07,113.70000566632532,133.26448209504355,15.288,0.0,0.0,0.0433596939127697,9.832256819293898e-10,-0.0003345386312107,4.503361101379695e-08,1.309465610343774e-05,4.210915844572415,31.63649055965014,14.75424592890194,34.96026256388454
0.36,31.222182080444604,131.0103946174141,5.4735747500461605,4.22903876037745,0.0007431682866607,39.2632255716727,0.0011077666085529,3.1915717453569297,407.8625232777193,15.124417129017054,6.2072589919251575,69.99825073022951,4.922382611919288e-07,113.70000605036684,140.03566173682628,15.288,0.0,0.0,0.0444479595865755,1.1084921261805627e-09,-0.0003661511460057,5.0723697896912267e-08,1.4691545926915382e-05,4.229038825557203,31.017264542603208,15.124533865618538,39.39272792946638
0.37,31.22218185710795,131.01039522227452,5.613102797925907,4.249164960780052,0.0007674149135003,37.28328237034959,0.001133274451316,3.1828514669894137,391.1218908297666,15.483077353331511,6.359470679857624,69.99803294268581,5.740349991123437e-07,113.70000645214331,146.75405277514704,15.288,0.0,0.0,0.0455020695186381,1.245311285088233e-09,-0.0003997125883071,5.6934243389647934e-08,1.641828325195534e-05,4.2491650299519,30.439178816713017,15.483197898584232,37.418894813348615
0.38,31.2221816281124,131.0103958424523,5.756069531572451,4.260095806433531,0.0007900626414612,38.9278000801764,0.0011607546399008,3.1735466295306622,404.8187610144602,15.87126705947922,6.521735074464384,69.99779542676283,6.659911329739736e-07,113.70000687263192,154.20298254405043,15.288,0.0,0.0,0.0466429667223463,1.3943646956867835e-09,-0.0004353006984059,6.369875435270817e-08,1.8328108041903096e-05,4.260095879559656,29.83470194713067,15.87139116222873,39.05694584372078
0.39,31.22218139339905,131.0103964781077,5.9025231349944285,4.274091258047817,0.0008133283308351,33.320076729592266,0.0011870382950339,3.164143363712209,357.64062493382744,16.24457853509073,6.678818328235205,69.9975369905506,7.690136753559805e-07,113.70000731287368,161.54010621938565,15.288,0.0,0.0,0.0477401448128051,1.5563705124515804e-09,-0.0004730068442167,7.105463478762673e-08,2.0383860516746246e-05,4.274091335289374,29.274934656826048,16.244706292406182,33.46997636540994
0.4,31.22218115316572,131.01039712870306,6.0523126585892895,4.286421841403391,0.0008363022448449,31.88018820767003,0.0012133780841982,3.1544430614236454,345.465636880754,16.62063299903514,6.836764518435374,69.99725641601981,8.840594270905819e-07,113.70000777359816,169.10340080049767,15.288,0.0,0.0,0.0488453895716005,1.7320643186450851e-09,-0.0005128553637434,7.9027539265021e-08,2.2612406375611563e-05,4.286421922834417,28.730746964325096,16.620764365084565,32.03586915718869
0.41,31.22218090752676,131.01039779392735,6.205351877049411,4.30025870409831,0.0008595777771371,35.882550741685804,0.0012389121673015,3.1445895889870297,378.94687077668647,16.987310563534386,6.99141560549392,69.9969524610574,1.0121301778427253e-06,113.70000825570062,176.64448930727934,15.288,0.0,0.0,0.0499230826371405,1.922193031274436e-09,-0.0005548883906878,8.764667734700782e-08,2.5005077415911235e-05,4.300258789847355,28.21875643368965,16.987445585695873,36.020076248499606
0.42,31.222180656535848,131.0103984736348,6.36160173428776,4.322008670726048,0.0008844838439129,40.34064925656127,0.001261804338223,3.134918999355981,416.2328240017114,17.318628721060172,7.133856886815013,69.99662385300175,1.154276942054023e-06,113.70000876021427,183.59942989625057,15.288,0.0,0.0,0.0508968652507098,2.1275184665783874e-09,-0.0005991661829955,9.694534598491077e-08,2.752657757470936e-05,4.322008761057615,27.772396468009568,17.318767655457478,40.462275036947325
0.43,31.222180400205527,131.0103991677914,6.521055075967404,4.339436441324956,0.0009085827200945,35.541853595187746,0.0012854696362701,3.124839917627212,375.9031395134336,17.662848429084132,7.280642039343927,69.99626930133451,1.3115939750280808e-06,113.70000928827632,190.96736675963504,15.288,0.0,0.0,0.0519085689713619,2.3488101247838237e-09,-0.0006457514522491,1.0695800287133593e-07,3.0255957891170616e-05,4.339436536261635,27.322335771349252,17.662991148924057,35.67895714766603
0.44,31.22218013836212,131.0103998768696,6.683849332059896,4.342209064313268,0.0009296474314902,32.82948243168077,0.0013129688908547,3.113754688841357,353.0750125389216,18.063580761318697,7.446730341918701,69.99588746395321,1.4852372182848018e-06,113.7000098413532,199.7278270846888,15.288,0.0,0.0,0.0530863610987301,2.586862292117705e-09,-0.0006947575786514,1.1773083546077225e-07,3.329010177793299e-05,4.342209163639375,26.81344244367223,18.06372678999575,32.9768158972058
0.45,31.22217987077456,131.0104006014978,6.850166573233225,4.3420317510315165,0.0009500780330031,38.11022602597878,0.001341042003417,3.1022288449712887,397.2093853562869,18.47486275310604,7.616350301328129,69.99547690348253,1.6764536248320808e-06,113.70001042108892,208.92306716049887,15.288,0.0,0.0,0.0542951637545535,2.842521175226318e-09,-0.0007463379956615,1.2932090054593452e-07,3.657529369088674e-05,4.342031854775571,26.30944884471334,18.47501199101448,38.23628058998621
0.46,31.22217959739673,131.01040134180155,7.020045503401754,4.351169003849846,0.0009725797783515,44.3937050866137,0.0013660055515545,3.09098240974522,449.7140588976434,18.844323061800488,7.771531995684422,69.99503610583268,1.8865779683531e-06,113.70001102895836,217.3591612614144,15.288,0.0,0.0,0.0553810645782081,3.1166808800591503e-09,-0.000800596194505,1.417768495237597e-07,4.001824400409673e-05,4.351169112337076,25.873596578896564,18.844475834274814,44.50118229261506
0.47,31.22217931813738,131.01040209802923,7.193559875579052,4.358630093683735,0.0009947969928181,30.22514089990685,0.0013910994973101,3.079396422776949,331.0078106302534,19.2180591098146,7.9280875671397615,69.99456352718363,2.1170044481277104e-06,113.70001166656292,226.0625808853568,15.288,0.0,0.0,0.0564795377574197,3.4102493884459798e-09,-0.0008576351980594,1.551487523304888e-07,4.3718862242359527e-05,4.35863020698899,25.44665981168229,19.218215372160817,30.381603425148434
0.48,31.22217903348153,131.01040286886197,7.370336324605091,4.365514409145237,0.001016880998596,29.779838936311712,0.001416009414045,3.067527859335786,327.2031223011574,19.5915905767454,8.084483592791102,69.99405758812365,2.369198154608765e-06,113.70001233476164,234.93171707892955,15.288,0.0,0.0,0.057577416115756,3.7241711041759195e-09,-0.0009173883913609,1.6944871263079066e-07,4.767297940601472e-05,4.365514527349481,25.03354780044292,19.59175030803913,29.937410312943754
0.49,31.22217874361868,131.01040365378466,7.5502307795521535,4.3786401372577615,0.0010404145545081,37.2489281064929,0.0014385799934191,3.0558405437943126,389.60000969812296,19.93403005898306,8.23012235628909,69.99351671352461,2.644660619562788e-06,113.700013034871,243.21198709852868,15.288,0.0,0.0,0.0585839249886784,4.059374595909599e-09,-0.0009798792959512,1.8470833984680338e-07,5.180951737438081e-05,4.378640260624215,24.667474291142685,19.934193486919103,37.37406598941686
0.5,31.22217844858332,131.0104044527036,7.733219389747018,14.745643173195257,11.15809375912095,38.668122668626445,-0.90237775504068,2.194509178468827,397.97031042210494,22.87780469283266,8.366120773869401,69.99293932307316,2.9449363413826395e-06,113.70001376847225,320.3434318326396,15.288,0.0,6.262892444746544,0.0672354941142494,4.416673716856832e-09,-0.0010561207172611,2.6601108099191817e-05,6.408584804792601e-05,18.416545908827203,35.36656066555966,24.619456134806235,38.740855267574034
0.51,31.22217814911317,131.0104052652733,7.91928320869195,14.613640199036013,11.012058408450471,29.761003986379546,-0.922720942521512,2.162516641560297,323.3984349720841,23.22218219100146,8.50466943275306,69.99226552970315,0.0001966681255076,113.70022035488,330.0543223582528,15.288,0.0,6.287750125524971,0.0682477270967459,4.9027423955717365e-09,-0.0013268814939167,0.0002420085338987,8.172626124244206e-05,18.225708028153864,34.93084757871927,24.94132244120519,29.8537309299875
0.52,31.22217784553761,131.01040609138096,8.108458744195753,14.479717846295248,10.865459822814,35.60126068679437,-0.9436465694344142,2.12948843611348,372.0984511843415,23.57509391679948,8.646184855748716,69.99143461231863,0.000732860347648,113.70079141544802,340.1561620365226,15.288,0.0,6.312528453098555,0.0692850480756958,5.61099865164095e-09,-0.0016054883583549,0.0004624832668879,0.0001003873916055,18.0330356830357,34.49403919083904,25.27162492050177,35.677373114295236
0.53,31.222177537741896,131.01040693140337,8.30085870043807,14.35118738604717,10.72413830701586,37.34574389721278,-0.9646775837620316,2.0961402461351057,386.5562464348624,23.924624508688144,8.786200693635005,69.99044195067766,0.0016196595652302,113.70173561538658,350.3109535230884,15.288,0.0,6.337230868258913,0.0703124391750062,6.546599129026e-09,-0.0018922914386451,0.00068824827984,0.0001200725431548,17.847771014809556,34.07269088563188,25.59934960920321,37.41696131446654
0.54,31.22217722564879,131.01040778559369,8.496561038402833,14.226760093697395,10.587116215399025,32.89444555683992,-0.9858868525571304,2.0623732750325288,349.2703242098436,24.272362880419607,8.92528682175379,69.98928278944118,0.0028653931503184,113.70306182274328,360.5615465942408,15.288,0.0,6.361875038771848,0.0713345701977552,7.714813916220499e-09,-0.0021875725335961,0.0009194735237624,0.000140824076357,17.668317512328095,33.663967345488814,25.92593574904397,32.97377601827729
0.55,31.22217690955419,131.0104086531896,8.695354037434141,14.10969962764092,10.456637912967407,34.821200284477534,-1.0070243186059462,2.0285310805265806,365.2500005919907,24.612504464593528,9.06138042441112,69.98795231431473,0.0044784151485356,113.70477893484936,370.73075963411407,15.288,0.0,6.386431891011288,0.0723343818441181,9.120945864464573e-09,-0.0024910995625658,0.0011559421869491,0.0001626076586596,17.498592418397344,33.27471127976517,26.245926480118698,34.89477074827437
0.56,31.222176589479343,131.0104095341744,8.897238568342258,14.002201138051438,10.334177110328335,32.554216398355535,-1.0278879658322753,1.9948963637207937,346.2265619465787,24.940573080959407,9.192885751029442,69.98644574168407,0.0064669226260604,113.70689568388929,380.6724463415245,15.288,0.0,6.410900759776284,0.0732987188672315,1.077016330275609e-08,-0.002803027434285,0.0013977285681854,0.0001854041542835,17.341213810947725,32.90947026777588,26.555074744712638,32.6314751502786
0.57,31.222176265515728,131.01041042833958,9.102160722690597,13.892147057086408,10.211086941779818,32.201316239750376,-1.0493314757618055,1.9602835844046544,343.1828296833023,25.2764722434244,9.32695022032306,69.98475825511687,0.0088390834523055,113.70942077250815,390.98758005949577,15.288,0.0,6.435270724646006,0.0742860763459546,1.26676138739085e-08,-0.0031233841196181,0.0016448118334734,0.0002093721906655,17.181457406851685,32.54247684751369,26.87194888532792,32.27798903044801
0.58,31.22217593766156,131.0104113357295,9.310138778960146,13.771904813225127,10.081991617725851,42.15958223031014,-1.0719775488561931,1.9238158212245928,426.1250058573153,25.634052739663016,9.4685262287463,69.98288496785301,0.0116031113425052,113.71236295401968,402.1202226423137,15.288,0.0,6.459541554846256,0.0753371613089145,1.4818457399927224e-08,-0.0034523351704867,0.001897273232822,0.0002346922191298,17.010078553640195,32.15753560304759,27.209568283136186,42.21706499762304
0.59,31.222175605541025,131.01041225740735,9.521481758207864,13.669851514028062,9.966837694453572,34.32446288450853,-1.0936470397466636,1.888537191855208,360.68438819711065,25.96328677126644,9.599683052338795,69.9808207019232,0.0147677115816285,113.71573150730802,412.5075429735836,15.288,0.0,6.483739984649354,0.0763049451054011,1.7228108942806455e-08,-0.0037906582600391,0.0021556440268137,0.0002609960623535,16.861402235362817,31.814616170636143,27.520990124286737,34.3937696230374
0.6,31.22217526938296,131.010413192792,9.736029749390092,13.54811963447254,9.83901252667738,30.593418626479167,-1.1173291214743084,1.8502539978753887,329.4859594986058,26.33206569008828,9.744722228737045,69.97856014802376,0.0183416786663513,113.71953581018552,424.3004244742913,15.288,0.0,6.507850090390028,0.0773889572571563,1.9902124560089616e-08,-0.0041381788650635,0.0024197507899753,0.0002889647666696,16.689613308231518,31.433595855890232,27.869989478900813,30.669677655256677
0.61,31.22217492916004,131.01041414199878,9.95382154000444,13.425656360528135,9.711820741298666,35.719947106198006,-1.1415858928322655,1.8109721033812087,372.0984511843297,26.70711981968484,9.891729182360033,69.9760979672754,0.0223339581043178,113.72378539519828,436.46420625279046,15.288,0.0,6.531876656623047,0.0784914201838421,2.2846110352453576e-08,-0.0044951368818516,0.0026897249939223,0.0003183549433057,16.517621496597762,31.054481769257897,28.225354455420096,35.784039173624905
0.62,31.222174585005,131.01041510470833,10.174772040453576,13.339162583564848,9.610727823162232,44.22968932322956,-1.1632277597496714,1.775203341441876,442.86563930529206,27.01754526198869,10.015399481485517,69.97342856992246,0.0267536841591648,113.72849000634584,446.6600241322761,15.288,0.0,6.555825018991122,0.0794039491273446,2.6065816465375288e-08,-0.0048615869023623,0.0029655614627385,0.0003483023050661,16.389673121146757,30.754557588939747,28.5201254802433,44.280581109036106
0.63,31.22217423675685,131.0104160813963,10.399022557552687,13.244177065910296,9.5046856653121,25.41636579848026,-1.1859627761158769,1.7377109851674863,286.11251274707894,27.34673776777692,10.145523681863931,69.97054649265648,0.0316096236021528,113.73365899931822,457.6010474753299,15.288,0.0,6.579661388805935,0.0803716417216249,2.9566681440724213e-08,-0.0052379119972837,0.0032474932170888,0.0003798278273186,16.252063719870687,30.43998054210677,28.832892144033984,25.503289936329026
0.64,31.22217388500648,131.0104170704959,10.626132180152087,13.134688071441568,9.389590805334068,24.968161388300462,-1.2104327419817005,1.6975699742681711,282.30782441796754,27.708042322562992,10.286870325193105,69.96744629986028,0.0369105642476756,113.73930174522872,469.7623116304432,15.288,0.0,6.603403412283878,0.0814337188962812,3.3354369174393434e-08,-0.0056233201625601,0.0035349018219355,0.0004131542621337,16.097572513340943,30.098015229323284,29.176362841502705,25.055058857496547
0.65,31.22217352975328,131.01041807204555,10.856117514323875,13.051544673868108,9.293583025470015,43.54295673382472,-1.2328787077013488,1.6601286441154333,436.7781447787475,28.019137371673768,10.410097134687144,69.96412247416994,0.0426650752015088,113.74542739729564,480.35953533906735,15.288,0.0,6.627002758341823,0.08234823846432,3.7434222628258426e-08,-0.0060180476114842,0.0038279156260607,0.0004471099892077,15.975349838019302,29.81455634387053,29.47257702560466,43.592030213637074
0.66,31.2221731705198,131.0104190873767,11.089363526384687,12.964048880860064,9.195455976299169,37.153277606903806,-1.2560953756410007,1.6214109354528023,383.51251517160017,28.341272437079027,10.537015710613996,69.96056952669741,0.0488817492098475,113.75204512876796,491.4573759635165,15.288,0.0,6.650515869219856,0.0832952125322511,4.1811422553278856e-08,-0.0064230497665447,0.0041271767917754,0.0004826751026462,15.848425227371562,29.52495038477309,29.779498530001234,37.20984796999274
0.67,31.22217280750548,131.01042011598545,11.325732427452897,12.863997069229894,9.089621726642774,25.81756813237969,-1.280949652648146,1.580162634154476,289.1562440103425,28.69259130350556,10.674086453434487,69.95678161965581,0.0555697338893036,113.75916470561826,503.7056876807744,15.288,0.0,6.673954779100607,0.0843279661915828,4.6491763844508985e-08,-0.0068381788673707,0.004432532943606,0.0005202290944622,15.706952727847794,29.211955105233656,30.11440418829238,25.897578462726294
0.68,31.222172440892844,131.01042115741302,11.565099279302853,12.769470021983851,8.988415099982838,32.05149512307328,-1.3056803904478052,1.538896626091031,340.8999924858462,29.035086581447285,10.807794975732058,69.95275277284141,0.0627381270451607,113.76679585261208,515.7907844236503,15.288,0.0,6.697231543157077,0.0853347955145956,5.14810072168113e-08,-0.0072633476942063,0.0047438761992039,0.0005591577969746,15.57262605525566,28.913518692697235,30.441199390367565,32.11497071043635
0.69,31.22217207077672,131.01042221143743,11.807406485886473,12.68980079787336,8.898149222309637,39.296379052175695,-1.3292732961286022,1.4990896549903283,401.0140726853634,29.34758288169137,10.93060752695318,69.94847714405309,0.0703958185967177,113.7749480680958,526.940886571541,15.288,0.0,6.72041885981316,0.0862534652053039,5.678475522957716e-08,-0.0076985707198891,0.0050611716865942,0.0005990275017293,15.45662198874354,28.648955177596083,30.739689138481985,39.34742232855632
0.7,31.222171697039407,131.010423278411,12.05275988302272,12.610427693267647,8.808856629490567,33.07970734938613,-1.3531861315137608,1.4586412030380047,349.27032420985284,29.66117485556549,11.053587695174755,69.94394886132305,0.0785515522426371,113.7836307015943,538.249565533328,15.288,0.0,6.743512588388594,0.0871753631432096,6.24083975543207e-08,-0.0081442378593531,0.0053846499552497,0.0006404612902622,15.341442919954904,28.38772464930005,31.039422185144005,33.13948981482292
0.71,31.2221713197492,131.01042435818192,12.301121810269851,12.523262911254728,8.71503909563471,27.317423121885465,-1.3783102872335424,1.4162450145612873,301.33126406340574,29.994270665908928,11.183291599057409,69.93916185680109,0.0872142502748216,113.79285329881024,550.3934338663281,15.288,0.0,6.766452798675092,0.0881545918812283,6.835755525598558e-08,-0.0086004013928002,0.0057143013342873,0.0006839128390755,15.217384619075023,28.112977732410137,31.357953155528055,27.38881332240019
0.72,31.222170938923707,131.0104254507357,12.552493752935588,12.426778493747491,8.615733199476823,33.284361024000525,-1.4049215869786442,1.3714914470613155,350.79220534145287,30.3516867514518,11.321413064564243,69.93411002325735,0.0963929508225964,113.80262552445218,563.5751184414664,15.288,0.0,6.789303683088559,0.0892053077858019,7.463789412622965e-08,-0.0090672483915464,0.0060502109220475,0.0007296113656908,15.082649676498416,27.821473686705644,31.699948369781243,33.34221771614669
0.73,31.222170554575868,131.01042655607148,12.806881174858535,12.355753172282352,8.534287025253315,41.91363989101871,-1.4290250414112395,1.3302101183085229,422.320318528234,30.651504304945863,11.438851432443755,69.92878692238567,0.1060969974556728,113.81295738049988,574.7501932153945,15.288,0.0,6.8120695251515455,0.0900867469228879,8.125526843424024e-08,-0.009545007890532,0.0063924920321722,0.0007756230770322,14.97880117783532,27.585537805600524,31.987115401644065,41.95908459966478
0.74,31.22217016665768,131.01042767434984,13.064335206124026,12.277519603079144,8.448675409686766,26.517348052130927,-1.454293898327755,1.287033303603984,294.48281347105944,30.969737889330965,11.562624059736468,69.92318623808913,0.1163353289911993,113.82385844321396,586.7321161664247,15.288,0.0,6.834684212190686,0.0910223203266254,8.821526748563689e-08,-0.0100339003628741,0.0067412503683325,0.0008237951170167,14.866746290255549,27.337168845203475,32.29204856367617,26.588365372567583
0.75,31.22216977553919,131.0104288046006,13.324585247741725,12.195046246187184,8.36092300692454,30.83757344597685,-1.4804663340313025,1.242338454046072,330.24688556441487,31.30016184142375,11.690527945000056,69.9173016431457,0.1271168820890577,113.83533828431597,599.3039135996073,15.288,0.0,6.8571847551281335,0.0919937305527152,9.55238356258044e-08,-0.0105333942981971,0.0070960691701656,0.0008740091315285,14.75004654456207,27.08245285276277,32.608836442020355,30.898076338772587
0.76,31.222169381124537,131.01042994711256,13.587718854648704,12.121811738849006,8.27999273555119,33.14113364793636,-1.5058742888916,1.1985777585165525,349.27032420986166,31.609418505013565,11.810716211738413,69.91112677251155,0.1384504604205276,113.84740634135974,611.1896429633754,15.288,0.0,6.879584150768405,0.0929029369351738,1.0318641664348669e-07,-0.01104390552055,0.0074571903228031,0.0009253994995556,14.644768030073164,26.84929010018362,32.905514418781536,33.19697253496973
0.77,31.22216898336996,131.01043110203267,13.8537831464991,12.0512761681324,8.201479071203817,31.039271741060684,-1.5312789742285051,1.1546325871195608,331.7687666960708,31.91299630807672,11.928691087264513,69.90465513014088,0.1503449110994212,113.86007210475016,622.9698671504052,15.288,0.0,6.90186501019206,0.093795461084491,1.1120855222605913e-07,-0.0115657178516565,0.0078247620737511,0.0009784060958762,14.543084117308004,26.624062250036623,33.19688666765166,31.09846269389471
0.78,31.222168582352275,131.01043226918128,14.1227322789578,11.97403382634358,8.119140691862107,25.63008551828205,-1.557898343773274,1.1086930327028135,286.8734378128899,32.23492762992438,12.052988264689036,69.89788016989083,0.1628090443553546,113.87334502879892,635.5856137770558,15.288,0.0,6.92400294323303,0.0947419366505591,1.1959592305635757e-07,-0.0120988344796782,0.0081987383087626,0.0010338034861545,14.433785065833929,26.387297416703536,33.50601526439377,25.701313802308757
0.79,31.22216817817169,131.01043344831552,14.394502530974544,11.893373863569051,8.035184299581996,36.10970883754912,-1.5853784467710264,1.0612764614209031,373.6203323159534,32.56753056111774,12.180879979319789,69.89079522079139,0.1758517180941266,113.88723462443096,648.7524089680446,15.288,0.0,6.946032510066962,0.0957197861167303,1.2835428243587328e-07,-0.0126432510460807,0.00857906842593,0.0010914403705031,14.320800034199433,26.14574711064796,33.82556118427801,36.16007197005594
0.8,31.222167770620924,131.01043464002194,14.669265929719923,11.827389056316214,7.961478727970291,36.57931014853082,-1.6112292417888543,1.0160896151808692,377.42502064505743,32.86259297712583,12.29525510625888,69.88339335061877,0.1894820054317829,113.90175064205464,660.543648366503,15.288,0.0,6.9679702108022665,0.0965873085336462,1.374891139228379e-07,-0.0131996694116789,0.0089661825445409,0.0011497670151427,14.22561886488398,25.93668061438685,34.109158582881065,36.628874248577226
0.81,31.2221673598138,131.01043584401927,14.946947731809532,11.753061968480347,7.882883517273731,24.088612733283355,-1.6385824365783133,0.9684651455991948,273.9374926939919,33.181041373860815,12.417732845855149,69.87566770934315,0.2037088119710577,113.916902651124,673.3894497203657,15.288,0.0,6.989800622478438,0.097523574103497,1.470063144209342e-07,-0.0137679816299696,0.0093599570218364,0.0012108592717932,14.120877929997894,25.71259283358943,34.41537909895672,24.163694679287033
0.82,31.22216694594988,131.01043705979555,15.227407638995365,11.675668554835395,7.802851857397439,30.71513102772613,-1.666759356619176,0.9193983973432394,328.72500443277005,33.50921791053728,12.543487689168533,69.86761135225194,0.2185409750552937,113.93270015687608,686.7571185473108,15.288,0.0,7.011474338664634,0.0984884410382791,1.5691185941990484e-07,-0.0143479541057199,0.0097601843903873,0.0012743125342091,14.012836823934403,25.484372767233083,34.731101884967245,30.774058136948714
0.83,31.22216652902396,131.01043828738955,15.510661893460473,11.61550680632832,7.734584006669616,38.816998441996766,-1.6927628676727846,0.8733934264543878,395.68750322465047,33.79043155529133,12.652412581681723,69.85921719493355,0.2339873315033492,113.94915267361964,698.3131963044372,15.288,0.0,7.033042648283344,0.0993152860388005,1.6721141272080237e-07,-0.0149398515786435,0.0101669944658733,0.0013379808318056,13.925551286521248,25.293620088316192,35.00169046386553,38.86370582239327
0.84,31.22216610894004,131.0104395270816,15.79679490183346,11.552471292279405,7.66495977823671,24.291240709982144,-1.7194796916548536,0.8261226531146785,275.4593748256452,34.07996612347782,12.764106028439954,69.85047819444223,0.2500564073210627,113.96626939314906,710.3119922780859,15.288,0.0,7.054506887925116,0.1001665961333506,1.779103965326072e-07,-0.0155440287994699,0.0105805756946401,0.0014039792292478,13.83516989993492,25.09896937236943,35.2803870913284,24.366030950450188
0.85,31.22216568600395,131.01044077807123,16.085584384932602,11.476459097912883,7.587466676341531,26.41401686559098,-1.7485304048432109,0.7751267233440599,292.96093233939376,34.40752086514913,12.889117615343132,69.84138740550115,0.2667565734240676,113.98405933756683,724.011654257687,15.288,0.0,7.075849896355134,0.1011296626277924,1.8901485686894048e-07,-0.0161599360274377,0.0110005098761473,0.0014735976160401,13.72974460529712,24.879710694237826,35.59587691335217,26.483173280209982
0.86,31.22216526005113,131.01044204082262,16.37716700460935,11.410969798449807,7.517282021314583,32.86456507894716,-1.7763026920787257,0.7258553349952704,346.2265619465587,34.70549900759791,13.003472904256968,69.83193745603035,0.2840964922046352,114.00253186040304,736.5855893717587,15.288,0.0,7.097086081224166,0.1020058075835698,2.0053012563032882e-07,-0.0167882291522634,0.0114271861213748,0.0015441052916533,13.637074037167713,24.683960962106703,35.88292611342162,32.92053697997012
0.87,31.22216483111528,131.01044331526555,16.671527629609358,11.350576495685912,7.450843563358178,30.662873969955545,-1.8035574717235288,0.6771632506341594,327.964078366998,34.98864190207859,13.112405554520116,69.82212109077152,0.3020846144153625,114.0216960865731,748.6322380789619,15.288,0.0,7.1181886025232215,0.1028383578788649,2.1246186531699546e-07,-0.0174290168163782,0.0118606255903538,0.0016160746818129,13.550708299086637,24.50054908164833,36.15572178393553,30.723333310680932
0.88,31.22216439924111,131.0104446012988,16.968642248987145,11.283950947882898,7.380882607901053,26.617631514041825,-1.8321461088656383,0.6262377119632295,294.4828134710418,35.29069763594262,13.22788379056751,69.81193095120138,0.3207292514161882,114.04156100532587,761.5921324283677,15.288,0.0,7.139168972885368,0.1037265055912092,2.248157860092473e-07,-0.0180823164636215,0.0123007886555947,0.0016910769458367,13.45726757418536,24.30628629930928,36.44687999884993,26.68796059000067
0.89,31.22216396451961,131.01044589869736,17.268451742702965,11.211332815404612,7.307584597394516,29.11156320843561,-1.8621057079084344,0.5730080131651605,315.028134248087,35.61180092512337,13.34996145007708,69.8013595874227,0.3400386837357775,114.06213557949526,775.4920151881945,15.288,0.0,7.160036522603528,0.1046706472515356,2.375976397932088e-07,-0.0187481349156218,0.0127476289970213,0.0017692473820438,13.357048645219349,24.10165866471364,36.7565641214393,29.176683983779213
0.9,31.22216352688361,131.01044720765947,17.571017041302404,11.155429427575244,7.245387515406057,32.06768466278139,-1.8895333157776664,0.5234353413776754,339.37814235421445,35.88170694499728,13.453727547140298,69.79039931811714,0.360021375092887,114.08342897545973,787.2687745582919,15.288,0.0,7.180798997197034,0.1054643184217496,2.5081293979823774e-07,-0.0194268793729691,0.0132013631631627,0.0018471411053141,13.276804246174056,23.932894371176182,37.016778928787296,32.12756947451241
0.91,31.222163086411708,131.01044852799035,17.8762873307646,11.09338729304726,7.179725061341316,24.60781577999633,-1.9183165160061868,0.4715801443193021,277.7421810230789,36.17064167039024,13.564090133101498,69.77904262785678,0.3806852644881368,114.10544980869176,799.9752120362641,15.288,0.0,7.201450218973818,0.1063139280464216,2.644673852399428e-07,-0.020118495752527,0.013661903179427,0.001928248137649,13.189589522312929,23.753390161883196,37.29548103493467,24.68697882589797
0.92,31.222162643315343,131.0104498591412,18.184111716122903,11.025476971500508,7.11079252641997,29.13167065441492,-1.9484819068920205,0.4173848273158469,315.02813424806214,36.47855514764368,13.681050387239589,69.76728189582342,0.4020382408061032,114.12820664970234,813.6291895746157,15.288,0.0,7.221980458240211,0.1072193297729712,2.785670523264979e-07,-0.0208225945366974,0.014128943325714,0.0020126619350674,13.095732698912474,23.56369348010203,37.592650705089895,29.199743611080873
0.93,31.22216219751009,131.01045120135197,18.49456251878708,10.972593249321733,7.051752388252939,34.48821504780794,-1.9761973018341927,0.366746011969851,359.1625070654728,36.73807776269776,13.780705092231951,69.75510940464936,0.4240881218888119,114.15170800262943,825.2227137379181,15.288,0.0,7.242400054915556,0.1079825080041303,2.931170600941167e-07,-0.0215396686994111,0.0146027534993317,0.0020967220440002,13.019792345588172,23.406205500781457,37.84297005678872,34.54673408003886
0.94,31.222161748890315,131.01045255491573,18.807726613115044,10.906863325513145,6.985046358831997,25.269015048577536,-2.006595109859243,0.311754272647433,283.0687504837787,37.03922337591508,13.894984622731464,69.74251748307945,0.4468424012845583,114.17596203520216,838.7817961568708,15.288,0.0,7.262708681573894,0.1088680358703449,3.0812258754390733e-07,-0.0222700657166325,0.0150835063051935,0.002185524710163,12.929005486475656,23.224336696279373,38.13371602520769,25.350478026788036
0.95,31.22216129775612,131.0104539190473,19.12338642052589,10.843389819059928,6.920168523484354,32.47312150561245,-2.036893924363904,0.256688985245486,342.4218736174873,37.33316770153687,14.0065894170991,69.72949817929654,0.4703088055523537,114.20097717243964,852.121980861525,15.288,0.0,7.282893285116307,0.1097324065300204,3.235899958909016e-07,-0.0230132421745074,0.0155707977451668,0.0022763122353522,12.841112665061717,23.04869214520441,38.417544303051,32.53795393709516
0.96,31.22216084381511,131.01045529453503,19.441768667636097,10.78748409707278,6.860407432685034,31.833832706528657,-2.0660079927533044,0.2032384510269407,337.09533515678345,37.60142924745122,14.108941350879196,69.71604352482305,0.4944948341370567,114.22676160793092,864.385576790937,15.288,0.0,7.302961794423334,0.1105212977499603,3.3952376500302265e-07,-0.0237701907198266,0.0160652145234256,0.0023680066785363,12.76232852568164,22.89000478843589,38.676486396811725,31.901451372646825
0.97,31.22216038709236,131.01045668132207,19.76286127693527,10.72839017201836,6.799042276806577,20.66636176882568,-2.096031073058192,0.148156081850621,245.02188719299323,37.88000568416852,14.214819165687944,69.70214536015375,0.5194080490093841,114.25332361163764,877.2138565801997,15.288,0.0,7.322926685288194,0.111340516552209,3.559295681228977e-07,-0.0245410139811664,0.0165667667451106,0.0024628334786866,12.680035725770674,22.7264645240808,38.945492018231306,20.772910370090045
0.98,31.222159927885887,131.01045807862815,20.086447989385128,10.657361496692191,6.73066949938235,29.722279603892,-2.1288276503338484,0.0885186170805725,319.5937466429581,38.1998889856048,14.335257731131025,69.68779550239829,0.5450557813041518,114.28067121753176,892.0642112722115,15.288,0.0,7.342774725590503,0.1122811579587424,3.728140548699329e-07,-0.0253250098783119,0.0170749510579545,0.0025628945459983,12.584002671283502,22.54038667866312,39.25471012177238,29.798551098372723
0.99,31.22215946604972,131.01045948684995,20.412644745604915,10.60754011571712,6.675792067524628,32.407611184963486,-2.1575060997714672,0.0350817083521912,341.6609485517054,38.44546138864514,14.429178860858425,69.67298555837458,0.5714454431154699,114.30881255734108,903.5422449600716,15.288,0.0,7.362520542557841,0.1130033863066491,3.901820360514529e-07,-0.0261229143316095,0.0175901827911283,0.0026605541934967,12.513005424286415,22.398667643536022,39.491721324892325,32.479367697241
1.0,31.222159001585,131.0104609059893,20.74145551254141,10.546120656714912,6.6141143353437615,29.08656279663651,-2.1889031652596143,-0.0228353491193098,314.2672081822764,38.73126451421352,14.537276436769384,69.6577073929348,0.5985837320535609,114.337755011796,916.9970635891344,15.288,0.0,7.382158256618933,0.1138438746002933,4.080390034830844e-07,-0.0269347546301722,0.0181124232803885,0.0027635440423179,12.428659340795456,22.235069299576494,39.76790121877832,29.16881817699737
1.01,31.222158534679345,131.01046233555806,21.072746499033247,10.487090983645396,6.554265980727275,30.38607084490305,-2.220070851676231,-0.0806283144481325,324.9203161036979,39.00815386158286,14.642104438176627,69.64195254407244,0.6264776088848806,114.36750625335584,930.1255346105736,15.288,0.0,7.401685105241007,0.1146581717299862,4.263910665316957e-07,-0.0277602325653121,0.018641428403552,0.0028685100008539,12.347318105677449,22.07777839938652,40.03545161356566,30.467171133911013
1.02,31.22215806525721,131.01046377576012,21.40657861613337,10.431501784038188,6.4968700504848,25.490121149824496,-2.250736667234118,-0.137865503768057,284.59063161540416,39.27186513574694,14.742140829574952,69.62571262439165,0.6551336198806706,114.39807352447612,942.713884030681,15.288,0.0,7.421105691360717,0.1154337432957185,4.452432071319374e-07,-0.0285997336257081,0.0191773861010659,0.0029751403755011,12.270197352933048,21.928883695366437,40.29020556722364,25.589667810956268
1.03,31.222157593389944,131.01046522641067,21.74290311099241,10.36821973741526,6.435121740296417,20.961175985951687,-2.283421653573209,-0.1985255510673584,247.30469339049705,39.563335766458174,14.851957170459483,69.60897924218489,0.6845580245832877,114.42946377351288,956.7283036183763,15.288,0.0,7.440416534847253,0.1162909187394744,4.6460102751608043e-07,-0.0294531726070514,0.0197201866058423,0.0030865612594658,12.184309032803158,21.765963704051508,40.57203849572366,21.086116891368864
1.04,31.22215711914264,131.0104666873428,22.08167655045917,10.31294981035118,6.378590151975358,32.90002188382399,-2.3145468371748694,-0.2569640151615464,345.46563688072297,39.82439893147548,14.950863664716357,69.59174371842106,0.7147572552200534,114.4616841453441,969.364578975333,15.288,0.0,7.459620269098593,0.1170587250738505,4.844700753405108e-07,-0.0303205985531449,0.0202698049422244,0.0031983264153721,12.107957897504669,21.62057700687251,40.824277159112505,32.98233766006681
1.05,31.222156642225176,131.01046815931824,22.423115985506097,10.25157115652684,6.318685918498876,20.13294904254492,-2.347370945322976,-0.3183359274337457,240.45625879819983,40.1077242076167,15.057591056198303,69.57399741783784,0.745737366154065,114.49474139486448,983.1742234188208,15.288,0.0,7.478727135010878,0.1178919777044193,5.048543180142815e-07,-0.0312030334623687,0.0208268211481808,0.003314716412668,12.024690845632316,21.464350458563874,41.09825040641085,20.2718308316578
1.06,31.222156162880488,131.01046964170172,22.767046180864494,10.185123762868567,6.256062190357678,28.37445635819449,-2.3817542490920087,-0.3824396769485894,308.17968365593924,40.41023222702341,15.171073280978897,69.5557313382736,0.7775046933380023,114.52864258974088,998.0281463177696,15.288,0.0,7.497729189033256,0.1187816257502354,5.257605080849562e-07,-0.0320998934718562,0.0213908126099176,0.0034355963469865,11.93572812482536,21.29935538938217,41.3909806820077,28.476811391598183
1.07,31.222155680991303,131.01047113480175,23.113557020020675,10.131534373965364,6.201520591797028,33.28672328345304,-2.4132620047853006,-0.4422211608169637,348.5093681440308,40.662213925294246,15.26646092570552,69.53693626309757,0.8100655950452205,114.56339483550782,1010.4799111427347,15.288,0.0,7.516637010045682,0.1195227668030781,5.471934294489175e-07,-0.033011845143259,0.0219621337768999,0.0035551142345783,11.861907446170594,21.16154982920464,41.634445583241394,33.37701814134974
1.08,31.22215519645336,131.01047263888785,23.46272674092713,10.075574714196934,6.145858585586032,22.63928686691297,-2.4455942129939374,-0.5035632246355868,261.00157857466235,40.92220585821392,15.364605948265,69.51760309434762,0.8434259074615102,114.59900469436852,1023.4088021355842,15.288,0.0,7.53545171405164,0.1202874626891272,5.691581282796633e-07,-0.033939302553942,0.022540978404624,0.0036782405135457,11.785513694488651,21.020364275133023,41.88574485658539,22.776562884206495
1.09,31.222154709547706,131.01047415322424,23.814351919123915,10.006620042093685,6.0827354355044045,20.88043829208741,-2.481553724912952,-0.5709670397013951,246.54375332474407,41.23337104225776,15.480943149178968,69.49772261255234,0.8775913257464611,114.63547859162362,1038.9965184258542,15.288,0.0,7.554162458673026,0.1212025881226667,5.916617811690577e-07,-0.0348814663778443,0.0231267931353022,0.0038089658775959,11.69422410794415,20.854486210652684,42.18705108445194,21.03513288571586
1.1,31.22215422035205,131.01047567760716,24.16837845053853,9.944854608972324,6.024236218332416,41.18011444633608,-2.51597875584868,-0.6361864582334109,413.1890617385841,41.51536601479654,15.586818117681725,69.47728547809177,0.9125673948578416,114.67282280703022,1053.220689623916,15.288,0.0,7.572772754798573,0.122031980006489,6.147100007304848e-07,-0.0358383613646236,0.0237195339797122,0.003940086468498,11.6114644570748,20.704340837087933,42.45990826096723,41.261806893577244
1.11,31.222153728451342,131.01047721311093,24.525109493200087,9.896999663196448,5.97430885526385,30.33963602114041,-2.5468999389854603,-0.6960353251427513,324.1593910376397,41.73906260206969,15.671779275706376,69.45628216433039,0.9483596077082268,114.71104358037206,1064.564894009557,15.288,0.0,7.591299807661378,0.1226900168999497,6.383056990283128e-07,-0.0368115847655768,0.0243201148933284,0.0040687505227378,11.544999547029867,20.58338162681281,42.675805228657154,30.454304759234475
1.12,31.222153233905445,131.01047875957028,24.884500740549093,9.824006857854062,5.909770978541952,11.888313610169112,-2.584952929889424,-0.7676304226315217,172.73281794065943,42.06573278281067,15.793465509215512,69.43470325404344,0.984972930672848,114.7501466038004,1081.2563791985915,15.288,0.0,7.60973572217832,0.1236507500725534,6.624550556144514e-07,-0.0378009528194255,0.0249283568616551,0.0042106589745796,11.449599671997412,20.41344398969668,42.99239229192487,12.190292802440208
1.13,31.22215273732403,131.01048031540512,25.24611385205787,9.765082409704164,5.853869679434404,35.63397633005122,-2.6194329365373075,-0.8337496123219312,367.5328077900705,42.333243248546,15.893979863405557,69.41253863564457,1.0224130487732443,114.79013835195924,1095.0142325552467,15.288,0.0,7.628068589715699,0.1244375955422277,6.871674301571362e-07,-0.0388046994782763,0.0255431258788158,0.0043498035594745,11.370662001568268,20.27291544308976,43.25116803084767,35.73984941792165
1.14,31.22215223801772,131.01048188238752,25.61044538807757,9.715989343301649,5.804037632777505,20.050659536249228,-2.6513098894986453,-0.8959248626783283,239.69531773195544,42.55721722437748,15.978831401601184,69.38977884502457,1.060684273960341,114.8310238507745,1106.5930164778265,15.288,0.0,7.646319791291295,0.1250964762400663,7.124433685100435e-07,-0.0398253577368398,0.0261658905732577,0.0044876759202787,11.303254451602044,20.153348328832845,43.46735487983136,20.24502589102569
1.15,31.222151736484527,131.01048345922015,25.977135148585152,9.6416977891677,5.739681961629468,19.771705960606475,-2.6907565677712526,-0.9706517113536242,237.41251153546767,42.88857723591686,16.102109350865966,69.3664143583108,1.0997906433284708,114.87280784700944,1123.8528784233536,15.288,0.0,7.664452749786699,0.1260710270928334,7.3829202751899e-07,-0.0408611449236136,0.0267955092831738,0.0046400798270864,11.206896143949605,19.98466709812704,43.78865717692858,19.977554711336406
1.16,31.22215123286585,131.01048504553486,26.346083302142567,9.595268085816503,5.691928227054164,50.59441423035009,-2.722228684561636,-1.0327165122599455,490.0437743845894,43.09755805677577,16.18151808870191,69.3424349744051,1.1397368547502171,114.91549581053114,1134.7916155645778,15.288,0.0,7.682490284560451,0.1266858539678135,7.647191648052439e-07,-0.0419119840945342,0.0274318745707544,0.0047824316689104,11.142870959164968,19.872897250106814,43.99017415357081,50.678119378268136
1.17,31.22215072624696,131.01048664366462,26.71794027078757,9.535707425067535,5.636766681405211,9.557316908832767,-2.7578026416271686,-1.1017266746109136,153.70937929486794,43.36220218467855,16.280791960791465,69.31783109053286,1.1805263138636664,114.95909184875526,1148.7299346862908,15.288,0.0,7.700455751801417,0.1274643138734248,7.917236092108909e-07,-0.0429811824686158,0.0280768969467163,0.0049343740228826,11.063849425340091,19.736183167789257,44.24619583492335,10.008075917556567
1.18,31.2221502178207,131.0104882505378,27.0918534233048,9.458769996494746,5.571791217160568,24.9725352709556,-2.799086461653224,-1.1803619549489155,280.02501822196746,43.70433713569224,16.407908340197135,69.2925925941739,1.222162809813264,115.00360049330187,1166.8868735095773,15.288,0.0,7.718311040905152,0.1284705705292559,8.193201223504115e-07,-0.0440643852436216,0.0287279096502579,0.0050984601626795,10.964965493060832,19.565933826532863,44.57817324952599,25.15662253212109
1.19,31.2221497070428,131.01048986753986,27.468210078445043,9.420540652175092,5.5295305268448045,43.09186604072809,-2.8284162448936745,-1.2397473213759609,428.4078130529292,43.86965753623015,16.47149100605843,69.26670906787821,1.2646501934177896,115.049026361858,1175.6890303890368,15.288,0.0,7.736086875110341,0.1289570839092339,8.475086507570567e-07,-0.0451641498345209,0.0293863708943136,0.0052452858345959,10.910824919595456,19.474223241403635,44.73688648304605,43.20238223463253
1.2,31.222149193435072,131.01049149586763,27.847342544092367,9.35143319767051,5.469664068247277,5.085584129599112,-2.8677710042276687,-1.3158393690935692,117.1843741360236,44.17403263912508,16.584988364712682,69.2401708835166,1.3079907413097955,115.09537240691792,1192.0164699463314,15.288,0.0,7.753785318089102,0.1298523655806228,8.762914508089043e-07,-0.0462820330924449,0.0300531285763661,0.0054122111893553,10.821286586228329,19.322089666891745,45.031901071941725,5.984873408617419
1.21,31.22214867820294,131.0104931324379,28.228397731077283,9.28410596219472,5.411109006197576,34.735635851752704,-2.906888667494832,-1.3918672840305564,359.92343213200894,44.46994661563497,16.69550624927299,69.21296736504048,1.3521878808332286,115.14264282732653,1207.99595266621,15.288,0.0,7.771377560956755,0.1307227856294577,9.056837313971146e-07,-0.047413654997627,0.0307255297375606,0.005581480404401,10.733958243558217,19.174638664396745,45.31865867381796,34.88483473211722
1.22,31.222148160415223,131.0104947796029,28.61202854766793,9.243171686005764,5.3679508849630615,25.347005315818063,-2.937322626827347,-1.453897770280986,283.0687504825761,44.6395217170082,16.760491085566425,69.1850883337782,1.3972438959635147,115.19084062070512,1217.1814454316332,15.288,0.0,7.788898351476609,0.1312218326655184,9.35681588916865e-07,-0.0485629791778365,0.031405839658979,0.0057383655427034,10.677104774415971,19.081109961096782,45.48148448365336,25.55801951287715
1.23,31.22214764042964,131.01049643642912,28.997976493323385,9.173626530609305,5.308649635210868,10.278650305516493,-2.977618642907379,-1.5324922148453517,159.79687382222795,44.94290920423349,16.87369780190232,69.15652410976787,1.4431599386311007,115.23996759045473,1233.7367985664866,15.288,0.0,7.8063279637006735,0.1321142425580566,9.662940302320035e-07,-0.0497283610598021,0.0320930201692818,0.005915787716339,10.587531334196678,18.931603630246222,45.77559735452236,10.810430022633026
