Time,Latitude,Longitude,Altitude,Angle of Attack,Angle of Sideslip,X-Acceleration,Y-Acceleration,Z-Acceleration,Thrust,True Velocity,Ground Velocity,Pitch,Roll,Yaw,Dynamic Pressure,cp,cg,parachute_deploy_gain,Wind Speed,Wind Direction,Mach,omega_x,omega_y,omega_z,Cmq,Angle of Attack(total),Angle of Attack(gust),True Velocity(gust),Acceleration
0.0,31.222216000000007,131.010392,3.000000004412624,0.0,0.0,0.0,0.0,0.0,2.2828121974499247,0.0,0.0,69.99999999623412,0.0,119.9999999935444,0.0,1.274,1.0271675151847728,0.0,0.0,0.0,0.0,0.0,0.0,0.0,-0.0,0.0,90.0,0.0,0.0
0.01,31.22221599999084,131.01039200000497,3.000002745347096,0.0,0.0,0.0,0.0,0.0,34.242186961749226,3.465174813755316e-14,2.8705476994166025e-14,69.9999999962611,-2.1713911667908447e-11,119.99999999352175,7.352495975525499e-28,1.274,1.0271659134330349,0.0,0.0,0.0,1.0183245502395064e-16,-3.3305335486039093e-18,7.169286865560398e-18,5.624298769768554e-18,-7.715917190115602e-34,0.0,89.99999999999979,3.465174813755316e-14,0.0
0.02,31.222215999994315,131.0103920000094,3.0000030495639742,0.0,0.0,0.0,0.0,0.0,25.871876237766216,3.8197434737535036e-11,2.4171837235633357e-11,69.99999999628672,-1.1921727947863515e-11,119.99999999353136,8.93414285188691e-22,1.274,1.027164492361118,0.0,0.0,0.0,1.1225230367947217e-13,-6.657678965418802e-18,1.4338573731120796e-17,1.1241821275959074e-17,-1.7010872994127372e-30,0.0,89.99999999975682,3.8197434737535036e-11,0.0
0.03,31.222215999994315,131.0103920000094,3.0000030495639742,0.0,0.0,9.81877837424427,-2.5122800045972096e-05,3.3498614629347925,180.34219359854663,1.2659015405517447e-10,1.1364406173918436e-10,69.99999999631459,-1.6431898037347223e-11,119.99999999352724,9.812605835254651e-21,1.274,1.0271551940870716,0.0,0.0,0.0,3.720154642239108e-13,-9.991600645811728e-18,2.150108433310316e-17,1.6859343782149594e-17,-8.453698244545225e-30,0.0,89.99999999919412,1.2659015405517447e-10,10.374487003414373
0.04,31.222215999994315,131.0103920000094,3.0000030495639742,18.83801224594347,-0.0001111777826462,48.68248476615645,-1.016330065874988e-05,3.3497854396877287,548.635972453808,0.1556173050466994,0.0975908358443652,69.99999999633813,-2.0932768807056278e-11,119.99999999352085,0.0148286043323172,1.274,1.027133720825283,0.0,0.0,0.0,0.0004573186944143,-1.3322134194415637e-17,-1.04744143520903e-11,1.336824254131964e-11,5.0626055458604615e-15,18.83801224625964,89.06236267790787,0.1555998412814392,48.79759610369246
0.05,31.22221599164764,131.01039201704114,3.002326315126219,5.772385609593056,-4.395076213712875e-06,71.20344550265034,4.905512691849684e-05,3.349217396035405,761.6984298824663,0.8326471944351852,0.3620326097059287,70.00000001316391,-1.0866255162484559e-10,120.00000000231074,0.4245281043148827,1.274,1.027093426565204,0.0,0.0,0.0,0.0024469331205246,-5.0245994431125096e-18,-7.32924164976824e-07,2.217344936947165e-11,1.895424184525467e-09,5.772385609594774,84.74112356985832,0.8326465040582279,71.28217104309611
0.06,31.22221596664444,131.01039206837547,3.015081730143309,4.056581213689704,3.169093567502233e-05,53.16249142470188,0.0001203825427859,3.3481235983850643,590.4875390737236,1.657216205300742,0.6755452977614796,69.99999964391398,-3.9285905645317736e-10,120.0000000287861,1.6816755551786196,1.274,1.027050317124926,0.0,0.0,0.0,0.0048701272653724,3.095757869075056e-13,-7.483541766772344e-06,3.074135420506017e-11,3.8518749565858254e-08,4.056581213813337,79.59316473687034,1.657221183301277,53.26781792157489
0.07,31.22221592883117,131.0103921460222,3.034593611434361,4.115662018628709,6.450869598349036e-05,81.18203554989698,0.0001593212642178,3.347059402768047,855.2937749779172,2.099899704220947,0.8579771146174259,69.99999543281565,-8.233801910783518e-10,120.00000006883089,2.700101932075157,1.274,1.027003201295312,0.0,0.0,0.0,0.006171060252819,3.4704292086287e-12,-2.6327204536316785e-05,1.9541142932033486e-10,1.7170712165327165e-07,4.115662019133419,76.90111966094352,2.099909837223217,81.2510043180746
0.08,31.22221588914193,131.01039222747755,3.0542761843835606,3.459696193892355,8.037433511260004e-05,16.298214211652088,0.0002413456836072,3.344878926597744,241.2171988638792,3.051964775152957,1.2149999716613011,69.99998042886442,-1.0128995578004475e-09,120.00000011111383,5.703497661025892,1.274,1.0269597189470347,0.0,0.0,0.0,0.0089689344021769,1.458982438104473e-11,-5.702803872814215e-05,7.043261397829576e-10,5.405702492731987e-07,3.459696194824858,71.30331929508368,3.051977400323993,16.63790856991177
0.09,31.2222158241468,131.01039236098703,3.0886872184095737,4.313676956300389,0.0001337561018991,50.35975918308536,0.0002293282821279,3.344215841840564,563.0937377043203,2.893161298572128,1.191209213966114,69.99994788602814,-7.098432023887522e-10,120.00000018106356,5.125380275808925,1.274,1.026918932011013,0.0,0.0,0.0,0.0085022553945842,3.8672912027154325e-11,-0.0001115933708951,2.016054215232918e-09,1.0027525988343615e-06,4.313676958370176,72.2316578138625,2.893182308931483,50.47067588835877
0.1,31.2222157788302,131.01039245392113,3.109877853389092,4.035124630954496,0.0001457499816535,47.804664812504015,0.0002878217657545,3.341734392237128,538.7437595981891,3.5677148583138303,1.4531247507621967,69.99988403958329,1.9248461973355822e-09,120.0000002323013,7.7939962029572305,1.274,1.0268846934974103,0.0,0.0,0.0,0.0104845969583028,8.579678749070606e-11,-0.0001726817043215,3.984565639703107e-09,1.913455350430327e-06,4.0351246335824245,68.43243098813296,3.567737752667411,47.92132267234452
0.11,31.222215703308,131.01039260899836,3.148841432727305,4.043401107254707,0.0001752764476999,37.67622367577205,0.0003286462930162,3.3392563999062723,442.86563930529127,4.034183355956686,1.6436552022667772,69.99978525353545,7.302513231814865e-09,120.00000031883242,9.96528118825134,1.274,1.026848594915519,0.0,0.0,0.0,0.0118554331868328,1.5870341853361987e-10,-0.0002596204409236,7.232030302688121e-09,3.252930323390323e-06,4.04340111104746,65.92012987243639,4.034210888316708,37.82391391539392
0.12,31.222215627491828,131.01039276462643,3.186995101203875,4.17874459224363,0.0002066711490009,41.15991989399172,0.0003576945202315,3.336766085769504,475.58594813540793,4.361857560629481,1.7865750500940407,69.99963665601238,1.781774420198147e-08,120.00000041104812,11.649831899889556,1.274,1.0268114448194128,0.0,0.0,0.0,0.0128183893919737,2.682972478760441e-10,-0.0003710216542429,1.2215991071490164e-08,5.026311388647148e-06,4.178744597345269,64.21681651392016,4.361890024457652,41.29495143136631
0.13,31.22221554594398,131.01039293200228,3.2277173449026786,4.202734874672792,0.0002327160860324,45.44886120763352,0.0003953741266062,3.333578629398489,515.9156326236897,4.792165672014363,1.9646716520715424,69.99942424225341,3.613383418913551e-08,120.00000051758742,14.061726603124043,1.274,1.026779572895131,0.0,0.0,0.0,0.0140829618979635,4.248908088871395e-10,-0.0005056103199642,1.908859219307828e-08,7.5253154423526356e-06,4.202734881104192,62.048594618540655,4.792202226971676,45.570952718869485
0.14,31.222215454191247,131.01039312033683,3.2737880595608355,4.184830647080848,0.000257138757548,42.32232525579263,0.0004369426767266,3.329727443445437,486.2390860568421,5.269261304374574,2.158791628597544,69.99913473613935,6.515851355725497e-08,120.00000064630268,17.000925061330125,1.274,1.0267449573927567,0.0,0.0,0.0,0.0154850332441425,6.382432869666793e-10,-0.0006690086306358,2.8426433029675884e-08,1.0948547100483978e-05,4.184830654966803,59.74181173116622,5.269301695636157,42.45310707234106
0.15,31.222215353826755,131.0103933263496,3.3242182719560263,4.21963947489699,0.0002846467688673,40.886944113003565,0.0004726792395108,3.325585650885676,472.5421858721398,5.6781946837482895,2.329510773545807,69.99875162806286,1.0876776246115984e-07,120.00000079954532,19.742017654108928,1.274,1.0267115958081523,0.0,0.0,0.0,0.0166867950518804,9.204756288136623e-10,-0.000865746478554,4.08948221429571e-08,1.526771148078443e-05,4.219639484480408,57.84996018384879,5.678239395958187,41.02196629910223
0.16,31.222215247130432,131.01039354534575,3.3775922280208457,4.253495568077899,0.0003118339050386,32.26872905470846,0.0005078415214353,3.32090791922544,391.1218908297597,6.081244877834229,2.4981889727471702,69.99825581174558,1.7187028096464329e-07,120.0000009800088,22.644030778355887,1.274,1.026675762255412,0.0,0.0,0.0,0.0178712695992133,1.2856146928958252e-09,-0.0010961187242953,5.6923362293832417e-08,2.0702404729358337e-05,4.253495579487569,56.06022383757386,6.081293860589489,32.43916312841722
0.17,31.22221513260033,131.01039378041813,3.4348437275053194,4.364838523348639,0.0003448792023946,40.840448242802736,0.0005326487904353,3.3162727284953744,471.78125980632416,6.362544479165355,2.6250789114832647,69.99762801982864,2.5997588617291615e-07,120.00000119506798,24.78723182122683,1.274,1.0266409836796937,0.0,0.0,0.0,0.0186979513961862,1.747791994374917e-09,-0.0013624931601664,7.706724512977917e-08,2.6923621797558364e-05,4.364838536947241,54.85936171416122,6.362598652663785,40.97486885600156
0.18,31.222215014088988,131.01039402363364,3.4935801365785646,4.353948305387995,0.0003681615230806,33.992183768165326,0.0005718025428208,3.310131992647221,407.1015672119096,6.81502088160835,2.810667639293692,69.99684761766231,3.794979223522764e-07,120.00000144728236,28.437950785509614,1.274,1.0266048342046536,0.0,0.0,0.0,0.020027681385988,2.3221419748804155e-09,-0.0016616990447559,1.0147209890543081e-07,3.517105786247627e-05,4.353948320923495,52.99157233768714,6.815078712285162,34.152972512863755
0.19,31.22221488419521,131.01039429023237,3.558399965607869,4.432620772533925,0.0003996774584738,38.45149959021069,0.0005986099513107,3.304145139297767,448.95313283182486,7.1223367465208405,2.946425726785696,69.99589577323147,5.440084577183829e-07,120.00000176148238,31.060341085698347,1.274,1.026566130444714,0.0,0.0,0.0,0.0209308229359413,3.022391489754689e-09,-0.0020041563310821,1.3135864879722746e-07,4.433199397898183e-05,4.432620790516937,51.77883352025967,7.122399527709208,38.59320142454953
0.2,31.222214751373183,131.01039456280608,3.624052454705669,4.443889400961181,0.0004246617145652,35.23432408779927,0.0006337972852267,3.2968110145188256,418.5156301991588,7.530482904611057,3.1167566004785483,69.99474776398331,7.478025600151903e-07,120.00000211715036,34.72195181863731,1.274,1.026529240027363,0.0,0.0,0.0,0.0221302820454282,3.866698391504749e-09,-0.0023849544920781,1.668144671071589e-07,5.57780533277244e-05,4.443889421210987,50.22448880200342,7.530549610317194,35.38822625098952
0.21,31.222214608673173,131.01039485566503,3.6948551453492566,4.493351735844891,0.0004538195602194,33.79371564104691,0.0006629296043866,3.2891790438445727,404.8187610144608,7.868284042829251,3.2629204975089228,69.99338155599101,1.0150082652278477e-06,120.00000255293388,37.906665490338085,1.274,1.0264923657015164,0.0,0.0,0.0,0.0231230169900677,4.871073773182836e-09,-0.0028117605859743,2.089322918608601e-07,6.870935089180403e-05,4.493351758715364,48.992529909481824,7.868355328639073,33.95340801819282
0.22,31.22221446109996,131.01039515850383,3.767700382407304,4.5412639153933885,0.000482649303782,41.008966751568416,0.0006914639179131,3.2808061382386606,472.5421858721387,8.20057841132235,3.4071691679735228,69.9917708347139,1.3454961520984431e-06,120.00000305929996,41.175744234065135,1.274,1.0264494137127138,0.0,0.0,0.0,0.0240995709751246,6.054779813287368e-09,-0.0032829112061357,2.580881224843564e-07,8.3609968899004e-05,4.54126394098788,47.82515604752711,8.2006542256977,41.13999323561041
0.23,31.22221430675399,131.0103954752338,3.843768625625224,4.52371495179584,0.0005047555656171,33.98493478127787,0.0007294889663961,3.2705214710765107,406.340642146096,8.647938096586296,3.5908865300848416,69.98989017772566,1.7539876018835507e-06,120.00000365514876,45.79040229326471,1.274,1.0264133390858623,0.0,0.0,0.0,0.0254142776666487,7.436335125872812e-09,-0.0038001790077148,3.1489825108822685e-07,0.0001020628978177,4.523714979897577,46.31461705147579,8.648017383405135,34.14194053232237
0.24,31.222214142622448,131.0103958120587,3.92493179063287,4.57837522350066,0.0005351929930195,35.051650311058864,0.0007555049947555,3.26053011385611,416.2328240017099,8.954297884844461,3.72617527247482,69.98771316795013,2.25257161141768e-06,120.0000043564586,49.09180568115741,1.274,1.0263750048312463,0.0,0.0,0.0,0.0263146218848643,9.034877387788232e-09,-0.0043732521010013,3.809642748985157e-07,0.00012161410144,4.578375254714954,45.32798984252032,8.954381952763216,35.20297212911011
0.25,31.22221397517227,131.0103961556623,4.0071748888306855,4.6034117733065,0.0005618935542827,36.03738579534623,0.000785606492708,3.249069743648399,425.3640807915084,9.311611941121669,3.8789349536029696,69.98520781816889,2.8559738498748624e-06,120.00000517181904,53.08749562138344,1.274,1.0263373768840591,0.0,0.0,0.0,0.0273647110956883,1.0873791100894836e-08,-0.0049950711786164,4.5609738277273444e-07,0.0001444478241125,4.603411807525074,44.2165428352526,9.311700203154778,36.183554686886296
0.26,31.22221379934012,131.01039651647062,4.09364247475714,4.621386912291471,0.0005881033207375,39.29107511182762,0.0008162761165496,3.236407051295005,455.80158342417656,9.67833954512075,4.034902068846398,69.98234620927953,3.5784678110229355e-06,120.00000612171208,57.350948423913096,1.274,1.0263006300381676,0.0,0.0,0.0,0.0284424679130479,1.2973286442992724e-08,-0.0056712051373577,5.414206381221602e-07,0.0001704578711045,4.621386949630312,43.12063533194282,9.678431924174348,39.42414126789902
0.27,31.222213616776543,131.01039689108487,4.183310605341074,4.617158109135719,0.0006115457810536,35.90419462403674,0.0008503454714941,3.221982799915672,423.8421996598744,10.088790784535757,4.205862468567124,69.97909721779352,4.436165972465058e-06,120.000007221354,62.31798301949865,1.274,1.026260090595354,0.0,0.0,0.0,0.0296487219805601,1.5355910600537293e-08,-0.0064045199323113,6.379142666348734e-07,0.0002006609239367,4.617158149547818,41.94410287616451,10.08888684592241,36.048472443180565
0.28,31.22221342607797,131.0103972823952,4.277051150896916,4.642105655370123,0.0006389739579882,41.51133203546672,0.0008785747638736,3.2071101123224945,476.3468732012228,10.432377224420517,4.35383399240675,69.97542808435722,5.446665372087172e-06,120.00000849080963,66.63429581008447,1.274,1.0262212716723291,0.0,0.0,0.0,0.0306584788590473,1.8045308789081613e-08,-0.0072006835403936,7.469524967369969e-07,0.0002332868227611,4.642105699250441,41.0023231023774,10.432477594215127,41.63503624837164
0.29,31.22221323001776,131.01039768469093,4.373143569786686,4.62134615173668,0.0006600657405645,33.17552944492765,0.0009148746278066,3.1894209319791806,397.9703104221098,10.876662296046485,4.536381530986506,69.9713027936179,6.629751536885327e-06,120.00000994797426,72.43000748232016,1.274,1.026183007522519,0.0,0.0,0.0,0.0319641703260467,2.1067646517035105e-08,-0.0080566154554079,8.688043379161898e-07,0.000272130659453,4.621346198772975,39.83162628795024,10.876765978930557,33.32848872465723
0.3,31.22221302403368,131.01039810736614,4.4744193758467325,4.664362353358112,0.0006905183788532,31.08096762732793,0.0009381960428197,3.172549142946348,378.1859457108735,11.168362145070317,4.66647911311536,69.96668711012893,8.005507138509574e-06,120.00001161892672,76.36634300732833,1.274,1.0261430389738484,0.0,0.0,0.0,0.0328214509167604,2.4447409007156216e-08,-0.0089829108229115,1.0056222251461646e-06,0.0003115527202986,4.664362404357781,39.09908960432563,11.168470611443622,31.242464973103964
0.31,31.22221281503337,131.01039853619727,4.576593712520673,4.700143580504286,0.0007196683316923,32.79732593144512,0.0009620705970519,3.154230688182399,394.1656220930229,11.470279728974068,4.800072153432283,69.96154070456518,9.597499105113692e-06,120.00001352112182,80.55022837857167,1.274,1.0261054058068628,0.0,0.0,0.0,0.0337087616009043,2.8214060606649844e-08,-0.0099686353219717,1.1565909895184251e-06,0.0003550834484269,4.700143635477137,38.36463422765983,11.47039277421126,32.94865339301887
0.32,31.222212598991007,131.01039897947376,4.68216432480395,4.718667719113184,0.0007464384342556,35.7316568886908,0.0009885845337584,3.133859770838664,421.5593934624264,11.808280530415894,4.946054328851105,69.95582953472353,1.14278227255889e-05,120.00001568218067,85.36654007972253,1.274,1.026068246703101,0.0,0.0,0.0,0.0347021168382987,3.2392058795580455e-08,-0.0110163301561155,1.3226102501723267e-06,0.0004039614423012,4.718667778018562,37.5686120062341,11.808397780690962,35.8688218659563
0.33,31.222212376029034,131.0103994369436,4.791055524254013,4.72141404831576,0.0007708346814671,35.42013590291081,0.0010176135371143,3.1111955852784385,418.5156301991632,12.181577273013426,5.104163223586657,69.94951809396906,1.351997394754887e-05,120.00001812674968,90.84831229869296,1.274,1.0260310883392356,0.0,0.0,0.0,0.0357992034445943,3.700677535501642e-08,-0.0121310534481307,1.5051409581878843e-06,0.0004588955105349,4.721414111097893,36.7208578211118,12.181698355442045,35.55651229220977
0.34,31.222212145785647,131.0103999093516,4.903491659547144,4.73024573449122,0.0007962944975467,27.63851074646407,0.0010446307681611,3.0871492806781062,345.4656368807584,12.53557620048282,5.2556261014174765,69.94256797855994,1.5899658158227497e-05,120.000020882338,96.20413272674828,1.274,1.0259901535019136,0.0,0.0,0.0,0.0368395817555172,4.208561016221623e-08,-0.0133180771902383,1.7057647550599631e-06,0.0005184333231541,4.730245801363397,35.94841996438923,12.535701282129995,27.810389570354005
0.35,31.222211909310875,131.01040039453565,5.018822212845608,4.780248518778662,0.0008286678570753,30.332092807652543,0.0010618579815451,3.063967690608957,370.5765700527057,12.774786382148209,5.367579971644358,69.93493776125636,1.8594985713558667e-05,120.00002397748868,99.9096898192772,1.274,1.025950003202184,0.0,0.0,0.0,0.0375426220587071,4.7658312175989686e-08,-0.0145774693288123,1.9252724355785177e-06,0.0005782798420984,4.780248590437683,35.44790728185619,12.774916548990808,30.486451961956565
0.36,31.22221166933814,131.0104008868675,5.135354490370708,4.798132156899578,0.0008554457330409,34.32674769697476,0.0010851169437774,3.0374319611165923,407.8625232777224,13.09301701329486,5.506730645516068,69.92658597246795,2.163521613217148e-05,120.0000274401514,104.94818266210537,1.274,1.0259105142325406,0.0,0.0,0.0,0.0384778908056978,5.3755109608570216e-08,-0.0158991451700967,2.162609490834569e-06,0.0006464142451675,4.798132232978766,34.796094028187134,13.09315138639638,34.46087058603792
0.37,31.222211421355144,131.01040139563804,5.255882891363927,4.797392186816851,0.0008791822061288,32.551601855236584,0.00111162791192,3.0078619428913056,391.1218908297639,13.457513730739372,5.661815946371007,69.91747693543164,2.5047738471809164e-05,120.0000313040604,110.87154396328836,1.274,1.025872170958032,0.0,0.0,0.0,0.0395491312153729,6.040098808671168e-08,-0.0172926678053148,2.420031948898497e-06,0.0007226353721561,4.797392267189059,34.07332166419882,13.457651832357364,32.69027405888565
0.38,31.22221116634284,131.01040191882743,5.379799334000849,4.811698494594017,0.0009057112478668,34.02947987649063,0.0011338447913587,2.9774881690446744,404.81876101445977,13.77554886562956,5.800899861213392,69.90756948297444,2.886339581486796e-05,120.00003560072224,116.17243393848278,1.274,1.02583050512925,0.0,0.0,0.0,0.0404838339452728,6.762496638941508e-08,-0.0187646375218858,2.69955777313946e-06,0.0008026686661094,4.8116985796350695,33.46655348088405,13.775691134419684,34.15949264475229
0.39,31.222210906095896,131.01040245274032,5.505993307722699,4.813508003664984,0.000929862892873,29.00025983045028,0.0011579891265804,2.9442136901860865,357.6406249338268,14.124492165837273,5.950648592462506,69.8968186645841,3.311602501056718e-05,120.00004036395212,122.13093644173792,1.274,1.02579027384009,0.0,0.0,0.0,0.0415093739609825,7.545934774906889e-08,-0.020311592409804,3.0013532510753577e-06,0.0008908380763632,4.813508093268025,32.821616487639595,14.124638228358922,29.149330452482886
0.4,31.222210638473225,131.0104030017851,5.635788650457906,4.841647069358873,0.0009592124397379,27.71178845184976,0.0011749448424961,2.91135549588368,345.4656368807565,14.390874239274588,6.07193451174791,69.8851815212744,3.783947407715338e-05,120.00004563180136,126.77947425345651,1.274,1.0257493418632293,0.0,0.0,0.0,0.0422922854866381,8.39343718693383e-08,-0.021938519432511,3.3271332720311508e-06,0.0009803271643914,4.841647164150728,32.348088166612904,14.391024912012275,27.864299944624147
0.41,31.22221036681104,131.01040355909262,5.767123077463226,4.86553909860892,0.0009876699832274,31.306062598221665,0.0011918093836199,2.876450850006428,378.9468707766882,14.663028799871563,6.195223154320929,69.87261222561014,4.307011032901644e-05,120.0000514391194,131.6183642808765,1.274,1.025708445186429,0.0,0.0,0.0,0.0430921644173401,9.308325447883581e-08,-0.0236371933433427,3.6760977501392174e-06,0.0010761942383903,4.865539198612839,31.87689439156756,14.663183942709727,31.437931330109585
0.42,31.22221008906472,131.01040412887247,5.901259531771367,4.867510642114694,0.0010118258958528,35.308283402190774,0.0012128114559048,2.8374461227958245,416.23282400171047,14.9952917972178,6.33928625560071,69.85906967380902,4.884273094936628e-05,120.00005782486392,137.64909586091787,1.274,1.0256701057426505,0.0,0.0,0.0,0.0440686959134695,1.0293499639582845e-07,-0.0254093547296826,4.049238334851429e-06,0.0011830797791891,4.867510747027452,31.315270489291198,14.995450734457847,35.422111438762386
0.43,31.222209804115888,131.01040471342728,6.038886819939341,4.854590670645608,0.0010330089741511,31.00586934514032,0.0012363751872706,2.794478603999558,375.90313951343126,15.369430568701889,6.497852263156962,69.8445117629242,5.519340856908871e-05,120.00006482835984,144.60167924299955,1.274,1.0256308158337524,0.0,0.0,0.0,0.0451682983415116,1.135186446762958e-07,-0.0272634397889413,4.449073329427772e-06,0.0013010625065656,4.854590780289497,30.70250814963406,15.369592833372094,31.13154422839874
0.44,31.22220951192321,131.01040531284193,6.180028459770617,4.866912332640401,0.0010595850174406,28.57707721036899,0.0012525768202179,2.752165534925872,353.07501253892326,15.659290812546615,6.627318538707029,69.82889155423543,6.216182865383864e-05,120.00007249162944,150.1053167542629,1.274,1.025586171750536,0.0,0.0,0.0,0.0460202245100907,1.2486676023179565e-07,-0.0292060158163984,4.8779154055816594e-06,0.001420032405556,4.866912447705031,30.24619499837236,15.659457251771938,28.709297424144207
0.45,31.222209215425703,131.01040592106523,6.322872201489905,4.881836476567178,0.0010866574689855,33.31904824532484,0.0012669045761511,2.7082028218433374,397.2093853562887,15.934249290371609,6.751662050993672,69.81215834018458,6.97909417564726e-05,120.00008085697964,155.42080512416243,1.274,1.0255397023523487,0.0,0.0,0.0,0.0468283602442113,1.3701614206272197e-07,-0.0312276295846745,5.334643585560923e-06,0.0015449645531859,4.8818365972149325,29.82567893138932,15.934419982127675,33.428929688274074
0.46,31.22220891307435,131.0104065412864,6.468371919199588,4.869610441729251,0.0011078049156487,38.95909776354321,0.0012868374716666,2.6582856015412624,449.7140588976424,16.292139278621757,6.904766425053949,69.79426683863348,7.812149592850748e-05,120.00008996920153,162.4785746623087,1.274,1.02549635315424,0.0,0.0,0.0,0.0478802236363867,1.499987870203256e-07,-0.0333272350234362,5.819761874615242e-06,0.0016858511402973,4.869610567434908,29.29014635640275,16.292313292210977,39.04968351401366
0.47,31.22220860266524,131.01040717804253,6.6178810515614845,4.838450928223533,0.0011247917292402,26.253747818137555,0.0013104398935566,2.6026193242279367,331.0078106302504,16.710658191447514,7.078951441335346,69.77517236812905,8.719457259907165e-05,120.0000998741591,170.9309671061642,1.274,1.025453319323251,0.0,0.0,0.0,0.0491102725711187,1.6384464803343264e-07,-0.0355167087264168,6.3368207228363735e-06,0.0018427306558807,4.838451058652396,28.68386015667837,16.710834873319172,26.382435512333956
0.48,31.222208284201663,131.0104078313267,6.771393590864176,4.869339340099417,0.0011561785713505,25.860860976019296,0.0013165328518772,2.5543454292827983,327.20312230115803,16.911139899671,7.177575416403102,69.75482343794755,9.70562828082882e-05,120.00011062072316,175.0543877818846,1.274,1.0254092882449153,0.0,0.0,0.0,0.0496995461609974,1.7858865391586845e-07,-0.0378054080201581,6.88909442277235e-06,0.0019849793891693,4.869339477030596,28.40887970825325,16.911321511776286,25.986704537635287
0.49,31.22220796480208,131.01040848648364,6.924537656029012,4.881367714530694,0.0011829003785372,32.565703383222065,0.0013261973190012,2.5011623511055703,389.6000096981238,17.169005224738054,7.296160258358563,69.73316318155707,0.0001077573203115,120.000122255028,180.4309832312717,1.274,1.025367445590036,0.0,0.0,0.0,0.05045746454003,1.942747077649401e-07,-0.0401641298712614,7.47069711110948e-06,0.002140948887153,4.881367857509675,28.058569663954906,17.169191034294997,32.66161128464712
0.5,31.222207637929923,131.01040915697027,7.081324512896956,4.862566137860805,0.001202418260511,33.47759680712428,0.0013425340759632,2.4399894027711366,397.970310422106,17.52898693231981,7.450304424940405,69.71015149227495,0.0001193385310595,120.0001348274002,188.0736471953394,1.274,1.0253278572281015,0.0,0.0,0.0,0.0515154948878309,2.109295159784217e-07,-0.0426011733481599,8.084173008518589e-06,0.0023184335011768,4.862566286171007,27.57768313050809,17.529175807738486,33.56639745442473
0.51,31.22220730314019,131.01040984370235,7.24202048914867,4.8479762258125,0.001223054804074,25.49162310288008,0.0013562860883156,2.3767006597692686,323.39843497208153,17.86914397471067,7.597652147346554,69.68574349602717,0.0001318441288964,120.00014838524436,195.4407439266201,1.274,1.025286455263166,0.0,0.0,0.0,0.0525152689856776,2.2858192086249162e-07,-0.0451315948093539,8.734206149830708e-06,0.002503767471626,4.847976379721193,27.13799345359824,17.86933609171003,25.602178740977283
0.52,31.222206962738102,131.01041054193402,7.405210501673173,4.865306299521403,0.0012516517170965,30.733671928447727,0.0013599291289974,2.317711624364424,372.098451184342,18.08534843773428,7.701914987606457,69.65988568649581,0.0001453248538387,120.00016298000436,200.19561780583155,1.274,1.0252426840672306,0.0,0.0,0.0,0.0531507657929359,2.4726951523704535e-07,-0.0477531686556663,9.421346966092632e-06,0.0026812161964639,4.865306460134566,26.8699055233151,18.085545046726228,30.820940596104087
0.53,31.222206619320115,131.01041124632013,7.569307468221277,4.848802699234936,0.0012715119568563,32.301199055744725,0.0013711327835325,2.2490252325653923,386.55624643486095,18.41963113311156,7.8474319110539055,69.6325258319474,0.0001598315062727,120.0001786629144,207.6614205945027,1.274,1.0251993415311351,0.0,0.0,0.0,0.0541332845214831,2.67031759303889e-07,-0.0504479325599339,1.0141887756417996e-05,0.0028848299490111,4.848802865552398,26.45837260670532,18.419830861742675,32.37940050117613
0.54,31.22220626697288,131.01041196903336,7.737918664599091,4.831496690588052,0.0012913635058467,28.31291960103712,0.0013809098107221,2.177242866245296,349.2703242098436,18.75116898748492,7.992112829440902,69.60362200959217,0.0001754082864028,120.00019548734956,215.20067397992847,1.274,1.0251561018460285,0.0,0.0,0.0,0.0551077428911958,2.878941684235108e-07,-0.0532336286085667,1.090122304443916e-05,0.003098869611663,4.831496862756785,26.061835558272342,18.751371834390056,28.396510432451375
0.55,31.222205908994248,131.01041270328463,7.909026079894722,9.733191319765169,9.297818225662493,30.185670857136675,-0.5263022773373187,1.815646682234368,365.2500005919912,20.15488583947672,8.113323699629928,69.57312211246325,0.0001921068626005,120.00021350480982,248.62252994758688,1.274,1.025112921033824,0.0,3.7596053489187766,0.0,0.0592332356177263,3.0989272306468813e-07,-0.0561100530405476,1.1700476995263424e-05,0.0035107731766435,13.429437566264813,34.42032336603195,21.608982020748854,30.244806034379348
0.56,31.222205546564343,131.01041344664463,8.081909946161325,11.52572998986836,7.35704593064431,28.174315697167728,-0.5675762922293537,1.536620473925311,346.22656194657776,20.7781161847666,8.247294810559758,69.54097415464405,0.0002099796112633,120.00023276987916,264.23170527217064,1.274,1.0250709539098009,0.0,3.773321678167647,345.0001478400497,0.0610649676606826,3.3302698971832e-07,-0.0625881051614596,0.0063968696062511,0.0040371279535067,13.64682052380393,32.61338500273052,21.930585215822376,28.221895937942566
0.57,31.222205178420328,131.01041420495483,8.258296221886255,11.43592305764142,7.272481569602979,27.87204021401301,-0.680836172088608,1.3520851878076503,343.1828296833045,21.052201885519004,8.367015906635993,69.50511423405666,0.0100165048196521,120.01070091644786,271.2440895092815,1.274,1.0250279191823897,0.0,3.786930847216913,345.0001478400497,0.0618706033739532,3.622876733096807e-07,-0.0707790018198519,0.0117906800642587,0.0046256113975719,13.52643235736184,32.25508235157006,22.191495683219408,27.913120533897164
0.58,31.222204805553343,131.01041497234488,8.436591130783494,11.34189853608716,7.183916224174339,36.81575632845907,-0.7980687436056186,1.1602254135825187,426.12500585731766,21.331644823283742,8.489309143481876,69.46455937094899,0.0280347511114486,120.02993943501689,278.4879985790099,1.274,1.024981594484354,0.0,3.800559440921576,345.0001478400497,0.0626919881317144,3.978673688722146e-07,-0.0791258427044763,0.0172637826679799,0.0052396519793577,13.400400738429372,31.89238392700875,22.457137369036516,36.84267838752113
0.59,31.22220442739843,131.0104157519693,8.617573117209162,11.174200335441451,7.050873020859433,29.80335371101659,-0.9251243006638816,0.9451498285403728,360.68438819710633,21.743012460806167,8.659267135393558,69.41921727613845,0.0543223469111008,120.05801512639188,289.32747593953,1.274,1.0249386802161349,0.0,3.814095948124157,345.0001478400497,0.0639010949908129,4.398631117810453e-07,-0.0876296227040055,0.0228145087152864,0.0059145656787973,13.188821772714547,31.35585189232848,22.84776766892632,29.83268435112796
0.6,31.22220404015252,131.01041655117456,8.803455602949455,11.082240914546436,6.965449205485288,26.47412757477198,-1.05086785755999,0.7392729250517311,329.4859594986072,22.00841705515335,8.776706499094464,69.36899368981881,0.0889216518293892,120.09497940191704,296.4286059900635,1.274,1.024891335813742,0.0,3.827598064284655,345.0001478400497,0.0646812349694685,4.883653980925065e-07,-0.0963419306620319,0.0284747454486108,0.0065818594344942,13.066231103806844,31.021561726587457,23.099854174311268,26.50528774710943
0.61,31.22220365105776,131.0104173551223,8.989872633104067,10.994401072564504,6.883434317016526,31.086763761998768,-1.1794548975606935,0.5289507191291037,372.0984511843332,22.259301846138296,8.889032518190385,69.31376328587825,0.1319101789423539,120.14092218264976,303.2199701599375,1.274,1.0248423929069768,0.0,3.8412232566867854,345.0001478400497,0.0654187058146066,5.435165701135429e-07,-0.105198835411315,0.0342034000032612,0.0072687402146272,12.948937566443504,30.7082663160676,23.33795006544389,31.113626981002504
0.62,31.222203256559883,131.0104181710969,9.178955850635338,10.86078419736695,6.774120365672374,38.729898024543374,-1.31660450184368,0.2998600550258343,442.86563930529206,22.59368909981116,9.03181922178052,69.25343592220601,0.1832893356923921,120.19585307557598,312.39288556425583,1.274,1.0247996097896497,0.0,3.854650088017249,345.0001478400497,0.0664015908274503,6.054041989472264e-07,-0.1141908352414553,0.0399940107856215,0.0080084264135992,12.778649802559087,30.29106338346957,23.655288138907164,38.753430357303905
0.63,31.222202854728536,131.0104190030335,9.371842756907448,10.681973675050257,6.638234831413028,21.87699493768278,-1.4646512211114344,0.0479749784296473,286.11251274707456,23.017404019450407,9.20729551987878,69.18792541358911,0.2430373377185557,120.25975786813116,324.2137846259215,1.274,1.024756158874558,0.0,3.868027195111301,345.0001478400497,0.0676470125194966,6.741023494883314e-07,-0.1233483135113361,0.0458648276217927,0.0088127267479578,12.556214709679296,29.771055248348677,24.057804253794654,21.926021351386495
0.64,31.22220244466485,131.01041985273315,9.569042997453872,10.636274631275954,6.58399625894454,21.493574389737628,-1.5978558262176104,-0.1662749691822838,282.3078244179702,23.15710836502044,9.279753272130089,69.11712661128638,0.3111461004493872,120.3326380002544,328.1551514388439,1.274,1.024708534665538,0.0,3.8814407763711447,345.0001478400497,0.0680577480905692,7.497057250576356e-07,-0.1327042181663447,0.0518356000919133,0.0095385328435361,12.489187488510051,29.59795046323807,24.189045477320875,21.55352710472092
0.65,31.2222020365388,131.01042069944765,9.764531908315218,10.549619594098967,6.505495844691663,38.160320146307456,-1.7385126989224688,-0.3972540909076424,436.7781447787504,23.373381203538564,9.380301557509874,69.04091383539209,0.3876225499183117,120.41451203148644,334.30702459089207,1.274,1.0246641738210605,0.0,3.8949198995275927,345.0001478400497,0.0686935161800347,8.323620440589796e-07,-0.1421346010816615,0.0578286831542737,0.0103115921796422,12.37482089704896,29.331542074010933,24.39306785870456,38.20196684577557
0.66,31.22220162120866,131.01042156177422,9.963698109305854,10.346565830629164,6.357318496042352,32.443931314301544,-1.9030196028327608,-0.68000076034896,383.5125151715984,23.83557592558968,9.571184115520817,68.95923119342201,0.4723443482820554,120.50526119863218,347.6525442824177,1.274,1.0246195561629028,0.0,3.9080555220716886,345.0001478400497,0.0700520470342005,9.220989911368878e-07,-0.1516666848038824,0.0638605495260041,0.0112204922320025,12.12543992509564,28.78217796501845,24.832133425074392,32.50680796033282
0.67,31.22220119448927,131.01042244810665,10.168935499205604,10.216175328856783,6.253746746693928,22.29736263733052,-2.0590813298881385,-0.941693087974338,289.15624401033847,24.132587118500314,9.701967327886424,68.87200572396208,0.5652010633020297,120.60478040185968,356.36358426943497,1.274,1.024572383541697,0.0,3.921215584271352,345.0001478400497,0.0709251182930942,1.0189459588858276e-06,-0.1613978229721805,0.0699903001356975,0.0120889633673033,11.960932668258623,28.427551684144976,25.112974029598657,22.412027627496258
0.68,31.2222007664032,131.01042333812967,10.37438320683764,10.13443949409786,6.18004663755996,27.90093893371249,-2.20705342551896,-1.1851924921605264,340.89999248584934,24.308714922268344,9.788591150805187,68.77910687965792,0.6661552918728362,120.71304380956175,361.5771574470036,1.274,1.0245245285832842,0.0,3.9345465429655335,345.0001478400497,0.0714429194428839,1.1230441598268463e-06,-0.1712523814133875,0.0761706806565469,0.0129204475853801,11.853286211034929,28.20672769057119,25.277593130341,28.013178317522666
0.69,31.22220033546949,131.01042423485006,10.580913481755756,9.991780407719022,6.070332648533314,34.40673191754381,-2.370437763884208,-1.4611982017005232,401.0140726853658,24.61660334465047,9.924235939312162,68.68044623245827,0.7750867150267213,120.82993777116909,370.7871097661272,1.274,1.024479631064582,0.0,3.947663899082128,345.0001478400497,0.0723479670985168,1.234476849496984e-06,-0.1811736570766704,0.0823665682050391,0.0138418297805135,11.675188663403125,27.84173545044109,25.568346107959997,34.51923053346973
0.7,31.22219989589865,131.0104251498161,10.79181201537142,9.818077175388265,5.94274668369299,28.844909354033987,-2.5452534333605183,-1.7601534856683063,349.270324209851,24.99261356912468,10.085687550467132,68.57596677585963,0.8918122649758297,120.95528223192495,382.1931732533653,1.274,1.0244351749185203,0.0,3.960644994453896,345.0001478400497,0.0734532323978687,1.3532545403807556e-06,-0.1912098703103004,0.0886066849046902,0.0148314465681623,11.461425868649968,27.40812332355385,25.924425206847907,29.010433484792696
0.71,31.222199449199174,131.0104260798989,11.006160342261891,9.6873916773102,5.841423788679183,23.692060736882947,-2.711732672880171,-2.0410646103436427,301.3312640634036,25.255093786310383,10.20547671748992,68.46558240054804,1.0161787251107008,121.0889300455908,390.2551194712394,1.274,1.0243880468141104,0.0,3.973693997454608,345.0001478400497,0.0742248406280513,1.4794286568315953e-06,-0.2013817756739314,0.0949028357657614,0.0157841697432772,11.29786674893028,27.0949355103342,26.17107374582694,23.9339336673459
0.72,31.22219899961842,131.01042701661626,11.221544587917618,9.57137975784506,5.74926840988909,29.051582707139666,-2.8750198536638982,-2.315520090557423,350.7922053414578,25.46904770993212,10.30760044031236,68.34919371943815,1.1480376734911353,121.23074014841346,396.88717851196697,1.274,1.024337302174265,0.0,3.9867154528140905,345.0001478400497,0.0748538341130693,1.6130925372957915e-06,-0.2116343894002077,0.1012211126940064,0.0167279435865784,11.151553485488122,26.829971997150057,26.37062592466876,29.285181068904336
0.73,31.222198545671795,131.0104279628902,11.43878935918406,9.41108391161396,5.63141551713351,36.792455198043335,-3.053595208079765,-2.6211092604007384,422.3203185282354,25.787110824656697,10.44932000726105,68.22673203354356,1.2871819144628087,121.380509163552,406.85341780846994,1.274,1.024292465384646,0.0,3.999598522424229,345.0001478400497,0.0757888111404042,1.7542909214691695e-06,-0.2219399481956436,0.1075442232056817,0.0177612168105739,10.954243241368184,26.461388948617223,26.670267976587724,37.01188210493749
0.74,31.222198083562663,131.01042892608805,11.659946524427776,9.215586062698886,5.493477961101879,22.99955414805637,-3.247651530914974,-2.957447122080473,294.4828134710563,26.19295253131444,10.624886103404604,68.09814378711484,1.433371105377474,121.53799876869192,419.7515260510848,1.274,1.0242470321640116,0.0,4.0123941747587,345.0001478400497,0.0769817797393609,1.903020629085444e-06,-0.2323325985136874,0.1138920108879368,0.0188851279281885,10.716551578683186,26.011802095656293,27.05454453543585,23.415234890035446
0.75,31.22219761301701,131.01042990659698,11.885093234191691,9.103907013174217,5.405232889280659,26.87910518560009,-3.4123702480947338,-3.235486282140908,330.24688556441737,26.357668296256783,10.70986182668652,67.9633547139638,1.5863838357854927,121.70299170467966,425.0381951059841,1.274,1.0241984712898409,0.0,4.0252183174528895,345.0001478400497,0.0774660804949866,2.059302415069445e-06,-0.2428386743270427,0.1202794573828142,0.01986281406917,10.575974108159492,25.79078003259494,27.20546144493808,27.287340247275065
0.76,31.22219714336963,131.01043088625045,12.10916179800084,8.94340705656095,5.288895852385882,28.9467990562542,-3.5960589546705366,-3.551822290834613,349.2703242098581,26.6474154425064,10.842920849346472,67.82227432471107,1.7460102547536531,121.8752838898706,434.42501328837335,1.274,1.0241522053390697,0.0,4.038046685524772,345.0001478400497,0.0783178551597126,2.223246087019342e-06,-0.2533504245217266,0.1266417115128126,0.0209499658840315,10.37927121735592,25.45245582438179,27.477013935628317,29.38476233006309
0.77,31.222196664073127,131.01043188539643,12.337795216520783,8.77509804758634,5.1683572728874605,27.06457973355592,-3.78399880220474,-3.87704693312344,331.76876669606884,26.94862364926308,10.98117730835854,67.67487423575257,1.9119463674938904,122.05457024954696,444.2917827105403,1.274,1.0241065975906936,0.0,4.050621716701766,345.0001478400497,0.0792033228260103,2.3948034871067244e-06,-0.263909123392342,0.1330028264254667,0.0220692741282482,10.173739164795082,25.104160224326,27.75936677524908,27.601478511317733
0.78,31.22219617934208,131.01043289576404,12.56867216995994,8.61580334158608,5.053580120896828,22.21805570637932,-3.968380182599198,-4.196006913385447,286.8734378128874,27.212064298184288,11.105685219199785,67.52110152135957,2.083915685496806,122.24057578030212,453.0106899520948,1.274,1.0240588105546735,0.0,4.063260820075489,345.0001478400497,0.0799777960994062,2.573980392431396e-06,-0.274508541738658,0.1393582893096689,0.023179538132639,9.978870288961366,24.789775060927603,28.00484995768277,22.956404654531582
0.79,31.22219568977357,131.01043391615403,12.80145270681752,8.472249599261374,4.9482541706157965,31.60763176683307,-4.143999455277417,-4.498999373564896,373.6203323159581,27.413308728342084,11.206842559393744,67.36090649871755,2.2616313746734145,122.43301467547876,459.7255907047319,1.274,1.0240083170932772,0.0,4.075833153217429,345.0001478400497,0.08056947645739,2.760790490988752e-06,-0.2851231542084677,0.1456925328084613,0.0242533460078902,9.802317376048832,24.52786414766024,28.189612808715,32.1940384660948
0.8,31.22219519649051,131.01043494438983,13.035533276156324,8.273408559029395,4.811487862708626,32.02152968791519,-4.348028287859797,-4.857942503576449,377.42502064505805,27.77734034919757,11.372158413773162,67.19425416899811,2.444783501727404,122.63157638340402,472.0057867035076,1.274,1.0239625010683884,0.0,4.088309009926487,345.0001478400497,0.0816396043949574,2.955237476436764e-06,-0.2957179842741261,0.1519844753837769,0.0254880349243455,9.562348206447735,24.127739305048607,28.53223910462539,32.678484036352074
0.81,31.22219469240313,131.01043599364016,13.274462539499428,8.08398792465421,4.680595078519818,20.82232425268068,-4.547848997989791,-5.209652551475291,273.9374926939922,28.10144976359461,11.52297515086988,67.02113001869363,2.633034393077249,122.83592037410985,483.0738066515168,1.274,1.0239149950770308,0.0,4.100656766984336,345.0001478400497,0.0825924079528237,3.157229752805777e-06,-0.306344623288555,0.1582636237290734,0.026711420217477,9.333445195671102,23.76306089094491,28.8358584307323,21.94066082640593
0.82,31.222194183302648,131.0104370529244,13.515238005558144,7.9400348004829215,4.576128551834409,26.75242069818269,-4.718704458041818,-5.507137987224742,328.725004432774,28.25807144420149,11.60865682115776,66.84148929602709,2.8260833950264423,123.04574628994236,488.46228158697096,1.274,1.0238644186635044,0.0,4.113075465475624,345.0001478400497,0.0830529572085644,3.3667733575707057e-06,-0.3169746119064801,0.1645126198271689,0.0277916893779722,9.157009552383116,23.53292269088221,28.97612406061241,27.717986106231294
0.83,31.222193672971656,131.01043811526318,13.75599146698746,7.750390084268745,4.445952836049359,33.99728501416901,-4.915626768381781,-5.856005853195511,395.6875032246518,28.55795593633403,11.751878312427156,66.65530409236193,3.0236084130685943,123.26073048183493,498.8732225417109,1.274,1.0238188483711983,0.0,4.12540732161616,345.0001478400497,0.0839345720927697,3.5839017781848226e-06,-0.3275325949411189,0.1706873720187001,0.0290214798296005,8.928285699840051,23.187517487415665,29.25562394725363,34.846399805623136
0.84,31.22219315215604,131.010439197535,14.001208141432471,7.536101286481647,4.302204125218074,20.96588350457919,-5.128903364066201,-6.237374295601905,275.45937482564227,28.936178220108346,11.927602686284768,66.46259129696416,3.2252366794649823,123.4804939056188,512.1628448685274,1.274,1.0237739661568126,0.0,4.137559510865608,345.0001478400497,0.0850464389596393,3.8084814023765135e-06,-0.338059935389447,0.1768112043692582,0.0303502697994396,8.671498377132988,22.783365006709182,29.611332009653506,22.467281966204784
0.85,31.22219262276236,131.0104402959986,14.249841639890448,7.379562769612181,4.191492654961868,22.85226864990383,-5.298047353242475,-6.536443792317819,292.9609323393965,29.085804888788687,12.012560311924744,66.26334398000193,3.4306283964167124,123.70469296810148,517.460890026011,1.274,1.0237227741398531,0.0,4.149759218318144,345.0001478400497,0.0854864471151374,4.04042572397055e-06,-0.3485710164661996,0.1828915399650183,0.0314549986568713,8.481112400648337,22.55190915822443,29.743615913788997,24.352013995862997
0.86,31.22219209421847,131.01044139362108,14.497402897728136,7.1943270789508205,4.064941033341191,28.60981178045474,-5.484294856761511,-6.869858233639851,346.2265619465616,29.328139439180816,12.13575283521276,66.0575472782444,3.6394569762835567,123.9329980657413,526.1069730559872,1.274,1.023674789281455,0.0,4.161945707518589,345.0001478400497,0.0861989363375963,4.279787744015008e-06,-0.3589697578292396,0.1888729995590088,0.0326624953603622,8.258034072190352,22.24964356606169,29.966123362184582,29.92981410465586
0.87,31.222191556309287,131.01044250866207,14.748668729192756,6.986272378477778,3.9258840362237297,26.611295050644515,-5.685926314651216,-7.234234232993806,327.9640783669946,29.64690227673668,12.291285719169084,65.84524401876615,3.851338414753215,124.1650162177934,537.5924949369606,1.274,1.0236288969245204,0.0,4.173894963459685,345.0001478400497,0.0871360657571761,4.526414929583724e-06,-0.3692766188733281,0.1947668153653584,0.0339646887768471,8.009000191288964,21.891909281964598,30.26309626963682,28.157147001532664
0.88,31.22219101024828,131.01044363869684,15.002954112427716,6.789142201056731,3.793341714556719,22.95986832301269,-5.874998363493819,-7.576768902320845,294.4828134710421,29.90796038937377,12.424400025102944,65.62646594341793,4.0659110411595885,124.40037794270168,547.0884439860879,1.274,1.0235805388426191,0.0,4.185852463306224,345.0001478400497,0.0879036013830734,4.780170135140085e-06,-0.3795035841370878,0.2005789671616438,0.0352118286565852,7.772674259416432,21.57585187156379,30.50338190731953,24.881289881762818
0.89,31.22219045947676,131.0104447775574,15.258645046273031,6.598506021487297,3.664730943056996,25.164083322573223,-6.053028466260318,-7.900552198227045,315.02813424808807,30.12510691706646,12.540423745193705,65.40123875483548,4.282829259036228,124.63873043722182,555.0479172556022,1.274,1.0235293752791452,0.0,4.197784048731257,345.0001478400497,0.0885420802713049,5.0409878800658015e-06,-0.3896161040735405,0.20628945101916,0.0364116813315353,7.543943938824413,21.289534216563094,30.70036907872739,27.060838274445153
0.9,31.22218990344151,131.01044592615477,15.515965939802024,6.392617908888641,3.528008879307229,27.77652559394089,-6.240517882850799,-8.244353928132478,339.3781423542166,30.393557687942387,12.67894458759024,65.1696098775367,4.501735917621457,124.87970714827296,564.9703144526417,1.274,1.0234837388140003,0.0,4.20961460469591,345.0001478400497,0.0893313555708466,5.308772869746284e-06,-0.399585330034153,0.2118816334971878,0.0376752010983782,7.297993342021731,20.96785910298806,30.94738589621814,29.638637101077155
0.91,31.222189339230777,131.0104470893702,15.776129182780924,6.177543106222006,3.386611911880546,21.0557279895627,-6.432826374584605,-8.599468573686108,277.7421810230785,30.690454924305783,12.830767925379316,64.93164527788953,4.72226833013152,125.12293414026504,576.0475742913245,1.274,1.023436404813438,0.0,4.221356227380031,345.0001478400497,0.0902042471408824,5.583356210686182e-06,-0.4094130814430531,0.217355928113993,0.0389779231122069,7.041781878313318,20.628024122556955,31.22211297760768,23.63632365842498
0.92,31.22218876735269,131.0104482661402,16.03882737692966,5.9824640677488325,3.256430201387014,25.06812254220613,-6.596577270344303,-8.903204089954345,315.0281342480675,30.87492586558377,12.93622787386442,64.68741130189584,4.944077712060256,125.36805135704108,582.9785695968507,1.274,1.0233859136578225,0.0,4.233064710549819,345.0001478400497,0.0907467062639159,5.864578048123456e-06,-0.4190926930483294,0.2227079721742097,0.0401382754665053,6.808497684213631,20.36079536424557,31.38616937961167,27.407893799817344
0.93,31.222188192738475,131.01044944802635,16.301932872254866,5.765245702896233,3.11458450985501,29.819407446945213,-6.779309827405829,-9.245103695268096,359.16250706547066,31.15305659478282,13.0828039976539,64.43697978751071,5.166824650927056,125.61470756734134,593.5141776160694,1.274,1.0233407575091376,0.0,4.244725896964511,345.0001478400497,0.0915644520319451,6.152360202552892e-06,-0.4285743202004562,0.2279098974386132,0.04141508260954,6.550261584617016,20.033893930194356,31.642053472918832,31.947269751250303
0.94,31.22218760783199,131.01045064761857,16.568553541579,5.535744885241887,2.9665034512198702,21.512567946846584,-6.971947226054455,-9.60816908594605,283.06875048378083,31.48265771073866,13.253124153197444,64.18045405084116,5.390156844044498,125.86253556882788,606.1239213346689,1.274,1.0232914783978162,0.0,4.256246938259822,345.0001478400497,0.0925334875248438,6.446458011225681e-06,-0.4378709360380175,0.2329682202479828,0.0427600406747042,6.278312637767226,19.676780864383154,31.948426822026303,24.570623536546826
0.95,31.222187014001094,131.0104518623739,16.838007175212194,5.330194661571178,2.8315725321704983,27.91430931373272,-7.125103997173645,-9.8996281993384,342.421873617488,31.665515695919368,13.36118392068904,63.91793136877279,5.613744878458856,126.11119164965592,613.1694950505096,1.274,1.0232418269359267,0.0,4.267765302322041,345.0001478400497,0.0930712247012368,6.74665514119274e-06,-0.44698055334349,0.2378810203778662,0.0439020255096559,6.033707902427578,19.40897074192441,32.11011703799115,30.462738056819862
0.96,31.22218641818676,131.01045308077812,17.10746640043118,5.097869569661014,2.682840159653368,27.284299347402424,-7.308527738665307,-10.25072704193624,337.09533515678265,31.98580634626827,13.530688249682877,63.64951194291688,5.837273644709712,126.36034608201292,625.6202224368245,1.274,1.0231951201821403,0.0,4.27925037078032,345.0001478400497,0.094012908215503,7.052874531202981e-06,-0.4558455517918915,0.2426168514944446,0.0452244349651526,5.759071050390375,19.060772421777568,32.407071914562,30.048710013472913
0.97,31.22218580930012,131.01045432084007,17.381275255320713,4.870113456171693,2.5368668145208977,17.22388033090325,-7.477848318493165,-10.578151741858989,245.0218871929888,32.26556514670781,13.684032893206394,63.375332431674885,6.060415613418195,126.60965322526674,636.5951176716247,1.274,1.0231476260761452,0.0,4.290583004364268,345.0001478400497,0.0948354702489878,7.364789319364275e-06,-0.4644870818161066,0.247186288764132,0.0464835855756265,5.489826017217742,18.73789178939821,32.66392506523864,21.551741539872392
0.98,31.22218519455045,131.01045557062312,17.656507531265405,4.662445853769656,2.401668793155318,25.275334403910737,-7.604168549930255,-10.827515065437428,319.593746642963,32.39904851426042,13.773486331196564,63.09551865174889,6.282871210570139,126.85879638573172,641.8562627699955,1.274,1.0230935628253934,0.0,4.301947438860184,345.0001478400497,0.095228102452029,7.682216608902534e-06,-0.4728766169763282,0.2515733959104988,0.0475176899779297,5.243441187873885,18.4974825935956,32.77619130114363,28.52895005179014
0.99,31.222184577941448,131.01045682371867,17.931640863993202,4.426476978786075,2.2522145189539486,27.612742461466325,-7.769586077945699,-11.153460225357184,341.66094855170127,32.70357177096533,13.941027736848795,62.8102154917196,6.504344411460287,127.10746055693387,653.9614824411299,1.274,1.0230490803133316,0.0,4.313221116796504,345.0001478400497,0.0961234633147074,8.00504322307043e-06,-0.4809626049385842,0.2557509023804514,0.0487831957023966,4.965488073567642,18.16360828792289,33.05725770017256,30.77709682644706
1.0,31.22218394721717,131.0104580994521,18.211209039261785,4.189595221950721,2.102697415081112,24.5696249454748,-7.928724984972074,-11.47072297655548,314.2672081822764,33.003717553374315,14.108488768120912,62.51960089635024,6.724534516064678,127.35532298525604,666.0024969557535,1.274,1.022999484445133,0.0,4.324344410130268,345.0001478400497,0.0970059681287113,8.332854398032761e-06,-0.4887703582589651,0.2597310788391067,0.0500287681104236,4.686807115298117,17.83485423222346,33.33393435577223,28.250816544898235
1.01,31.22218330928296,131.01045938664527,18.49252717974995,3.9585088196675846,1.9565672744357483,25.662306904843,-8.066875258826144,-11.751575302525008,324.92031610370094,33.24761514437723,14.251900423313051,62.22383953144528,6.943170910388899,127.60209212307912,675.8641293239072,1.274,1.0229507481225095,0.0,4.335502373592369,345.0001478400497,0.0977231527785656,8.665393005372314e-06,-0.496281019761473,0.2635032575142607,0.051171543632507,4.414958006024002,17.53792559462556,33.55489228455003,29.355203869343672
1.02,31.2221826648402,131.01046068414396,18.775315807054024,3.72157370318384,1.8079424541499176,21.203754258574875,-8.207334919620493,-12.040056896454832,284.59063161543185,33.52385974783419,14.411840009100688,61.92310941429447,7.159992824239008,127.84748493065328,687.1232352166064,1.274,1.0229039803623294,0.0,4.346586497533584,345.0001478400497,0.0985354199728113,9.002436880755459e-06,-0.5034651760980225,0.2670519085504783,0.0523422044392272,4.136927403754219,17.226703327250295,33.80780355898344,25.72785477280847
1.03,31.22218201035863,131.0104619972682,19.060768465294355,3.491227974303167,1.6629059174924308,17.074132292932003,-8.321180915225348,-12.281533694985953,247.3046933904342,33.72883087785871,14.540187843231612,61.61760829009237,7.374746058159923,128.09122307947635,695.5322523337652,1.274,1.022853416101322,0.0,4.357587278960104,345.0001478400497,0.0991382032238335,9.34365904292878e-06,-0.5103124381586068,0.2703709064611566,0.0533769916119279,3.866588349299043,16.95309418942548,33.990002858795656,22.61866740728837
1.04,31.222181350846785,131.01046331819745,19.347070988407104,3.2630970724953525,1.5192607033904737,27.68724236506026,-8.416431109559475,-12.49106026436671,345.4656368807608,33.895126988887135,14.651643813336422,61.30754214640873,7.587190873737579,128.3330418115129,702.3883285206593,1.274,1.0228049544826707,0.0,4.368552298539861,345.0001478400497,0.0996273145534531,9.688825155858024e-06,-0.5167929958037125,0.2734448922863018,0.0543198539267491,3.599091472832691,16.69982333647161,34.13374393775212,31.51898299329452
1.05,31.22218068536337,131.010464648307,19.63452308904555,3.0154859840508967,1.3669258829595694,16.174312930183643,-8.55432313821606,-12.784973938853836,240.4562587980608,34.24176346718584,14.850335172233704,60.99313694856139,7.797095067599765,128.57268204121902,716.8082768440277,1.274,1.022755494436122,0.0,4.379412817823236,345.0001478400497,0.1006465031401438,1.0037651593211e-05,-0.5228858630868092,0.2762632088125439,0.0555208034382366,3.3105764620389,16.363790198304624,34.456459314897664,22.32129928417466
1.06,31.22218000400961,131.0104660022533,19.92634663208524,2.788029217587422,1.224250980697969,23.47549270946568,-8.620704546075807,-12.94656171271412,308.1796836557233,34.363987501991424,14.943401472026048,60.67463329275319,8.004238025308824,128.8098949052143,721.9143882921811,1.274,1.0227013895379469,0.0,4.390182708830076,345.0001478400497,0.1010060877333489,1.0389599585422615e-05,-0.5286052750392091,0.2788309961206278,0.0563268664518092,3.044784754602776,16.135029801283395,34.55627776363481,28.16076641364761
1.07,31.222179324895887,131.01046735287895,20.21649468328463,2.544855638050683,1.0750609974710432,27.78894233660496,-8.725796628918731,-13.185336038210924,348.5093681440431,34.653973744209594,15.118870076079803,60.35226506549187,8.208421445059841,129.04445405282544,734.1293278611602,1.274,1.0226540159946436,0.0,4.400983149293197,345.0001478400497,0.10185877794409,1.074458078350701e-05,-0.5339014296817607,0.2811249167924008,0.0573696987458868,2.762478276346857,15.83296434209216,34.822834022137904,31.9721430222772
1.08,31.222178629207605,131.01046872798133,20.511060534287488,2.299397477925025,0.9254649473855696,18.170899222231814,-8.830376202614131,-13.427066525578685,261.0015785751465,34.97302673068035,15.31072276242962,60.0262981027612,8.409449280471298,129.27613272939087,747.6883995918927,1.274,1.0226061614050743,0.0,4.411591279110053,345.0001478400497,0.1027969153209794,1.1102033213519085e-05,-0.5387841491492243,0.2831479398592049,0.058425735282874,2.478558907843793,15.522899683412566,35.11839210350126,24.257848995871715
1.09,31.222177923698528,131.01047011730867,20.807732963273395,2.0654216645326624,0.7812218967358033,16.515594386905065,-8.878240774621979,-13.564148920746195,246.54375332456465,35.12741416191688,15.423274552503788,59.696994114624886,8.607145512499917,129.50472414085667,754.2827751554041,1.274,1.0225512795791307,0.0,4.422232559332217,345.0001478400497,0.1032510550288788,1.1461549160716098e-05,-0.5432398584924466,0.2848922263331846,0.059167277994108,2.208168905595693,15.287925501224672,35.25012440823087,23.14247508692859
1.1,31.22217721627791,131.01047150934963,21.104034258930056,1.8290142143529329,0.6364611140260051,34.60534913945509,-8.922975363883555,-13.698807149158164,413.1890617384087,35.3059654537464,15.54905738986038,59.364624800921526,8.801346010286052,129.7300321980841,761.9485589069661,1.274,1.0224981043155532,0.0,4.432822471449608,345.0001478400497,0.103776223137093,1.1822949394416092e-05,-0.5472355042738775,0.2863435126680096,0.0599037182226951,1.9365531590232627,15.045908530189893,35.405938475689915,38.27279707204433
1.11,31.22217649906161,131.0104729154378,21.402372452786462,1.577323726952801,0.4869224798861346,24.80985282707158,-9.038481762069855,-13.973677626319471,324.1593910379213,35.76486410249529,15.817667683482515,59.029483426858114,8.991894992093725,129.95186743845295,781.862136201912,1.274,1.0224548851875197,0.0,4.443274932855103,345.0001478400497,0.1051254360237676,1.2185805286442724e-05,-0.550762057098896,0.2874970648407975,0.0610716381440384,1.6507524775472695,14.694500858333589,35.84134878611496,29.874514494272915
1.12,31.22217575908625,131.01047435373678,21.70648577030525,1.3388424597970008,0.3428350667651494,8.211500410893725,-9.075087643306532,-14.101074620577483,172.7328179403806,35.98748139469501,15.969286881645928,58.69187032393717,9.17865037389742,130.1700532549429,791.6026590897875,1.274,1.0223979224661404,0.0,4.453677518758677,345.0001478400497,0.1057801490601427,1.254933540340176e-05,-0.5538268638432751,0.288351258783888,0.0617919302979048,1.3820324242801716,14.44448518565032,36.04133347970213,18.671536096071396
1.13,31.22217501985705,131.0104757907185,22.009325434248645,1.1084587743907333,0.2016609380229453,29.389926514074048,-9.043049215853047,-14.099422224122495,367.5328077894322,36.0111410707138,16.020206677636146,58.35208319766356,9.361483423834256,130.3844255778529,792.6208106965413,1.274,1.0223460397860296,0.0,4.4641589536205055,345.0001478400497,0.1058500550831919,1.2913437604049116e-05,-0.5563958283529306,0.2888933206146431,0.0621175626216382,1.1266511947882405,14.275894080156002,36.04281783138264,33.82806862173914
1.14,31.22217428016585,131.01047722829503,22.31134399829164,0.8640315037255706,0.0579815819460912,15.35404584810714,-9.115736859286825,-14.304768662106486,239.6953177322812,36.43620669419787,16.27965829577738,58.01044161651891,9.540273991950777,130.5948274164652,811.419462889383,1.274,1.0223022138470996,0.0,4.474477301323506,345.0001478400497,0.1070998450838345,1.3277965056301768e-05,-0.5584489666402248,0.2891182085902123,0.0630808749671826,0.8659746234321812,13.958951829779958,36.44531441823763,22.879462163038717
1.15,31.222173511611484,131.0104787058087,22.620514732436927,0.6306377833010909,-0.0826245919980506,15.030720500803644,-9.085568077226329,-14.314644631801167,237.4125115347709,36.545769334762966,16.377293216590136,57.66727825171895,9.714915155320874,130.801114373032,816.282389322322,1.274,1.0222426194541194,0.0,4.484652887715509,345.0001478400497,0.1074222660611769,1.3641902513677413e-05,-0.5599918314768096,0.2890198870029251,0.0634434751625207,0.6360271702086238,13.766268818469484,36.53279069869995,22.657871854919364
1.16,31.22217275095852,131.01048017207088,22.92639946639453,0.3963979158601514,-0.2221408560196345,42.54183273610516,-9.062754739799864,-14.342614322603117,490.043774385954,36.72158133364581,16.510769201699844,57.32292432275857,9.885307725687545,131.0031482134137,824.1309025503973,1.274,1.02219674531104,0.0,4.494952606947795,345.0001478400497,0.1079394186625765,1.400526114974498e-05,-0.5610034172599622,0.2885956245152735,0.0638619660428815,0.4543974915035709,13.55447247024441,36.68668761699865,45.80012709182643
