Time,Latitude,Longitude,Altitude,Angle of Attack,Angle of Sideslip,X-Acceleration,Y-Acceleration,Z-Acceleration,Thrust,True Velocity,Ground Velocity,Pitch,Roll,Yaw,Dynamic Pressure,cp,parachute_deploy_gain,Wind Speed,Mach,omega_x,omega_y,omega_z,Cmq,Angle of Attack(total),Angle of Attack(gust),True Velocity(gust),Acceleration
0.0,31.222216000000007,131.010392,3.000000004412624,0.0,0.0,0.0,0.0,0.0,2.2828121974499247,0.0,0.0,71.99999999612658,-1.0292491154817412e-14,119.99999999354436,0.0,15.288,0,0.0,0.0,0.0,0.0,0.0,-0.0,0.0,90.0,0.0,0.0
0.01,31.22221599999862,131.01039200000284,3.0000009727369523,0.0,0.0,0.0,0.0,0.0,34.24218696174923,5.916279387578309e-11,5.734623670548936e-11,71.99999999613168,-5.86671995824671e-13,119.9999999935449,2.1432944861733093e-21,15.288,0,0.0,1.7386402909615473e-13,-3.4220131069073734e-19,7.115076756936125e-19,5.488773498207866e-19,-1.1574302492039043e-31,0.0,89.99999999962336,5.916279387578309e-11,0.0
0.02,31.22221599999738,131.01039200000537,3.0000018317022668,0.0,0.0,0.0,0.0,0.0,25.871876237766408,1.2265415415436536e-10,1.1895038237325684e-10,71.9999999961369,-1.1836364828043265e-12,119.99999999354544,9.211895886571454e-21,15.288,0,0.0,3.6044858651615574e-13,-6.979551485375437e-19,1.4162390878091906e-18,1.0909784360635388e-18,-4.776231873571785e-31,0.0,89.99999999921916,1.2265415415436536e-10,0.0
0.03,31.22221599921969,131.01039200159065,3.0001883335529382,18.80143492628821,-0.0001350810307892,10.931161642028636,-1.75114298675875e-05,3.026590975169265,180.34219359854663,0.0798232026864394,0.0478175828508887,71.99999999765336,-5.341802909786072e-12,119.99999999436793,0.0039016003969354,15.288,0,0.0,0.0002345795854893,3.788270153300133e-17,-7.771883375645477e-10,1.1422790048099072e-11,1.7057759223764537e-13,18.80143492675591,89.51882325913425,0.079801984207741,11.342422482672777
0.04,31.222215995131297,131.01039200995308,3.001692634342189,9.19442604083399,-4.49173898918486e-05,52.29595764159784,6.445392950801871e-06,3.026413589912948,548.6359724538078,0.3504174083926908,0.1601447499964056,72.00000000319055,-3.111420077280171e-11,119.99999999870242,0.0751892535633216,15.288,0,0.0,0.0010297854387864,2.0082066977226968e-15,-1.520937588847922e-08,2.5623342884322286e-11,1.4654248781413086e-11,9.19442604094277,87.798916624545,0.3504103527855857,52.383455068075136
0.05,31.222215983575865,131.01039203366796,3.0074067499493786,5.158590039700252,1.707592688632746e-06,76.26884281015512,5.843947534199429e-05,3.0258124765658088,761.6984298824644,0.9592973585397016,0.3772700771701255,72.0000000004862,-1.3608731808076822e-10,120.0000000109612,0.5634958029902841,15.288,0,0.0,0.0028191251099456,2.086299069701397e-14,-1.0551247853743037e-07,3.973493515691201e-11,2.783064866637575e-10,5.158590039700515,83.94063169874748,0.959297626767734,76.32884071402438
0.06,31.222215961742712,131.0103920785344,3.019291017943491,4.109521257467909,3.140103977270004e-05,57.06876634333886,0.0001151069734147,3.024834864051463,590.4875390737208,1.6257536642597354,0.6118982818704327,71.99999992547217,-3.5903296759057166e-10,120.00000003412836,1.6184272268450337,15.288,0,0.0,0.0047776672697797,1.0694899894620088e-13,-3.741090980393931e-07,5.521401959501359e-11,1.6723176417636091e-09,4.109521257587776,79.78719176344794,1.6257585967235286,57.148873286519276
0.07,31.222215929936205,131.01039214392435,3.0371334573469446,3.649087515174788,5.707077112564807e-05,86.89643797254193,0.0001728541558773,3.0234947746384675,855.2937749779139,2.3057260079826607,0.8506307413593818,71.99999965378231,-6.907496536790437e-10,120.00000006788592,3.255354923652711,15.288,0,0.0,0.0067759305364855,3.495199904512709e-13,-9.036515915819006e-07,7.594816279105379e-11,5.728932851326001e-09,3.6490875156204896,75.6601668283889,2.305734972638426,86.94902215090157
0.08,31.222215886364623,131.01039223353447,3.0621840248716574,3.4254446680114707,8.413075603463509e-05,17.831756866644035,0.0002285946601282,3.021841001032126,241.2171988638848,2.961944911520492,1.0819695676346892,71.99999900671328,-1.141745983122182e-09,120.00000011415082,5.371998197385977,15.288,0,0.0,0.0087043901031071,8.800530155962314e-13,-1.829098470920821e-06,1.0943386634701918e-10,1.4896287129277132e-08,3.4254446690434226,71.81713637501419,2.9619581267487467,18.085991154451033
0.09,31.22221583454733,131.01039234010327,3.0919888289029,3.389560809024919,0.0001118726864415,54.09031716446879,0.0002748660999733,3.020060228038602,563.0937377043176,3.504225426410036,1.2780161667917422,71.99999774508822,-1.634190085504106e-09,120.00000016921716,7.519080503822694,15.288,0,0.0,0.0102980157586766,1.865782139518716e-12,-3.1503298654458527e-06,1.6284478329871028e-10,3.03536411425607e-08,3.389560810868955,68.76526501308032,3.504242999330529,54.17456206384468
0.1,31.22221577423132,131.0103924641528,3.1267248829165366,3.4447939461814814,0.0001419149103147,51.372195336549765,0.0003131602029306,3.0182021883815127,538.7437595981919,3.950569597142709,1.4443465951180965,71.99999562056465,-2.1287748602259068e-09,120.00000023339832,9.55649523509932,15.288,0,0.0,0.0116097108366932,3.485956000178229e-12,-4.949356763187612e-06,2.4573266549165286e-10,5.3761299442583966e-08,3.444793949101151,66.34639928474206,3.9505918890846927,51.460781166288626
0.11,31.222215706113143,131.01039260424562,3.165907002780892,3.4691423802630394,0.0001702373452339,40.591037561894986,0.0003534470100582,3.016051659024047,442.8656393052949,4.421478635995476,1.6182620895289603,71.99999235067894,-2.5564479031457968e-09,120.00000030601664,11.970509656144712,15.288,0,0.0,0.0129935974697161,5.942887149865172e-12,-7.273722517324353e-06,3.67769289312894e-10,8.842679949465076e-08,3.4691423844348632,63.88798785789768,4.421505376815134,40.70293476011277
0.12,31.222215630588888,131.0103927595646,3.2092596514826863,3.4852659299808075,0.0001974376474727,44.30042894095728,0.000394069215595,3.013641598889868,475.58594813540446,4.896982486381051,1.793579340340896,71.99998761802138,-2.8337988279882726e-09,120.00000038673312,14.683611096353944,15.288,0,0.0,0.0143909889875706,9.464337642181618e-12,-1.017558359402848e-05,5.395790443954697e-10,1.3700793350599625e-07,3.4852659355662303,61.5068242157714,4.897013499814194,44.40281567867803
0.13,31.222215548046687,131.0103929293088,3.256512891171917,3.5606043721293616,0.0002276507019012,48.86766833507025,0.0004268800875964,3.0112558910133567,515.9156326236895,5.278566579338586,1.939796541405244,71.99998107389406,-2.8573058577484587e-09,120.00000047523812,17.061052093156064,15.288,0,0.0,0.0155123760833565,1.4300406003001044e-11,-1.3705268062305584e-05,7.724776992181392e-10,1.989112774124932e-07,3.560604379397528,59.67313531776262,5.27860233862722,48.960358155653
0.14,31.222215458587108,131.01039311327068,3.30759734332425,3.6000732663755977,0.0002555702913645,45.540290862247225,0.0004629468001456,3.0085404980032777,486.2390860568404,5.70011779273801,2.098362647205908,71.99997235012626,-2.508533681468686e-09,120.00000057154703,19.894788765881632,15.288,0,0.0,0.0167512184495524,2.071534240530911e-11,-1.7917736259613292e-05,1.0787346240473087e-09,2.8081526258393346e-07,3.6000732754351943,57.72385750323359,5.700157937625502,45.639559681930805
0.15,31.222215362317904,131.01039331122794,3.3624387479639086,3.651605404442164,0.0002842753491325,44.01308509501,0.0004965057129938,3.005703619811542,472.54218587214,6.091938849578711,2.2476968067377374,71.99996103728932,-1.6446954747148112e-09,120.00000067569304,22.723773683610247,15.288,0,0.0,0.0179026934683374,2.9002783512213203e-11,-2.287326399669318e-05,1.47199345427166e-09,3.831202693354572e-07,3.651605415492516,55.98561718911576,6.091983503446133,44.115597174664394
0.16,31.22221525912812,131.01039352340948,3.421115382839859,3.67540086436193,0.0003108411545024,34.83804992586084,0.0005330990866742,3.002517946501868,391.1218908297564,6.521183188362317,2.4085903880902046,71.99994669525161,-1.0153513453738144e-10,120.00000078796704,26.03872642002185,15.288,0,0.0,0.019164148528834,3.9478358970291335e-11,-2.864207894220033e-05,1.9677461746207517e-09,5.135466997084602e-07,3.6754008774883777,54.15946979122355,6.521232015176687,34.96719658394182
0.17,31.2222151493826,131.01039374906244,3.4833737923187487,3.7139589864597298,0.0003384978477213,43.96471427482637,0.0005668629535037,2.999235483723449,471.78125980632376,6.916861975403744,2.559060925010733,71.99992884100092,2.3206494032971838e-09,120.0000009081849,29.29426197817256,15.288,0,0.0,0.0203269651395979,5.248754693205839e-11,-3.5267097947693114e-05,2.580363454062817e-09,6.706952682968329e-07,3.713959001863866,52.549031795895466,6.916915146521327,44.06689817851128
0.18,31.22221503253009,131.01039398932429,3.549599475912623,3.7380363034619775,0.0003650282082698,36.67395661481795,0.0006021794701355,2.9956556354306425,407.10156721191447,7.332140201215607,2.71556808256092,71.99990696207136,5.837017536380516e-09,120.00000103716444,32.917216366714264,15.288,0,0.0,0.0215473823438242,6.839750892601699e-11,-4.285557247677198e-05,3.331016495775474e-09,8.639362741436378e-07,3.738036321259578,50.93050624815799,7.332197539712479,36.796100973258795
0.19,31.22221490871209,131.01039424390297,3.619694897703461,3.747799769666444,0.0003901520189829,41.42208371271829,0.0006393759928961,2.991742733214697,448.9531328318269,7.771071983754382,2.879366399937307,71.99988049019642,1.0709144790974043e-08,120.00000117502664,36.97605053227239,15.288,0,0.0,0.0228373144884866,8.761416506509219e-11,-5.146771415177372e-05,4.238406957677133e-09,1.0996552116864756e-06,3.747799789945131,49.29705748437159,7.771133268690212,41.529983675580546
0.2,31.22221477769685,131.01039451327668,3.693822889232993,3.7700519460961166,0.0004166800650969,37.99697972290605,0.0006740224661302,2.987733789228414,418.51563019916136,8.179966026035371,3.0338260708461373,71.99984881140107,1.723179577184912e-08,120.0000013223286,40.969302182777255,15.288,0,0.0,0.024038975990988,1.1057590044953188e-10,-6.120032215177249e-05,5.3263847350253015e-09,1.376394225587184e-06,3.7700519690893857,47.8457752505109,8.180031477986942,38.11426270718793
0.21,31.222214639876928,131.01039479663547,3.771710975053407,3.7926098867321474,0.0004432924407074,36.46301043881366,0.0007080907240332,2.983530483977461,404.8187610144644,8.582757448615462,3.1863584283669346,71.99981127559042,2.5745201416596626e-08,120.00000147900325,45.103059028532826,15.288,0,0.0,0.0252227064089584,1.3774582723633048e-10,-7.20875523136271e-05,6.61341033873124e-09,1.7010673350603349e-06,3.792609912601061,46.47936953648762,8.582827080829217,36.584868250565684
0.22,31.22221449507626,131.01039509434258,3.8534832466471007,3.782921298925821,0.0004660920499522,44.14577847155813,0.0007479176313898,2.978724032883548,472.5421858721365,9.056569122268344,3.360845972992861,71.99976720416048,3.661811567390422e-08,120.00000164562512,50.21995530074818,15.288,0,0.0,0.0266151520780326,1.6960703048385348e-10,-8.421592474264931e-05,8.124635526119773e-09,2.0969540034515424e-06,3.7829213275976334,44.9464484092354,9.056642335836344,44.24615863872642
0.23,31.22221434283448,131.01039540734791,3.9394622486964206,3.813874679301352,0.0004940771488601,36.66675459308932,0.000779455230549,2.974212905336642,406.3406421461021,9.430647902846331,3.5044030163419806,71.99971583979395,5.0272885112871524e-08,120.00000182313076,54.45382429059888,15.288,0,0.0,0.0277145095638672,2.0669790509245914e-10,-9.77285871729516e-05,9.894576563683824e-09,2.5339062472561444e-06,3.813874711257219,43.79476959007253,9.430725512303388,36.78718303164376
0.24,31.222214184153326,131.01039573358457,4.028950821673608,3.829256049377765,0.0005200487408944,37.802126339316736,0.0008136255607606,2.9692962675112065,416.2328240017114,9.837806876534357,3.658163422426286,71.9996564062533,6.718950080713476e-08,120.0000020109434,59.25679777340223,15.288,0,0.0,0.0289110855155543,2.4956955046738006e-10,-0.0001125744417092,1.1934277804843484e-08,3.0448209172448607e-06,3.829256084638984,42.59361542722471,9.83788856559955,37.91856374864305
0.25,31.22221401888584,131.01039607335582,4.122052964664892,3.851417709838087,0.0005469594058717,38.85163035360012,0.0008459008130282,2.964283881833675,425.36408079150686,10.22297576958679,3.8050691648373967,71.99958811418384,8.786880969336211e-08,120.00000220974424,63.98709205399403,15.288,0,0.0,0.0300430411774988,2.987811646313829e-10,-0.0001288461362054,1.4273117985167728e-08,3.621333387698252e-06,3.8514177486178034,41.50703126619192,10.223061685769354,38.96455005232871
0.26,31.222213847358866,131.0103964259872,4.218542267117083,3.8780574625554745,0.0005745172425185,42.3164797140743,0.0008766626387865,2.959162938653076,455.8015834241788,10.590779679138215,3.946551912391076,71.99951013710364,1.1286401474734325e-07,120.00000241975916,68.67355887153568,15.288,0,0.0,0.0311239685467471,3.5491769188178554e-10,-0.0001465721578858,1.6932703957058654e-08,4.267712643344226e-06,3.8780575050466,40.51245375834074,10.590869924095635,42.41981967733593
0.27,31.22221366913008,131.0103967923915,4.318728802515264,3.886188503202341,0.0005994342651313,38.70936050721014,0.0009111181036949,2.953518013741325,423.84219965987256,11.004860953238978,4.102320296019413,71.99942161756776,1.4276417094868828e-07,120.0000026420792,74.14786134434608,15.288,0,0.0,0.0323408987462391,4.1858405402174807e-10,-0.0001658847815307,1.995072923688136e-08,5.018832267232506e-06,3.886188549362022,39.43841359495857,11.00495511215316,38.8218734782956
0.28,31.22221348431185,131.01039717233687,4.422535913956003,3.90556090261878,0.0006261175699806,44.68030766832924,0.0009425767186621,2.947879457547137,476.3468732012221,11.38358114165448,4.247086834352694,71.999321619057,1.7823531611327881e-07,120.000002877279,79.33831935330025,15.288,0,0.0,0.033453914386159,4.904408325040897e-10,-0.0001868529238516,2.3357766479368094e-08,5.847713054408178e-06,3.9055609527288775,38.49894431917428,11.383679491972384,44.77744842575601
0.29,31.222213292835256,131.0103975659655,4.530013412817602,3.9242599519377537,0.0006528240665589,35.802573724660256,0.0009737210635801,2.942037024315898,397.97031042211177,11.759725774384751,4.391004157029451,71.99920917567837,2.1999186079018322e-07,120.00000312617878,84.66717879828003,15.288,0,0.0,0.0345593650464213,5.711677680739745e-10,-0.0002095620322847,2.7188189988316943e-08,6.77505090435382e-06,3.9242600061534456,37.60352534239979,11.759828319749328,35.92324968749781
0.3,31.222213095024976,131.0103979726075,4.64093665799555,3.936939025755682,0.0006785438093183,33.570228713727204,0.0010059102294455,2.93586442972183,378.1859457108711,12.149968255527943,4.539237002744259,71.99908328532703,2.6880857935396905e-07,120.00000338923812,90.3787563598417,15.288,0,0.0,0.0357062504417728,6.614698865958865e-10,-0.0002340353597042,3.1467140861055e-08,7.817263716758327e-06,3.9369390841381695,36.71173884615234,12.150074840940263,33.698361337808635
0.31,31.22221289105846,131.01039839189684,4.755183729044857,3.9598342215431432,0.0007060286581592,35.396825578217346,0.0010350810412898,2.9297385597941448,394.1656220930212,12.504537499407316,4.6763673222047455,71.99894291513503,3.255120771695107e-07,120.00000366712923,95.72967338626896,15.288,0,0.0,0.0367483036680869,7.620720834468404e-10,-0.0002603234137215,3.622454560346964e-08,8.948994505138873e-06,3.9598342843844345,35.934338386209795,12.504648402129598,35.5178635353378
0.32,31.222212681031937,131.01039882363492,4.872689374180126,3.985461429033668,0.0007340760463279,38.52097867048992,0.0010630242168685,2.9235095146848846,421.55939346242695,12.84534566718622,4.809181081594425,71.99878701464397,3.909756427278764e-07,120.0000039606604,101.01782231644016,15.288,0,0.0,0.0377499198995686,8.737098716736534e-10,-0.0002884807530145,4.1491545539590986e-08,1.0187112828155184e-05,3.98546149652875,35.21473736963424,12.845460975581933,38.631757748577954
0.33,31.22221246496604,131.01039926777932,4.9934410812554,4.010606629086,0.0007621365968788,38.18822026147908,0.0010905599149574,2.917102431053817,418.5156301991682,13.18247167592885,4.940798912752974,71.99861449732019,4.661299779655886e-07,120.000004270781,106.38859400029033,15.288,0,0.0,0.0387407190563976,9.971421990244511e-10,-0.0003185760672934,4.7302669734505256e-08,1.154498667827874e-05,4.010606701382261,34.52805863348922,13.182591392065536,38.299473293007864
0.34,31.222212242662028,131.01039972474007,5.117579377337869,4.019339771238816,0.0007871574969313,29.898022638335373,0.0011220389395318,2.910051232417875,345.46563688075645,13.569536737955724,5.0878303926024735,71.99842423285973,5.519675040347761e-07,120.0000045987411,112.72655675097128,15.288,0,0.0,0.0398782837956187,1.1331556132162459e-09,-0.0003507224668667,5.37022358302301e-08,1.308298593306914e-05,4.019339848191799,33.76700548046532,13.5696603843662,30.039310197084795
0.35,31.22221201433324,131.01040019407705,5.2449575244483055,4.033762873683395,0.000813261106463,32.76415525156106,0.0011515840876071,2.902959820469776,370.5765700527033,13.934300103976534,5.227895396154902,71.99821502296155,6.495674834876441e-07,120.000004945438,118.8669740701126,15.288,0,0.0,0.040950312688979,1.2825853697215452e-09,-0.0003849609961885,6.072234695821837e-08,1.4746020857580124e-05,4.033762955530055,33.07785186209504,13.934427850732408,32.89250745069162
0.36,31.22221177990305,131.01040067594835,5.375631006350063,4.051723629010647,0.0008401329464575,37.01692984301412,0.0011797030485285,2.8957873473716007,407.8625232777193,14.282998147928636,5.362923567977223,71.9979856440668,7.600645476620651e-07,120.00000531213882,124.88900300695136,15.288,0,0.0,0.0419751331662584,1.4462801652534363e-09,-0.0004213876232777,6.84067806399068e-08,1.654507199147348e-05,4.051723715967022,32.44322602189087,14.283130115703262,37.13002398000203
0.37,31.222211539445663,131.01040117020102,5.509550188388412,4.071639898917391,0.0008674922629137,35.12417761390579,0.0012067983861697,2.88849906286036,391.1218908297666,14.620581431527652,5.494447309446232,71.99773482653193,8.846681943540367e-07,120.00000570002652,130.86067091914967,15.288,0,0.0,0.0429672939311924,1.6251202388969355e-09,-0.0004600660652957,7.679415042686734e-08,1.849041957573993e-05,4.071639991174516,31.85023865502424,14.620717696893658,35.24274792557624
0.38,31.222211292895075,131.01040167697127,5.646763233102716,4.08264881385344,0.0008930259828975,36.695642158537446,0.0012360471443664,2.880711738179021,404.8187610144602,14.986392916850402,5.634654729559426,71.99746126698146,1.0246533537040716e-06,120.0000061105033,137.4891296153862,15.288,0,0.0,0.0440424171304414,1.8200057922063743e-09,-0.0005010869196581,8.592980519823866e-08,2.0642694281337543e-05,4.082648911356968,31.228847973200924,14.986533193043764,36.808540518115166
0.39,31.22221104018777,131.0104021963902,5.787316652586672,4.096641430700089,0.0009192713382325,31.335681548387896,0.0012640110027448,2.872831219844713,357.64062493382744,15.337978856701952,5.770390286512262,71.99716358743511,1.1813915463769678e-06,120.00000654506955,144.01394309468844,15.288,0,0.0,0.0450757388736732,2.031886352449547e-09,-0.00054455673306,9.586443829735616e-08,2.295945663566148e-05,4.096641533664766,30.65298398882095,15.338123255506089,31.4670954954126
0.4,31.222210781536543,131.01040272801887,5.931064331106764,4.109028969993624,0.0009451871856381,29.95928076777898,0.0012920492774571,2.8646905607053603,345.465636880754,15.692185018814769,5.906873567965718,71.99684037970908,1.3563276523471372e-06,120.00000700500496,150.74021066990193,15.288,0,0.0,0.0461167659598875,2.2617341782092324e-09,-0.0005905037520737,1.0663253249436129e-07,2.5471259834659164e-05,4.1090290785164525,30.09246700352443,15.692333488470696,30.095929256306363
0.41,31.222210517064383,131.01040327160345,6.077922766619747,4.122888296344507,0.0009714525997821,33.78425365340317,0.0013192264430821,2.85640971467756,378.94687077668647,16.03742529732769,6.0405139809190125,71.99649020751959,1.5509747261474075e-06,120.0000074917568,157.44375780268788,15.288,0,0.0,0.0471314487675864,2.5105374204052982e-09,-0.0006389770219162,1.1827345344180344e-07,2.816813594418537e-05,4.122888410595805,29.56469007160549,16.037577892745222,33.904791300285986
0.42,31.22221024682894,131.0104038270252,6.227854084363214,4.14444025865494,0.0009995884754813,38.04468161607466,0.0013435485656724,2.8482703202464488,416.2328240017114,16.348862540904037,6.163613566771559,71.99611159893284,1.766920641656551e-06,120.00000800692096,163.6157044470786,15.288,0,0.0,0.0480467946810589,2.779304965995011e-09,-0.0006900467934588,1.308321832549104e-07,3.100973487310896e-05,4.144440378988911,29.104646754454564,16.34901955589459,38.15115260238947
0.43,31.222209970843565,131.0104043942566,6.380851271439565,4.1618082623168045,0.0010268052928652,33.45815353250911,0.0013687230309017,2.8397750580998298,375.9031395134336,16.67263197205097,6.290467308135904,71.99570306121484,2.005818691215035e-06,120.00000855220898,170.15779512382937,15.288,0,0.0,0.0489983878509763,3.0690566816849196e-09,-0.0007437862329608,1.443552931671376e-07,3.4086145072160934e-05,4.161808388761201,28.640125213458976,16.672793262249197,33.57845085853367
0.44,31.22220968892116,131.01040497368373,6.537047157143216,4.164954087655709,0.0010505545842624,30.86574023822051,0.0013980747538988,2.830419582421933,353.0750125389216,17.050421620730056,6.433992917638883,71.99526304125902,2.269416145406482e-06,120.00000912964636,177.9537948947602,15.288,0,0.0,0.050108743779844,3.380847125286677e-09,-0.0008003278134917,1.589055036683518e-07,3.750784460406397e-05,4.164954219916419,28.113519280259386,17.050586641458253,30.99524475496968
0.45,31.22220940081287,131.01040556582012,6.696617751072218,4.165241899529329,0.0010735835484822,35.912216710755274,0.0014280646808282,2.820677244966047,397.2093853562869,17.438293672974723,6.580571293039616,71.99478987454265,2.5595995397253085e-06,120.00000974147088,186.13940823302417,15.288,0,0.0,0.0512487363629523,3.7158016249566814e-09,-0.000859850913876,1.745604864109677e-07,4.121350642664912e-05,4.1652420376426775,27.591357195572936,17.43846231108416,36.02281959036367
0.46,31.222209106468902,131.0104061707686,6.859600379555308,4.174585124444534,0.0010989881252456,41.916816790010685,0.0014546917035209,2.811153314474766,449.7140588976434,17.786187321601275,6.714685486378061,71.99428180697711,2.8783880229668832e-06,120.0000103898448,193.6374175079873,15.288,0,0.0,0.0522712438446989,4.0751091178509895e-09,-0.0009224765531151,1.9138630415982226e-07,4.50966024037632e-05,4.1745852688465686,27.13985967570823,17.786359950252297,42.01097612387663
0.47,31.22220880579083,131.01040678873238,7.026066274755745,4.1823089530633855,0.0011240727220223,28.37640408484148,0.0014814747534716,2.801325368441072,331.0078106302534,18.138167428286582,6.849989708801916,71.99373704967608,3.2278903746588286e-06,120.00001107707628,201.37401505997488,15.288,0,0.0,0.0533057667609836,4.459978104761035e-09,-0.0009883252835099,2.094509673354327e-07,4.927107017839778e-05,4.182309103852639,26.69716826759888,18.13834399721685,28.514342615617974
0.48,31.222208499300592,131.0104074186346,7.195654207463586,4.189479568102716,0.0011490100608361,27.95074823096412,0.0015080719422187,2.7912412472910484,327.2031223011574,18.48995085190441,6.98515976370584,71.99315377257649,3.6103201777021456e-06,120.00001180491516,209.25751230436188,15.288,0,0.0,0.0543397174489847,4.8716620260348906e-09,-0.0010573190976925,2.2877013380347535e-07,5.373205427420879e-05,4.189479725385959,26.268461765425428,18.4901313379827,28.089773168283216
0.49,31.222208187201936,131.01040806005494,7.368224738812109,4.202723284133339,0.001175611380853,35.08821363242469,0.0015321405723077,2.781292092003844,389.60000969812296,18.812014261754847,7.111044804193205,71.99253015042137,4.027946338669921e-06,120.0000125755114,216.60722913930897,15.288,0,0.0,0.0552863302793499,5.311396446020465e-09,-0.0011294854492155,2.4938633613154685e-07,5.8398320167141767e-05,4.202723448262914,25.88860807032205,18.81219892635871,35.1982716047702
0.5,31.22220786953184,131.01040871291724,7.5437546994244835,4.220815778795054,0.0012036252596423,36.05491615971072,0.0015540388599792,2.7714444106710974,397.97031042210494,19.10875420627192,7.229005658018125,71.99186435180009,4.483102820610566e-06,120.00001339126192,223.4908652241728,15.288,0,0.0,0.0561585257949344,5.7804122391526605e-09,-0.0012048912160576,2.713531252030471e-07,6.327866493526626e-05,4.220815950099865,25.54902500917784,19.108943271285572,36.161276053538906
0.51,31.222207546379583,131.0104093770373,7.722184419225251,4.232567510615346,0.0012298790840397,27.54004661432325,0.0015777580800203,2.761017323676155,323.3984349720841,19.430597746636646,7.354673636736509,71.99115452520388,4.978202222778502e-06,120.00001425458936,231.07869697977367,15.288,0,0.0,0.0571045034845869,6.2799518101633574e-09,-0.0012835871653678,2.947201005874635e-07,6.854585242460463e-05,4.232567688976395,25.189423168613605,19.430790935591396,27.678103017910345
0.52,31.22220721770388,131.0104100527122,7.903531152463658,-22.10294498512797,-0.0031911428008278,33.53155721611421,0.00088487714813,4.04354324717912,372.0984511843415,18.33693698658649,7.491090021282339,71.99042670470898,5.683597235061257e-05,120.00006913237884,205.79442741430137,15.288,0,8.800018177490081,0.0538904586389777,6.807214849467105e-09,-0.0011331516218794,4.882372457626666e-05,5.7105364710635176e-05,22.10294520394839,33.720695011668454,18.336435723047767,33.77448107835791
0.53,31.222206882849623,131.01041074115255,8.08789860361995,-21.70978265880088,-0.0031092494537346,35.19348158227746,0.0009048204383199,4.067876996021636,386.5562464348624,18.62987691246112,7.631756522101736,71.98986922603513,0.0001428336535259,120.000159915539,212.41848552393907,15.288,0,8.833872459169578,0.0547514942125396,7.221419802569215e-09,-0.0007783780378116,4.876876239869186e-05,3.9852444267086726e-05,21.7097828706936,33.21840262529012,18.629388512699258,35.42779657212066
0.54,31.22220654162784,131.0104114426536,8.275357605003677,-21.330030758688665,-0.0030294139460075,30.934945006284348,0.0009246603038992,4.092398494633328,349.2703242098436,18.9217673406634,7.771989601760501,71.98951721787073,0.0002287310562788,120.00025060011444,219.12297522957704,15.288,0,8.867647557959977,0.0556094509238694,7.486350944101403e-09,-0.0004150868805027,4.8712885080156725e-05,2.158476336204348e-05,21.330030963784733,32.7311749927712,18.921291481433748,31.20446360435812
0.55,31.22220619432653,131.01041215662073,8.465701612889049,-20.969084061025207,-0.0029523960081813,32.77088515490159,0.0009441509813449,4.11676097256027,365.2500005919907,19.207154457368123,7.909983752991029,71.98937545098177,0.0003145295596505,120.0003411872212,225.77852932356984,15.288,0,8.901301770708438,0.0564483003862887,7.598885443568092e-09,-4.374281716709818e-05,4.8656185331070765e-05,2.308917562909161e-06,20.969084259506708,32.266695253976245,19.20669069608784,33.02845191092622
0.56,31.222205840939047,131.01041288306726,8.658929717975948,-20.630335734270727,-0.0028786230252568,30.599479636459208,0.0009631026604143,4.140692285119383,346.2265619465787,19.48179067570864,8.044360589037948,71.98944857378477,0.0004002307156084,120.00043167847328,232.27703282337424,15.288,0,8.934832880927049,0.0572555592106334,7.555995215706547e-09,0.0003357465743602,4.859867603106508e-05,-1.797508918833723e-05,20.63033592634777,31.83003460894385,19.4813385026614,30.878366011654432
0.57,31.222205481534967,131.01041362184924,8.854988063936004,-20.292173156701686,-0.0028052034610686,30.25702041622106,0.0009823542237463,4.165367834146348,343.1828296833023,19.76428520849125,8.18128225196831,71.98974120337668,0.0004858362137985,120.00052207554684,239.05760975682125,15.288,0,8.968224702989215,0.0580859184714536,7.354703814705758e-09,0.0007232910607404,4.854039666419634e-05,-3.928408345093954e-05,20.29217334242265,31.392196492766196,19.763844568162167,30.542389798874265
0.58,31.22220511608383,131.0104143730291,9.0538926202736,-19.94147343976276,-0.0027304350381611,39.76681536384506,0.0010024866639187,4.191635428614282,426.1250058573153,20.06765787453156,8.325021628283867,71.9902579783965,0.0005713478579734,120.00061238034472,246.4480748738756,15.288,0,9.001475965829526,0.0589776428788048,6.9920366600635645e-09,0.0011189941761495,4.848136014339068e-05,-6.170759702719192e-05,19.94147361908212,30.935132086415464,20.067228978798877,39.987115584317124
0.59,31.222204744151323,131.0104151375026,9.255940471813808,-19.627136724481456,-0.002660703203498,32.27499195391175,0.0010213923375886,4.216522072238337,360.68438819711065,20.34490796604033,8.460134743926542,71.9910038650325,0.0006567674446083,120.000702595196,253.29993987515752,15.288,0,9.03463678853287,0.0597926005565077,6.464783622518081e-09,0.0015238084514926,4.842146398960964e-05,-8.519062450104006e-05,19.62713689771711,30.526085158697345,20.34449002375861,32.54925751924279
0.6,31.22220436595412,131.01041591482223,9.460975219287294,-19.284118210876017,-0.0025875435610843,28.7047598504123,0.001041923430563,4.244106244794937,329.4859594986058,20.659847674550072,8.607572705489577,71.99198387683366,0.0007420968969961,120.0007927218616,261.19767530573654,15.288,0,9.06767452733836,0.0607183320244096,5.769766421585055e-09,0.0019373487308882,4.836079274036934e-05,-0.0001099846460742,19.284118377869216,30.075474155516044,20.65944122415809,29.01681714062647
0.61,31.222203981433072,131.0104167051096,9.669032625488436,-18.94498704278374,-0.0025152413593735,33.59755819110066,0.0010626783361408,4.272417321717108,372.0984511843297,20.98122554787964,8.757051866438346,71.99320313759353,0.0008273382323992,120.00088276249704,269.3817099921784,15.288,0,9.100593708764388,0.0616629913887726,4.903736156519562e-09,0.0023598106579109,4.829935178932288e-05,-0.0001360493521431,18.944987203622635,29.62814542496412,20.98083045469093,33.86811874469246
0.62,31.22220359070099,131.0104175081316,9.88002864315442,-18.67065079152004,-0.0024515316009033,41.72236070967676,0.0010806865768921,4.297125834472678,442.86563930529206,21.242135244357847,8.886735472589494,71.99466687635216,0.0009124935760617,120.00097271918528,276.11750504802205,15.288,0,9.133393219065734,0.0624299432622805,3.863399876672302e-09,0.0027911377628566,4.823718193235113e-05,-0.0001629142638571,18.670650946730383,29.269854771706925,21.24175015867459,41.943064680511306
0.63,31.22220319355713,131.01041832430198,10.09409825885605,-18.386230351951983,-0.0023867992721702,23.74184979914876,0.0010994414123912,4.323287961810865,286.11251274707894,21.521158779263928,9.02233709730312,71.99638006710651,0.0009975652873365,120.00106259459194,283.4131371009538,15.288,0,9.16605023066136,0.0632501370880839,2.6456730815266703e-09,0.0032317026219875,4.8174267823621214e-05,-0.0001911031224441,18.386230501517947,28.896217272829247,21.520783861711084,24.132265784522808
0.64,31.22220279060868,131.01041915236777,10.310813410164585,-18.082137491460127,-0.0023199529860574,23.30812430589776,0.0011194946266048,4.351747351834703,282.30782441796754,21.83093742006272,9.16790809542896,71.99834771096128,0.0010825558691159,120.00115239066317,291.62476757944734,15.288,0,9.198574655407224,0.0641607254813017,1.2474933399180264e-09,0.0036803051149243,4.8110801970939925e-05,-0.0002207587432631,18.082137635311973,28.49328697998189,21.830573002699936,23.710891272296166
0.65,31.22220238182836,131.01041999238473,10.530188541375203,-17.82498517763406,-0.0022592859167049,41.04863310465047,0.001137410804329,4.377423119572148,436.7781447787475,22.093677546645385,9.2981527071397,72.00057463766305,0.0011674680189959,120.00124211023136,298.6802526930623,15.288,0,9.23088733942774,0.0649330746057236,-3.3407531156991487e-10,0.004137142093068,4.8046791559611606e-05,-0.0002511429567299,17.824985316164963,28.15591076433378,22.09332265884356,41.28137732951354
0.66,31.222201966678178,131.0104208454626,10.752594392236633,-17.564460680556326,-0.0021984543946853,34.937987852585366,0.0011557431497829,4.404110348057336,383.51251517160017,22.36721842596,9.43191756006852,72.00306566803955,0.0012523124988367,120.00133176773636,306.11539403873945,15.288,0,9.263089379612026,0.0657371731728433,-2.101948811617041e-09,0.0046033400764854,4.798212683329959e-05,-0.0002828969844461,17.56446081380381,27.81270418577824,22.366873093551305,35.214474076450585
0.67,31.22220154534497,131.0104217112155,10.9778960553953,-17.28756507632605,-0.0021359465238899,24.10227605633106,0.0011752411924898,4.432963343676825,289.1562440103425,22.668761113781567,9.574743287921311,72.00582611915425,0.0013370762852076,120.00142134408868,314.41799079498304,15.288,0,9.295184446157377,0.0666235753713697,-4.0592984199970964e-09,0.0050785623585064,4.791688926635098e-05,-0.0003163023791052,17.287565204249596,27.444816554909053,22.66842560008625,24.506547624730082
0.68,31.222201117997862,131.0104225892942,11.205971090410236,-17.02318495433341,-0.002075315816972,30.052019339495025,0.0011943243008029,4.461609049695347,340.8999924858462,22.96235742062712,9.714967301102629,72.00886113877097,0.0014217703432202,120.00151085317827,322.60808716080027,15.288,0,9.327060052538528,0.0674866296845859,-6.209223130895535e-09,0.0055625621642202,4.785114813558293e-05,-0.0003509261418618,17.023185077091064,27.09394491851594,22.962031430780968,30.38140587793983
0.69,31.22220068471293,131.0104234795414,11.436762228824753,-16.785731057303085,-0.0020181861043887,36.9672134811623,0.0012121115570929,4.488691222697235,401.0140726853634,23.22784724876219,9.846097266236288,72.01217575615166,0.0015064056785321,120.00160030898492,330.1038598478783,15.288,0,9.358801521223084,0.0682670850583016,-8.55470951613798e-09,0.0060552269835305,4.778495562316113e-05,-0.0003864151413188,16.785731175137492,26.78110630714904,23.227530232830297,37.23873283187495
0.7,31.222200245340048,131.0104243822665,11.670370328388591,-16.55197005577856,-0.0019617603395084,31.02192482540033,0.001229892481053,4.516174745070878,349.27032420985284,23.494693056419354,9.977670983097449,72.01577502280233,0.0015909701188351,120.00168969377609,337.7244386323913,15.288,0,9.390422025488668,0.0690515319511568,-1.1098645910827068e-08,0.0065569214210827,4.771830668762019e-05,-0.0004232283572813,16.55197016878155,26.472846670747305,23.49438490382588,31.348933884798075
0.71,31.222199799928017,131.0104252973686,11.906757450853908,-16.309239694171033,-0.00190462673425,25.510883942386567,0.0012484271109278,4.545244829946488,301.33126406340574,23.78041006132785,10.115316852729077,72.01966395218136,0.0016754829092142,120.00177903279676,345.98060767435527,15.288,0,9.42183255372084,0.0698914482707947,-1.384396930150341e-08,0.0070675734629839,4.765125130075352e-05,-0.0004617265162897,16.309239802364093,26.150815158078537,23.780110883260097,25.912631121610215
0.72,31.222199348471417,131.0104262248585,12.145923520311245,-16.05548697611175,-0.0018465954746916,31.204992246729766,0.0012679070032632,4.57625556196928,350.79220534145287,24.089573536943576,10.260478780436928,72.02384781973474,0.0017599318322576,120.0018683080134,355.026955057159,15.288,0,9.45310094776466,0.0708002814633146,-1.6793675954579474e-08,0.0075872829019867,4.758381951832322e-05,-0.0005021119534354,16.05548707950913,25.811644001004588,24.089283474404752,31.538764365372778
0.73,31.22219889095919,131.01042716475865,12.387872301210871,-15.843807704566812,-0.0017935896826945,39.44193189865004,0.0012849530694637,4.60389809961904,422.320318528234,24.344280446258743,10.388141678895572,72.02833193388815,0.0018443369052275,120.00195754571156,362.56585263744415,15.288,0,9.484247466719102,0.0715490712101857,-1.9950845605774364e-08,0.0081162074463772,4.751603629530212e-05,-0.0005427816563349,15.843807803487024,25.533698826614497,24.34399870985025,39.70972011057907
0.74,31.22219842731772,131.0104281172208,12.632651816586971,-15.624065264584535,-0.0017399722507829,24.72757385407084,0.0013026974341678,4.633078954010684,294.48281347105944,24.616817253760768,10.521532531915671,72.0331214733807,0.0019286937527611,120.0020467386041,370.7205053331063,15.288,0,9.51523613029592,0.0723502704714896,-2.3318355138261232e-08,0.0086544764169266,4.744793208908807e-05,-0.0005852448119369,15.624065359056951,25.243279819652564,24.616543939558785,25.157868172793282
0.75,31.222197957918983,131.01042908147707,12.879998866296768,-15.400696963707986,-0.0016863086089499,28.84807150690704,0.0013208796795606,4.66341139095039,330.24688556441487,24.90125990393695,10.658712659983792,72.03822159935942,0.0020130065195326,120.00213589059088,379.3282014303752,15.288,0,9.546014297783138,0.073186468345481,-2.6899142124232807e-08,0.0092012912822391,4.7379642932751534e-05,-0.00062939698283,15.400697053795474,24.946911533577524,24.90099501920011,29.22257068112918
0.76,31.222197482639206,131.01043005778268,13.129996763935072,-15.193910543334551,-0.0016347307486987,31.041865041538,0.001338127717951,4.692702681530601,349.27032420986166,25.165827974792567,10.789521200600356,72.04363739539384,0.0020972799426781,120.00222500685872,387.42220645602566,15.288,0,9.576648915292411,0.0739642602181933,-3.069596958933722e-08,0.0097570350963538,4.7311170487298624e-05,-0.00067448643633,15.193910629204703,24.674692572218472,25.165571191887068,31.39456713358044
0.77,31.222197001410823,131.0104310462767,13.382689733878964,-14.993751885137014,-0.0015841309761362,29.02726874166534,0.0013550771743361,4.721971058656705,331.7687666960708,25.425258698811856,10.91868711336266,72.04937399193791,0.0021815183218837,120.00231409187732,395.4415367546022,15.288,0,9.607143326688046,0.0747269596601066,-3.4711607595989465e-08,0.0103219167416218,4.724253893646318e-05,-0.0007208739355932,14.993751966901854,24.41192560469833,25.42500986410004,29.408831039602497
0.78,31.22219651429515,131.0104320468324,13.638032087483367,-14.78631791408444,-0.0015330874095112,23.85348893562129,0.0013727071382177,4.752821994107467,286.8734378128899,25.70247104487424,11.0535144462097,72.05543651935923,0.0022657261263812,120.00240315015138,404.10165761615457,15.288,0,9.637465725425056,0.0755419275313736,-3.894883058445704e-08,0.0108957992185179,4.717381174147898e-05,-0.0007692312371606,14.786317991789575,24.13775095338226,25.70223022806712,24.322381733576254
0.79,31.222196021378263,131.01043305927195,13.895960840948607,-14.576426532911604,-0.0014821449033042,33.857010109266334,0.0013906983422283,4.784763317273796,373.6203323159534,25.990139268010594,11.191643225337314,72.06183011713031,0.0023499164661489,120.00249219798168,413.18764868676686,15.288,0,9.667585845480543,0.0763876332013192,-4.3410421737244654e-08,0.0114785405447286,4.7105052755554046e-05,-0.0008194217051391,14.576426606631813,23.85938058015855,25.98990645323363,34.19343643852331
0.8,31.222195522420176,131.01043408409026,14.156641142788244,-14.390273037937808,-0.0014338561889454,34.298441004887,0.0014070860708568,4.814541067726212,377.42502064505743,26.24224216415948,11.318446131703608,72.06856019990899,0.0024340790840065,120.00258121984112,421.23177391930886,15.288,0,9.697576211233502,0.0771288158113092,-4.8099133628152585e-08,0.012070848192171,4.703623903753645e-05,-0.0008700416414111,14.39027310786458,23.616576814035604,26.24201693455603,34.63470604810192
0.81,31.222195017522587,131.01043512107725,14.419999404430868,-14.194500815657436,-0.0013849167272045,22.36037399189108,0.0014243455819565,4.846273094107771,273.9374926939919,26.516915855891234,11.452412920159164,72.07563195871651,0.0025182345176992,120.00267024210308,430.0849865222585,15.288,0,9.727421398400752,0.0779363433649768,-5.3017754861926334e-08,0.0126724429681616,4.696745296277744e-05,-0.0009229404578963,14.194500881830717,23.35871477626147,26.51669831368045,22.87952556301534
0.82,31.22219450687785,131.0104361698359,14.685898584982269,-13.996839426977417,-0.0013361329698467,28.682877291469573,0.0014419185724857,4.879065271152901,328.72500443277005,26.801156483486928,11.58938126205962,72.08305068172528,0.0026023805480095,120.0027592596908,439.3435352743002,15.288,0,9.75710793964269,0.0787719964129317,-5.816907830060055e-08,0.0132829086041646,4.689878941168539e-05,-0.0009777457955805,13.99683948947708,23.09748580646968,26.800946604210832,29.094891814832383
0.83,31.222193990462017,131.01043723041536,14.954353176636015,-13.8257340167587,-0.0012901323114574,36.41410767748557,0.0014575094604886,4.908983976688891,395.68750322465047,27.04077441291411,11.712178993094245,72.09082164407485,0.0026865224202234,120.0028482779588,447.2230972551171,15.288,0,9.7866262702633,0.0794765046069369,-6.355577502192364e-08,0.013902424685297,4.683028402679293e-05,-0.0010324706569488,13.825734075779424,22.876771794586023,27.040571759404536,36.74350777695613
0.84,31.222193468157577,131.01043830305787,15.225443736494464,-13.652553933518565,-0.0012441979223759,22.532297215026887,0.0014733523937469,4.9398178006267806,275.4593748256452,27.28856649898326,11.837559696451796,72.09894995094457,0.0027706655899827,120.00293730257673,455.4451826055297,15.288,0,9.815959525548315,0.0802050444829004,-6.918033796453107e-08,0.0145312582161122,4.6761967221907474e-05,-0.0010890320908604,13.652553989135228,22.65272353679356,27.28837106083065,23.067427681916875
0.85,31.22219294027068,131.01043938713167,15.498953955654018,-13.463428393370224,-0.0011971559548026,24.552490052274614,0.0014906375592934,4.973684893562729,292.96093233939376,27.57293938145442,11.974469727706344,72.10744061921889,0.0028548244852424,120.00302635101345,464.9747747631116,15.288,0,9.845123263279648,0.0810411076099809,-7.504541699019816e-08,0.0151686313585493,4.6693968416680094e-05,-0.0011486158115097,13.463428445612008,22.40364136792996,27.572751332636795,25.0511938120621
0.86,31.22219240661173,131.0104404830277,15.775014991267156,-13.290999343889093,-0.0011518844269452,30.70597547933425,0.0015066408232825,5.005859332719276,346.2265619465587,27.82926044450664,12.10248098668172,72.1162989875475,0.0029389903383482,120.00311540934692,473.6473120688274,15.288,0,9.874137720218563,0.0817947293879407,-8.115347932025433e-08,0.015815172751314,4.662628604143439e-05,-0.0012086746644626,13.29099939290541,22.180187307415597,27.82907950692398,31.11134134148535
0.87,31.222191867201136,131.0104415907037,16.053611097411103,-13.127542496768823,-0.0011076461825144,28.59529308690308,0.00152195672367,5.037348563787396,327.964078366998,28.07161607738804,12.22606143142668,72.12553014598588,0.0030231881930702,120.00320450979928,481.9200086131696,15.288,0,9.903001485597697,0.0825073114194736,-8.75070195845177e-08,0.0164708622442763,4.655898172224892e-05,-0.0012697141049865,13.127542542677514,21.970547214213408,28.071442088732564,29.035593150396124
0.88,31.222191322071776,131.01044271009167,16.334717981505715,-12.95751760806589,-0.0010631409134894,24.72388727670477,0.0015379324146663,5.070554800643546,294.4828134710418,28.33228484974701,12.355382069626971,72.13513931138566,0.0031074075627745,120.00329363570404,490.8983824775282,15.288,0,9.931707676413058,0.0832737259289486,-9.410851829485413e-08,0.0171355729391945,4.649212742919254e-05,-0.0013331858585611,12.957517650934191,21.75040948256517,28.33211785196284,25.23848510554406
0.89,31.22219077130498,131.01044384102374,16.61827735626676,-12.781379953977517,-0.0010184638665688,27.098074366251183,0.0015545641888427,5.105514906594912,315.028134248087,28.611403111170773,12.490457784081176,72.14513160243939,0.0031916626658046,120.00338280420064,500.60465948521687,15.288,0,9.960253973815709,0.0840943741959217,-1.0096043256049356e-07,0.0178091699351157,4.642579596038349e-05,-0.0013992054114588,12.781379993879538,21.52034930119969,28.611243131240723,27.574842143464977
0.9,31.2221902148166,131.01044498367327,16.90434719848001,-12.62952057844995,-0.0009759729952437,29.913305469231457,0.0015690551847096,5.137164777415904,339.37814235421445,28.841714614432817,12.610148931750688,72.15551228634041,0.0032759705632551,120.00347203643037,508.68249616740286,15.288,0,9.988646832731032,0.0847715772802664,-1.0806514935012741e-07,0.018491974806223,4.636002357467284e-05,-0.0014645057407217,12.62952061554739,21.328493415167905,28.841561308953228,30.351215931290287
0.91,31.22218965267709,131.01044613789483,17.19287735889809,-12.471139443944832,-0.0009332470804034,22.780529047616607,0.0015841963587028,5.17054666970882,277.7421810230789,29.090446831057736,12.735588865427928,72.16628649527779,0.0033603196292991,120.00356131390744,517.4797896778988,15.288,0,10.016854287936289,0.085502929452441,-1.1542501663019833e-07,0.0191837735989701,4.629489305965027e-05,-0.0015323540060773,12.471139478310285,21.126242935376524,29.090300236949155,23.359945613434526
0.92,31.222189085094573,131.0104473032589,17.483720726788725,-12.30677975298708,-0.0008903881662037,27.093018542589355,0.001599976595373,5.205687757094484,315.02813424806214,29.35756325182092,12.86673012565174,72.17745923721617,0.0034447267560892,120.00365065706676,527.0119806883031,15.288,0,10.044893940035124,0.0862883238503979,-1.2304247855259546e-07,0.0198839918003295,4.62305135178878e-05,-0.0016028250644968,12.306779784699724,20.91426792696559,29.35742338997484,27.58859984365606
0.93,31.222188511970074,131.01044847996954,17.77694645908034,-12.163822053214425,-0.00084932523304,32.20034343501951,0.0016137342100474,5.2376366812887145,359.1625070654728,29.578512777904407,12.983357190224492,72.18903551197066,0.0035292121484747,120.00374009112905,534.9595126774284,15.288,0,10.072780366514223,0.0869380306563561,-1.3091959444968854e-07,0.020593039014942,4.61669190181832e-05,-0.0016724266909314,12.163822082419196,20.73644104447452,29.578379366208782,32.62353380525358
0.94,31.222187933185392,131.01044966827058,18.0726379336574,-12.005753052453684,-0.0008074821326035,23.38740680826904,0.0016290135706858,5.273031521656769,283.0687504837787,29.839536497867226,13.11247682197162,72.20102033334912,0.0036137645872343,120.00382959814505,544.4275069032619,15.288,0,10.100513302802646,0.0877055318361223,-1.3905838406992417e-07,0.0213111397674503,4.610416249364012e-05,-0.0017459698137864,12.005753079209876,20.53424253010353,29.839409658870444,23.974479374900724
0.95,31.22218734904031,131.01045086754337,18.37058343083821,-11.852287966318215,-0.0007662550701055,30.25909774105805,0.0016438870685589,5.308266965186933,342.4218736174873,30.093856406389,13.239421540421644,72.2134187827752,0.0036984001720908,120.00391919711228,553.7314301654809,15.288,0,10.128081607426417,0.088453336217602,-1.4746131962368629e-07,0.022037563292992,4.6042364204335626e-05,-0.0018208198115281,11.852287990733249,20.33930483210733,30.093736043324053,30.721176686106343
0.96,31.22218675922479,131.0104520784276,18.67100192510248,-11.710142400022471,-0.0007260097622773,29.63993975764045,0.0016576319516857,5.341958971568731,337.09533515678345,30.323742810169573,13.358686630247302,72.22623589727209,0.0037831275925881,120.004008897434,562.2074089271113,15.288,0,10.155507100722293,0.0891293317203054,-1.5613010332486568e-07,0.0227732386540165,4.5981532053644095e-05,-0.0018959226904384,11.710142422213949,20.1626367555314,30.3236287688228,30.117479264344524
0.97,31.222186163756973,131.01045330088576,18.97388097687568,-11.565443088259276,-0.0006858559847875,18.96642743619215,0.0016716526873613,5.376801229439193,245.02188719299323,30.563695758486272,13.48103746084738,72.2394768174326,0.0038679558049521,120.00409870843698,571.1235360666245,15.288,0,10.182787154407352,0.0898349225823597,-1.650668784382318e-07,0.0235181182050834,4.592174524323535e-05,-0.001973371381456,11.565443108318677,19.98178047462534,30.56358802448011,19.713836865198612
0.98,31.222185562935007,131.0104545343025,19.279010173088505,-11.407233691172443,-0.0006452278574801,27.606239557497062,0.0016871435013562,5.415171980842191,319.5937466429581,30.843449314158928,13.615686369444536,72.25314660644803,0.0039528940391356,120.0041886394304,581.6094785702277,15.288,0,10.20990327336924,0.0906575056601191,-1.742741155103691e-07,0.0242713016024692,4.5863134724413535e-05,-0.0020551506792204,11.407233709178746,19.778678620599337,30.84334796200408,28.132339983273116
0.99,31.22218495660149,131.01045577900268,19.58650121139624,-11.277176471618178,-0.000606445348376,30.16169734762712,0.0016996160652554,5.448229920293498,341.6609485517054,31.052100369268352,13.728149843874448,72.26725044418262,0.0040379518008243,120.00427870049938,589.4876774284875,15.288,0,10.236876263005287,0.0912711060229053,-1.837535609186461e-07,0.0250334345139024,4.580573653821392e-05,-0.0021339599004737,11.277176487713309,19.62172760681785,31.05200510905579,30.649815644517876
1.0,31.222184344753483,131.01045703499227,19.89635736467765,-11.134036595515648,-0.0005672107364647,26.98136644148521,0.001713505748442,5.484749697920577,314.2672081822764,31.299514551787016,13.852584704254893,72.2817931375216,0.0041231388657109,120.00436890184244,598.9010126255321,15.288,0,10.263698001187226,0.0919986495405213,-1.9350709381371682e-07,0.0258043800943679,4.574963854048507e-05,-0.0022171391092816,11.134036609781308,19.44322626212025,31.299425454532884,27.53319119235266
1.01,31.22218372757616,131.0104583018892,20.20844821744261,-10.995289360421168,-0.0005284805917509,28.213373759442423,0.0017269062604183,5.520942990601752,324.9203161036979,31.53854805459528,13.974326108977632,72.29677973043613,0.004208465308464,120.00445925376508,608.0652953797219,15.288,0,10.290364752146,0.0927015670700182,-2.0353686179184666e-07,0.0265836818800817,4.569494438196036e-05,-0.0023014721269341,10.995289372965384,19.27194366398837,31.538465041058053,28.748482975240176
1.02,31.22218310498872,131.0104595798601,20.52283230768869,-10.862136600102428,-0.0004902742479975,23.528961737365687,0.0017396532097069,5.556465788413743,284.59063161540416,31.76510061319492,14.092116284783057,72.31221508440623,0.0042939414838702,120.0045497671488,616.8139431668458,15.288,0,10.316883177292397,0.0933678064752724,-2.1384448158857973e-07,0.027371590906552,4.564172157855591e-05,-0.0023866352702567,10.862136611034096,19.10997160036124,31.765023601096136,24.176152620353477
1.03,31.222182477060684,131.0104608687616,20.83946183668449,-10.7209620770491,-0.0004519870050833,19.19518406338988,0.0017533074399203,5.594536181472345,247.30469339049705,32.018461426722176,14.218100870962829,72.32810396191705,0.0043795780383148,120.00464045301464,626.6736331767703,15.288,0,10.34324852637468,0.0941128513219516,-2.2443175748553093e-07,0.0281678626717609,4.559006499421532e-05,-0.002475579769391,10.720962086465333,18.934564092622637,32.01839042876944,19.99384728828614
1.04,31.22218184385396,131.01046216846595,21.15829412061293,-10.59084328313512,-0.0004144384314572,30.586544219206285,0.001765644922545,5.630575246535241,345.46563688072297,32.242796780800816,14.335011705398928,72.34445131247699,0.0044653859414875,120.00473132272624,635.466435771184,15.288,0,10.369464671893434,0.0947725881163383,-2.353004760711963e-07,0.0289724038024293,4.554006177799424e-05,-0.0025640501022398,10.590843291151398,18.77769278922904,32.24273168096423,31.10048340456879
1.05,31.222181205075795,131.01046347957725,21.47953945561166,-10.454698807367633,-0.0003769122588042,18.386018829488247,0.0017786639710898,5.6687584476717765,240.45625879819983,32.48866003169476,14.45847594965302,72.36126193410014,0.0045513764595292,120.00482238833472,645.1748115901654,15.288,0,10.395546236030311,0.0954956103258803,-2.4645170319006733e-07,0.0297860905172947,4.549176354197126e-05,-0.002656080147908,10.454698814086278,18.610663915922387,32.48860082645559,19.24007572490275
1.06,31.22218056096828,131.01046480159596,21.80302729128168,-10.313880788164584,-0.0003395281285157,26.246623454917582,0.0017922350642169,5.708884380278887,308.17968365593924,32.75310187784076,14.587539188081568,72.37854088601723,0.0046375612226291,120.00491366169209,655.6999985061585,15.288,0,10.421482146733732,0.0962732494453197,-2.5788765624426546e-07,0.0306081727108319,4.544529113036004e-05,-0.0027515171031061,10.313880793692675,18.435616154850845,32.75304854488705,26.86031658159912
1.07,31.222179911412088,131.0104661347683,22.12884447012816,-10.18961863218544,-0.0003029561129689,30.927707611874546,0.001803728327625,5.745316808543072,348.5093681440308,32.969178476729546,14.701611384829746,72.39629332794179,0.0047239522153035,120.00500515540494,664.3592259872078,15.288,0,10.447287495173208,0.0969087332627851,-2.696097226684558e-07,0.0314391692273812,4.540071745439859e-05,-0.0028447753300351,10.189618636641576,18.28873946751761,32.969130888494604,31.45682384808686
1.08,31.222179256304777,131.01046747930596,22.45706671701336,-10.06376515405172,-0.0002665657255826,20.751252009114257,0.0018153479467853,5.782770230205013,261.00157857466235,33.19309294179111,14.818001706550552,72.4145241897501,0.0048105617402565,120.00509688238986,673.3928047979078,15.288,0,10.472964008156264,0.0975672629041692,-2.816193035930097e-07,0.0322793186659585,4.535813347034416e-05,-0.0029405405709052,10.063765157545715,18.1392363661188,33.19305106974485,21.541933403866096
1.09,31.222178595926888,131.0104688346298,22.78749613529669,-9.924006474186784,-0.0002301108805847,19.062522164805603,0.0018286907686592,5.824788814723147,246.54375332474407,33.46630763162871,14.949382054638546,72.43323840953411,0.0048974024635921,120.0051888555258,684.5021895413361,15.288,0,10.4984965004488,0.0983707127284628,-2.9391864642480813e-07,0.033127660042459,4.531766634980215e-05,-0.0030425650370122,9.924006476827866,17.965773230533614,33.46627148589611,19.93258436239362
1.1,31.2221779303556,131.01047020058067,23.120079833509,-9.79390637519226,-0.0001942029064674,38.435950525771645,0.0018407515087234,5.864807356462316,413.1890617385841,33.711653991888205,15.07206747752445,72.45244092775833,0.0049844874191343,120.00528108828962,694.5531602185944,15.288,0,10.523890068325525,0.0990922546079429,-3.065093089915671e-07,0.0339840700614912,4.527941481331501e-05,-0.0031440025392451,9.793906377098905,17.808887099178087,33.71162348656699,38.88082125593988
1.11,31.22217725918378,131.01047157799894,23.45511224978692,-9.68097980215964,-0.0001588551438916,28.07509226418826,0.0018504630379765,5.900358758922313,324.1593910376397,33.90113524421577,15.177563231032016,72.47213674954205,0.0050718300295256,120.00537359508014,702.3601733155657,15.288,0,10.549169180170404,0.0996495937812512,-3.193916790627371e-07,0.0348499441840905,4.5243449946562526e-05,-0.0032421252563901,9.680979803450528,17.68194519262693,33.90111029130812,28.688413036466276
1.12,31.22217658247688,131.01047296674963,23.792550309147128,-9.540511208014037,-0.0001233295357264,10.448026018662816,0.0018637665325133,5.9448954306571045,172.73281794065943,34.18968088257725,15.313199153000744,72.4923306607735,0.0051594440659263,120.00546639014576,714.3440176611532,15.288,0,10.574322809024522,0.1004981325998759,-3.3256742615636085e-07,0.0357249016706095,4.520989271872958e-05,-0.0033517025804827,9.540511208803744,17.506943726705174,34.18966151001908,12.020941429094835
1.13,31.22217590083224,131.01047436559992,24.13196748116708,-9.417265692403657,-8.836595372071252e-05,33.110917330216004,0.0018746842904765,5.984841133033052,367.5328077900705,34.42153320965544,15.431352011083591,72.5130279898327,0.0052473438376658,120.0055594877183,724.0417011978151,15.288,0,10.5993342207581,0.1011800335556411,-3.460396153706421e-07,0.0366070937674664,4.517887643480669e-05,-0.0034576472770011,9.417265692814524,17.362046179804725,34.42151932916389,33.647454188251515
1.14,31.222175213583263,131.0104757759258,24.4738467246864,-9.306181675008082,-5.37285823623523e-05,18.221938087446684,0.0018838061621872,6.021471377273698,239.69531773195544,34.61168597431958,15.53669887765267,72.53423332541094,0.0053355438811902,120.00565290362064,732.0393151306707,15.288,0,10.624236869563823,0.1017393687298031,-3.598074109307621e-07,0.0374987700677276,4.5150482000781606e-05,-0.0035613178911237,9.306181675161824,17.238766508089025,34.611677534653595,19.191069505340035
1.15,31.222174521222648,131.01047719671047,24.81783773129209,-9.168036567304714,-1.923473633380456e-05,17.946181510911828,0.0018966077008791,6.067599947078324,237.41251153546767,34.9051694350884,15.673300697501716,72.55595120101731,0.0054240591440762,120.00574665285032,744.4817349190714,15.288,0,10.648984032526624,0.1026024473975852,-3.7387357097934244e-07,0.038398041237432,4.512484406726381e-05,-0.0036775233107859,9.168036567324735,17.06752364583872,34.905166413703085,18.944160143366062
1.16,31.222173823889328,131.01047862766728,25.16384316346345,-9.061920040320077,1.4899960018028392e-05,47.36462471010881,0.0019047602934609,6.103603290125206,490.0437743845894,35.081190775387306,15.774055910546627,72.57818666044288,0.0055129051483705,120.00584075137844,751.9842849313997,15.288,0,10.673583779906368,0.1031202582371135,-3.882394488057951e-07,0.0393047029957857,4.510206935791174e-05,-0.0037832150099179,9.061920040332224,16.95345073580018,35.08119311586755,47.756273417016
1.17,31.22217312071285,131.01048007059316,25.512496415525835,-8.942342769539813,4.8823241497130246e-05,8.173834518566402,0.0019146908245859,6.144759377776705,153.70937929486794,35.31082608284263,15.890972415714137,72.60094406962065,0.0056020976561101,120.00593521650556,761.83570471997,15.288,0,10.698085742417428,0.1037956737168474,-4.029032806589434e-07,0.0402216439280342,4.508227826998092e-05,-0.0038966852600706,8.942342769671985,16.8154766536069,35.31083375197947,10.225929894817554
1.18,31.222172412847712,131.01048152310514,25.862967478264075,-8.80491844171744,8.228021827905243e-05,22.88208581474037,0.0019271422277681,6.193012870236398,280.02501822196746,35.615066931229165,16.030232774545496,72.62422815066577,0.0056916530149332,120.00603006395552,774.9942422158117,15.288,0,10.722436039989356,0.1046903994558935,-4.178701206346554e-07,0.0411446318145579,4.506558626965146e-05,-0.0040203138520432,8.804918442098906,16.645174503151065,35.615079855775626,23.7053425066573
1.19,31.222171699777448,131.0104829862695,26.21563350547624,-8.710583179554332,0.0001158821741014,40.17066334964114,0.0019330635673702,6.22617873510295,428.4078130529292,35.749499361298206,16.11801487296666,72.6480437718402,0.0057815880885062,120.00612531178167,780.829409278442,15.288,0,10.746678306920522,0.1050859814855128,-4.331386520093929e-07,0.0420758973977159,4.50521176577288e-05,-0.004126688162882,8.710583180319217,16.55313899489738,35.74951756402755,40.65030749365107
1.2,31.222170981063528,131.0104844609917,26.57081878338444,-8.58390280371566,0.0001488575536714,3.8750258991315456,0.0019436600464679,6.271909487167314,117.1843741360236,36.01769665241537,16.246036646262805,72.67239496538289,0.0058719199350629,120.00622097814733,792.5620769647445,15.288,0,10.770815596713444,0.1058747742774687,-4.487083728373165e-07,0.0430166301895141,4.5042024467012977e-05,-0.0042504587398757,8.58390280499667,16.402349364558248,36.01772003490522,7.372426880747883
1.21,31.222170257856696,131.01048594489643,26.927692122893244,-8.46024744450422,0.0001815083645414,32.17257492778116,0.0019536882846426,6.317240325593493,359.92343213200894,36.27788738841704,16.371380142667714,72.69728658865034,0.0059626664266863,120.006317080345,804.0267619335376,15.288,0,10.794807149808294,0.1066400398954603,-4.645844208982085e-07,0.0439626863198784,4.50353748214581e-05,-0.0043751687139529,8.460247446437126,16.256965330894126,36.277915899684274,32.78691974906908
1.22,31.222169529287807,131.0104874397782,27.286890198071024,-8.36557919310133,0.0002145639228251,23.19841268655855,0.001959046134676,6.35163707048148,283.0687504825761,36.416759134599126,16.460098652693066,72.72272291851188,0.0060538457200435,120.00641363812916,810.1662170324543,15.288,0,10.818702347501848,0.1070486919018627,-4.807635691635376e-07,0.0449174913772203,4.50323534092542e-05,-0.0044871480183364,8.365579195833353,16.165338332288705,36.41679283822131,24.052227516154446
