Time,Latitude,Longitude,Altitude,Angle of Attack,Angle of Sideslip,X-Acceleration,Y-Acceleration,Z-Acceleration,Thrust,True Velocity,Ground Velocity,Pitch,Roll,Yaw,Dynamic Pressure,cp,parachute_deploy_gain,Wind Speed,Mach,omega_x,omega_y,omega_z,Cmq,Angle of Attack(total),Angle of Attack(gust),True Velocity(gust),Acceleration
0.0,31.222186000000004,131.010384,3.000000003643237,0.0,0.0,0.0,0.0,0.0,2.2828121974499247,0.0,0.0,69.99999999623421,0.0,113.69999999388332,0.0,15.288,0.0,0.0,0.0,0.0,0.0,0.0,-0.0,0.0,90.0,0.0,0.0
0.01,31.22218600000153,131.01038399999584,2.99999882256592,0.0,0.0,0.0,0.0,0.0,34.24218696174923,7.502283530665459e-11,7.190531319924593e-11,69.99999999623329,-4.83564628150269e-13,113.69999999388072,3.446445726795683e-21,15.288,0.0,0.0,2.204725565824978e-13,-3.659182332138578e-19,7.589415207398531e-19,4.811147140404426e-19,-1.5108918610345807e-31,0.0,89.9999999995224,7.502283530665459e-11,0.0
0.02,31.22218600000288,131.01038399999217,2.999997775701936,0.0,0.0,0.0,0.0,0.0,25.871876237766408,1.5320717031631675e-10,1.4674636035870463e-10,69.99999999623222,-9.67129256300373e-13,113.69999999387804,1.4372842949972735e-20,15.288,0.0,0.0,4.5023593667086093e-13,-7.284483346386986e-19,1.5178830414797062e-18,9.757819552369542e-19,-6.170906918166791e-31,0.0,89.99999999902465,1.5320717031631675e-10,0.0
0.03,31.22218599928065,131.01038400193067,3.000201659671132,18.81500467334555,-0.00012974450181,11.96616230539064,-1.8916256735984712e-05,3.349833086198469,180.34219359854663,0.0882870268161719,0.0553390044312322,69.99999999799445,-4.212591857125379e-12,113.69999999488518,0.0047728553458352,15.288,0.0,0.0,0.0002594525584132,3.2187251995663407e-17,-7.20264389268894e-10,1.2365134327422308e-11,1.6874092354518158e-13,18.815004673776716,89.46786891739345,0.0882666465974854,12.426199017587786
0.04,31.22218599548236,131.0103840121632,3.001799604587872,9.46752327608497,-4.6177622759613696e-05,55.21900012092241,3.931876292165237e-06,3.349616504302861,548.6359724538078,0.3767519978512604,0.1853356633749705,70.00000000507204,-2.4624598767003407e-11,113.70000000019972,0.086915163246288,15.288,0.0,0.0,0.0011071759353184,1.6174128009138757e-15,-1.3693172015529268e-08,2.7753303060112748e-11,1.3689612277852356e-11,9.467523276196548,87.63554493451223,0.3767447442872393,55.32050167054111
0.05,31.222185984749512,131.01038404118162,3.00777936418888,5.376730308971262,-2.257790939128127e-06,80.28807156553681,5.266841443842784e-05,3.348887800834877,761.6984298824644,1.018787885905993,0.4366201147110198,70.00000000894464,-1.1355399380652658e-10,113.70000001523856,0.635552918586145,15.288,0.0,0.0,0.0029939522895272,1.6418815498809788e-14,-9.32122351075408e-08,4.303264669380585e-11,2.5199270302492604e-10,5.3767303089717045,83.57022052969386,1.0187875312530217,80.35788377762394
0.06,31.22218596447235,131.01038409608267,3.0201664202003013,4.296730121134882,2.4863835723705905e-05,60.21296515808257,0.0001057204249726,3.347700952379021,590.4875390737208,1.721098934225416,0.7081674028809783,69.99999995523842,-3.0560354507026086e-10,113.70000004366592,1.8138247671743823,15.288,0.0,0.0,0.0050578622752421,8.328976953118383e-14,-3.2824985336199985e-07,5.923438275930214e-11,1.4991363363716091e-09,4.296730121206683,79.20467073327266,1.7211028398275985,60.305955550063224
0.07,31.22218593493329,131.01038417609837,3.038741944736831,3.8204913578752526,4.8016684030909405e-05,91.4060317508128,0.0001597686613101,3.346072557365335,855.2937749779139,2.4375792548422868,0.9844712334613328,69.99999973536046,-5.939103491363046e-10,113.7000000850886,3.6383156301599167,15.288,0.0,0.0,0.007163413150771,2.709313825263564e-13,-7.906546256197275e-07,7.920022733617308e-11,5.114174483651565e-09,3.820491358176508,74.87999294483174,2.437586797285377,91.46725557277466
0.08,31.222185894468456,131.01038428575305,3.0647976109320942,3.588632851766762,7.220043782492885e-05,19.18449428359557,0.0002119618497595,3.3440615022685813,241.2171988638848,3.1292508166901074,1.2522236515868983,69.99999919480445,-9.914748373602156e-10,113.7000001418522,5.996012698481753,15.288,0.0,0.0,0.0091960591623389,6.80386533246681e-13,-1.5973238302190878e-06,1.0839624626357699e-10,1.3263625118823921e-08,3.58863285249208,70.86684630658345,3.1292621579083604,19.473766155861934
0.09,31.22218584634549,131.01038441616095,3.0957981580345013,3.551302481506045,9.685468678862004e-05,57.102946699906326,0.0002554087225869,3.341892818148368,563.0937377043176,3.701810007254615,1.479132491047967,69.99999812344194,-1.4359264356978275e-09,113.7000002093888,8.390904013834115,15.288,0.0,0.0,0.010878666406854,1.440096519545733e-12,-2.748643691533636e-06,1.5214952332699618e-10,2.6999776649034504e-08,3.5513024828250237,67.68737872952666,3.701825221153239,57.20065357568538
0.1,31.222185790329306,131.01038456796124,3.1319266121977414,3.608446747536112,0.0001234669721807,54.26147302645416,0.0002914860332524,3.3396271157106168,538.7437595981919,4.174070299823608,1.6716491241860567,69.9999963052332,-1.902380107712657e-09,113.70000028805804,10.668380938744466,15.288,0.0,0.0,0.0122665227999911,2.687800116751415e-12,-4.315796035622946e-06,2.1749089204950437e-10,4.7802076800548326e-08,3.608446749645647,65.17160335282355,4.174089693970246,54.36414778470795
0.11,31.222185727066616,131.0103847393952,3.172681775073216,3.633547373470009,0.0001485939126744,42.987553988990406,0.0003293995000288,3.337005588796181,442.8656393052949,4.672024955140527,1.8729475711242067,69.99999349387662,-2.3433348587116544e-09,113.70000037699285,13.365573690709628,15.288,0.0,0.0,0.0137298902182575,4.5789425819531184e-12,-6.340230783164189e-06,3.1157625832417107e-10,7.860218435507205e-08,3.6335473765043056,62.62546922225161,4.672048296217748,43.116880735560244
0.12,31.22218565692512,131.0103849294629,3.2177790417108385,3.650108937861461,0.0001727442530266,46.86777100765684,0.000367618259785,3.334068179146888,475.58594813540446,5.17479364099247,2.0758708919414386,69.99998941286465,-2.702771525550512e-09,113.70000047573096,16.396890189902592,15.288,0.0,0.0,0.0152074069417046,7.288473386564583e-12,-8.86736416607888e-06,4.42271554299792e-10,1.217615295152289e-07,3.6501089419435786,60.16906436414164,5.174820775596283,46.986210423745625
0.13,31.222185580265183,131.0103851371844,3.2669395832841857,3.7280113734654137,0.0001995014041665,51.64515456841877,0.0003986198234033,3.3311573548369657,515.9156326236895,5.579364582999854,2.2451120211463422,69.99998375846928,-2.9114380666036422e-09,113.70000058383452,19.060875702782603,15.288,0.0,0.0,0.0163963474924215,1.100846422415094e-11,-1.1941028436408576e-05,6.179653149059831e-10,1.7678562106638216e-07,3.728011378795934,58.279338776943774,5.579395920607139,51.75247433579817
0.14,31.22218549718016,131.01038536230575,3.320091807147376,3.768719651034081,0.0002242721760019,48.1660778383537,0.0004326225136175,3.32784677779744,486.2390860568404,6.025734265159953,2.428648685938864,69.99997621008868,-2.890941335368725e-09,113.70000070125378,22.232643351545065,15.288,0.0,0.0,0.0177081261985351,1.5941871344608664e-11,-1.560901486259027e-05,8.477542742712431e-10,2.495765160917323e-07,3.7687196576976176,56.27980129251342,6.025769493750979,48.280903250602165
0.15,31.22218540777004,131.01038560455507,3.377159065217065,3.821894709649632,0.000249725644238,46.56959330999435,0.0004643042952466,3.324387732286376,472.54218587214,6.441023336496372,2.6014999612196745,69.99996641132823,-2.546763407193136e-09,113.70000082794672,25.402620271850456,15.288,0.0,0.0,0.0189285691155931,2.2314099732464315e-11,-1.992367942778425e-05,1.1417519574710292e-09,3.4051816697623295e-07,3.821894717796148,54.501255563441134,6.441062563308839,46.68809885900716
0.16,31.22218531193176,131.01038586421257,3.4382223512025254,3.8463320955387794,0.0002733212404609,36.974247749122085,0.0004987816203583,3.3205066466509234,391.1218908297564,6.895451966878468,2.7877331692857847,69.99995397923414,-1.77088415515292e-09,113.70000096417354,29.113317717489338,15.288,0.0,0.0,0.0202640360420561,3.0367358387834494e-11,-2.4945905791363795e-05,1.5114297685186711e-09,4.5643121540033697e-07,3.846332105235269,52.641145594326446,6.895494900078523,37.12304892183151
0.17,31.222185210004127,131.010386140357,3.503019838429153,3.8860314262554336,0.000297865039677,46.520531453299206,0.0005306403365217,3.31650761597812,471.78125980632376,7.314788342774694,2.9619016331667103,69.99993849340957,-4.3039914767238207e-10,113.70000110959404,32.761746921137856,15.288,0.0,0.0,0.0214963781445172,4.0366633128431416e-11,-3.0713078585132897e-05,1.96747427715988e-09,5.961228045584824e-07,3.886031437653654,51.00464968745696,7.314835131305714,46.63860064094784
0.18,31.22218510147516,131.01038643438045,3.571950002194137,3.9107265153396016,0.0003214293682635,38.895647526122765,0.0005639254295027,3.312149448254175,407.10156721191447,7.754626295791602,3.1430587898572058,69.9999195084231,1.6149322372810674e-09,113.70000126508234,36.81988229018681,15.288,0.0,0.0,0.0227889722876034,5.2593391349219385e-11,-3.731786027786564e-05,2.525509173087448e-09,7.6786585232224e-07,3.9107265285284982,49.36615848311875,7.754676785798701,39.036415444581515
0.19,31.222184986476247,131.0103867459258,3.644912152926752,3.920599115663931,0.0003437679584038,43.86258669386953,0.0005989384366483,3.307389681300437,448.9531328318269,8.219206165926856,3.332657190859447,69.99989653019398,4.538529095696477e-09,113.70000143063515,41.36350714675367,15.288,0.0,0.0,0.02415428010977,6.735860419174937e-11,-4.481243905342629e-05,3.199401151670645e-09,9.773118416308382e-07,3.92059913071168,47.71893898797248,8.21926016487149,43.987104227715655
0.2,31.222184864792144,131.01038707557822,3.722074668489528,3.943376465171875,0.000367328732016,40.28070981710589,0.0006315894240138,3.30251450988504,418.51563019916136,8.65238089736321,3.511445117640573,69.99986902534273,8.534090245934178e-09,113.7000016067622,45.83799876721736,15.288,0.0,0.0,0.025427299120469,8.499785987217288e-11,-5.328041996372527e-05,4.006766070954748e-09,1.2232205148646746e-06,3.9433764822533854,46.2587826635041,8.652438597225508,40.41586552155969
0.21,31.22218473678744,131.01038742234647,3.803156063113743,3.9664546506877016,0.000390962054969,38.67679184347145,0.0006636984664108,3.297405915846789,404.8187610144644,9.079179692250786,3.688002035198235,69.99983642883521,1.3827831253856693e-08,113.70000179318536,50.47126980736161,15.288,0.0,0.0,0.0266815841422463,1.0586558589671407e-10,-6.275155280099118e-05,4.961340042512481e-09,1.5117124669161171e-06,3.9664546699249135,44.88773728276958,9.079241104426773,38.817098210937615
0.22,31.2221846022986,131.01038778667507,3.8882846911135607,3.956175711337521,0.0004112685792646,46.713636108302936,0.0007011135033803,3.291572407481395,472.5421858721365,9.580256326712124,3.889976788904857,69.99979815126248,2.0662823443484168e-08,113.70000199039316,56.195522894218605,15.288,0.0,0.0,0.0281541581291438,1.3033127211465288e-10,-7.330053770532661e-05,6.0817207473359025e-09,1.8632831045819008e-06,3.956175732680424,43.35679625546934,9.580320928629488,46.8294591882524
0.23,31.222184460898035,131.01038816972698,3.977794004014759,3.9879066397329104,0.0004360962274406,38.89105719050748,0.0007308686121188,3.286096544282012,406.3406421461021,9.977039034039262,4.056142701351626,69.99975353557706,2.9316661139418326e-08,113.70000219928508,60.9462612310605,15.288,0.0,0.0,0.0293202403623685,1.5880617816859538e-10,-8.505067486192354e-05,7.393319440773217e-09,2.2514912291167663e-06,3.987906663538912,42.20670487756048,9.97710753587448,39.0296395118868
0.24,31.222184313516166,131.01038856897196,4.070963590490852,4.003523997322975,0.000459165577055,40.0792299321398,0.0007630441688766,3.280134925833028,416.2328240017114,10.408422364424831,4.234121060914368,69.99970190737699,4.010976417051318e-08,113.70000241888,66.32994780718496,15.288,0.0,0.0,0.030588009649109,1.91711512587616e-10,-9.795845222523724e-05,8.904557280909524e-09,2.7052895870113487e-06,4.003524023611085,41.011349410369874,10.408494489985014,40.21323112692186
0.25,31.22218416001652,131.01038898478134,4.167901030441617,4.0261356185860135,0.0004830526730531,41.17760020658354,0.0007934613160587,3.2740610008587527,425.36408079150686,10.816813039390448,4.4041629376391525,69.99964258149416,5.3372865854010094e-08,113.70000264972064,71.63651430352668,15.288,0.0,0.0,0.0317882126436337,2.2947426169209347e-10,-0.0001121037688082,1.0637152702866709e-08,3.217380562698304e-06,4.026135647516394,39.93186687113378,10.816888917126896,41.30755663120434
0.26,31.222184000702686,131.0103894163294,4.26837241014618,4.053359329950934,0.000507503069958,44.80261175215926,0.0008224724146494,3.2678597736729302,455.8015834241788,11.207047269494833,4.567925492611352,69.99957484039399,6.947299261165984e-08,113.70000289176392,76.89781807056055,15.288,0.0,0.0,0.0329350617559806,2.7254099134167665e-10,-0.0001275114371842,1.260720913253598e-08,3.7915697709142366e-06,4.053359361668992,38.945390435244384,11.207126987890645,44.921630958721536
0.27,31.22218383516388,131.01038986473338,4.372698316214008,4.0614460923241,0.0005296455772492,41.029837477288126,0.0008548809954683,3.2610328932384265,423.84219965987256,11.645685385842508,4.748226940060522,69.99949794024376,8.879821051920497e-08,113.70000314600205,83.0342688744587,15.288,0.0,0.0,0.0342241635563461,3.2137296827284217e-10,-0.0001442952656441,1.4842505534226832e-08,4.458527942364847e-06,4.061446126801262,37.8838346421185,11.645768582375233,41.15922617924542
0.28,31.222183663504484,131.01039032970942,4.48079961904222,4.081133040992532,0.0005533279247169,47.27661484082626,0.0008845140695959,3.254218495915602,476.3468732012221,12.047344998676092,4.915789434712848,69.99941106884992,1.1178948978424788e-07,113.70000341275257,88.85982357848233,15.288,0.0,0.0,0.0354045979054623,3.764736350660473e-10,-0.0001625146963723,1.7365685655384934e-08,5.194620655212288e-06,4.081133078439725,36.956255322213885,12.047431915223257,47.38848224631549
0.29,31.22218348566054,131.0103908114315,4.592727908358551,4.1001100265020245,0.0005770279952742,37.989969791857405,0.0009138463939581,3.247164755122801,397.97031042211177,12.446314684600782,5.082367374004485,69.99931338876085,1.3891902435864665e-07,113.70000369260468,94.8417675268915,15.288,0.0,0.0,0.0365771315767517,4.3836067907166327e-10,-0.0001822432988888,2.0202163500922312e-08,6.018074062137429e-06,4.100110067036654,36.07377590258778,12.446405323946324,38.12849176886316
0.3,31.222183301933686,131.01039130907952,4.708251093558373,4.112858061667493,0.0005998635114143,35.655053282557844,0.000944131403186,3.2397207148238625,378.1859457108711,12.860033399289696,5.253940723820665,69.99920403105713,1.707002607527005e-07,113.7000039856728,101.2505662360602,15.288,0.0,0.0,0.03779301412572,5.075709863465428e-10,-0.0002035013069687,2.3370674033523645e-08,6.94335970778e-06,4.112858105337573,35.19685285507256,12.860127625629724,35.80193592228613
0.31,31.222183112488807,131.0103918222051,4.827243246502713,4.136140889545823,0.0006242383343011,37.56633644061071,0.0009716215464757,3.232339252743767,394.1656220930212,13.2364445751808,5.4126574282679245,69.99908210036875,2.0768081583188525e-07,113.7000042923011,107.26326115439352,15.288,0.0,0.0,0.0388992619788015,5.846561731689753e-10,-0.0002263323252403,2.6893437641668458e-08,7.948283231812338e-06,4.1361409365698805,34.43286455705216,13.236542630309057,37.70514091683033
0.32,31.22218291741533,131.01039235056504,4.949637017503345,4.1622282001352975,0.0006491019906456,40.83513712643371,0.0009979686925508,3.224840963348891,421.55939346242695,13.59846554462374,5.566374262777002,69.99894668612772,2.504388718903276e-07,113.70000461297312,113.2095365840355,15.288,0.0,0.0,0.0399632243410653,6.701756367872645e-10,-0.00025078340164,3.0793566854276295e-08,9.047716714467492e-06,4.16222825066026,33.72644865222576,13.598567505326,40.96227562489027
0.33,31.222182716732533,131.01039289410716,5.075419569102976,4.187801887681037,0.0006739743721461,40.48743503284469,0.0010239291638211,3.217136801802925,418.5156301991682,13.956637761217308,5.718704299733134,69.99879684673242,2.995902922462564e-07,113.70000494831164,119.25032483364384,15.288,0.0,0.0,0.0410158804634189,7.647061680070125e-10,-0.0002769136723495,3.509664608790402e-08,1.0253455741189656e-05,4.187801941818244,33.053267359159875,13.956743628864118,40.61505097607
0.34,31.222182510255863,131.01039345333336,5.204736257784645,4.19642921746386,0.0006961879027693,31.814592723444047,0.0010535137542081,3.208669900766693,345.46563688075645,14.367047160772364,5.88887983533068,69.99863160305904,3.557915789971256e-07,113.70000529927128,126.36523219087664,15.288,0.0,0.0,0.042222056531773,8.688448410811866e-10,-0.0003048202762282,3.9835373705550826e-08,1.1618525957862828e-05,4.196429275109305,32.30947868183619,14.367156517712404,31.97598901989736
0.35,31.222182298183583,131.0103940277045,5.337435501771672,4.210915783240843,0.0007193441544952,34.813487415034444,0.0010813034848195,3.200164272309822,370.5765700527033,14.754132934586384,6.050986755458457,69.99844991734221,4.1975736284587617e-07,113.70000566632532,133.26448209504355,15.288,0.0,0.0,0.0433596939127697,9.832256819293898e-10,-0.0003345386312107,4.503361101379695e-08,1.309465610343774e-05,4.210915844572415,31.63649055965014,14.75424592890194,34.96026256388454
0.36,31.222182080444604,131.0103946174141,5.4735747500461605,4.22903876037745,0.0007431682866607,39.2632255716727,0.0011077666085529,3.1915717453569297,407.8625232777193,15.124417129017054,6.2072589919251575,69.99825073022951,4.922382611919288e-07,113.70000605036684,140.03566173682628,15.288,0.0,0.0,0.0444479595865755,1.1084921261805627e-09,-0.0003661511460057,5.0723697896912267e-08,1.4691545926915382e-05,4.229038825557203,31.017264542603208,15.124533865618538,39.39272792946638
0.37,31.22218185710795,131.01039522227452,5.613102797925907,4.249164960780052,0.0007674149135003,37.28328237034959,0.001133274451316,3.1828514669894137,391.1218908297666,15.483077353331511,6.359470679857624,69.99803294268581,5.740349991123437e-07,113.70000645214331,146.75405277514704,15.288,0.0,0.0,0.0455020695186381,1.245311285088233e-09,-0.0003997125883071,5.6934243389647934e-08,1.641828325195534e-05,4.2491650299519,30.439178816713017,15.483197898584232,37.418894813348615
0.38,31.2221816281124,131.0103958424523,5.756069531572451,4.260095806433531,0.0007900626414612,38.9278000801764,0.0011607546399008,3.1735466295306622,404.8187610144602,15.87126705947922,6.521735074464384,69.99779542676283,6.659911329739736e-07,113.70000687263192,154.20298254405043,15.288,0.0,0.0,0.0466429667223463,1.3943646956867835e-09,-0.0004353006984059,6.369875435270817e-08,1.8328108041903096e-05,4.260095879559656,29.83470194713067,15.87139116222873,39.05694584372078
0.39,31.22218139339905,131.0103964781077,5.9025231349944285,4.274091258047817,0.0008133283308351,33.320076729592266,0.0011870382950339,3.164143363712209,357.64062493382744,16.24457853509073,6.678818328235205,69.9975369905506,7.690136753559805e-07,113.70000731287368,161.54010621938565,15.288,0.0,0.0,0.0477401448128051,1.5563705124515804e-09,-0.0004730068442167,7.105463478762673e-08,2.0383860516746246e-05,4.274091335289374,29.274934656826048,16.244706292406182,33.46997636540994
0.4,31.22218115316572,131.01039712870306,6.0523126585892895,4.286421841403391,0.0008363022448449,31.88018820767003,0.0012133780841982,3.1544430614236454,345.465636880754,16.62063299903514,6.836764518435374,69.99725641601981,8.840594270905819e-07,113.70000777359816,169.10340080049767,15.288,0.0,0.0,0.0488453895716005,1.7320643186450851e-09,-0.0005128553637434,7.9027539265021e-08,2.2612406375611563e-05,4.286421922834417,28.730746964325096,16.620764365084565,32.03586915718869
0.41,31.22218090752676,131.01039779392735,6.205351877049411,4.30025870409831,0.0008595777771371,35.882550741685804,0.0012389121673015,3.1445895889870297,378.94687077668647,16.987310563534386,6.99141560549392,69.9969524610574,1.0121301778427253e-06,113.70000825570062,176.64448930727934,15.288,0.0,0.0,0.0499230826371405,1.922193031274436e-09,-0.0005548883906878,8.764667734700782e-08,2.5005077415911235e-05,4.300258789847355,28.21875643368965,16.987445585695873,36.020076248499606
0.42,31.222180656535848,131.0103984736348,6.36160173428776,4.322008670726048,0.0008844838439129,40.34064925656127,0.001261804338223,3.134918999355981,416.2328240017114,17.318628721060172,7.133856886815013,69.99662385300175,1.154276942054023e-06,113.70000876021427,183.59942989625057,15.288,0.0,0.0,0.0508968652507098,2.1275184665783874e-09,-0.0005991661829955,9.694534598491077e-08,2.752657757470936e-05,4.322008761057615,27.772396468009568,17.318767655457478,40.462275036947325
0.43,31.222180400205527,131.0103991677914,6.521055075967404,4.339436441324956,0.0009085827200945,35.541853595187746,0.0012854696362701,3.124839917627212,375.9031395134336,17.662848429084132,7.280642039343927,69.99626930133451,1.3115939750280808e-06,113.70000928827632,190.96736675963504,15.288,0.0,0.0,0.0519085689713619,2.3488101247838237e-09,-0.0006457514522491,1.0695800287133593e-07,3.0255957891170616e-05,4.339436536261635,27.322335771349252,17.662991148924057,35.67895714766603
0.44,31.22218013836212,131.0103998768696,6.683849332059896,4.342209064313268,0.0009296474314902,32.82948243168077,0.0013129688908547,3.113754688841357,353.0750125389216,18.063580761318697,7.446730341918701,69.99588746395321,1.4852372182848018e-06,113.7000098413532,199.7278270846888,15.288,0.0,0.0,0.0530863610987301,2.586862292117705e-09,-0.0006947575786514,1.1773083546077225e-07,3.329010177793299e-05,4.342209163639375,26.81344244367223,18.06372678999575,32.9768158972058
0.45,31.22217987077456,131.0104006014978,6.850166573233225,4.3420317510315165,0.0009500780330031,38.11022602597878,0.001341042003417,3.1022288449712887,397.2093853562869,18.47486275310604,7.616350301328129,69.99547690348253,1.6764536248320808e-06,113.70001042108892,208.92306716049887,15.288,0.0,0.0,0.0542951637545535,2.842521175226318e-09,-0.0007463379956615,1.2932090054593452e-07,3.657529369088674e-05,4.342031854775571,26.30944884471334,18.47501199101448,38.23628058998621
0.46,31.22217959739673,131.01040134180155,7.020045503401754,4.351169003849846,0.0009725797783515,44.3937050866137,0.0013660055515545,3.09098240974522,449.7140588976434,18.844323061800488,7.771531995684422,69.99503610583268,1.8865779683531e-06,113.70001102895836,217.3591612614144,15.288,0.0,0.0,0.0553810645782081,3.1166808800591503e-09,-0.000800596194505,1.417768495237597e-07,4.001824400409673e-05,4.351169112337076,25.873596578896564,18.844475834274814,44.50118229261506
0.47,31.22217931813738,131.01040209802923,7.193559875579052,4.358630093683735,0.0009947969928181,30.22514089990685,0.0013910994973101,3.079396422776949,331.0078106302534,19.2180591098146,7.9280875671397615,69.99456352718363,2.1170044481277104e-06,113.70001166656292,226.0625808853568,15.288,0.0,0.0,0.0564795377574197,3.4102493884459798e-09,-0.0008576351980594,1.551487523304888e-07,4.3718862242359527e-05,4.35863020698899,25.44665981168229,19.218215372160817,30.381603425148434
0.48,31.22217903348153,131.01040286886197,7.370336324605091,4.365514409145237,0.001016880998596,29.779838936311712,0.001416009414045,3.067527859335786,327.2031223011574,19.5915905767454,8.084483592791102,69.99405758812365,2.369198154608765e-06,113.70001233476164,234.93171707892955,15.288,0.0,0.0,0.057577416115756,3.7241711041759195e-09,-0.0009173883913609,1.6944871263079066e-07,4.767297940601472e-05,4.365514527349481,25.03354780044292,19.59175030803913,29.937410312943754
0.49,31.22217874361868,131.01040365378466,7.5502307795521535,4.3786401372577615,0.0010404145545081,37.2489281064929,0.0014385799934191,3.0558405437943126,389.60000969812296,19.93403005898306,8.23012235628909,69.99351671352461,2.644660619562788e-06,113.700013034871,243.21198709852868,15.288,0.0,0.0,0.0585839249886784,4.059374595909599e-09,-0.0009798792959512,1.8470833984680338e-07,5.180951737438081e-05,4.378640260624215,24.667474291142685,19.934193486919103,37.37406598941686
0.5,31.22217844858332,131.0104044527036,7.733219389747018,4.395964232612752,-7.053032251252032,38.31415660401241,0.4606514451873264,3.044183971847685,397.97031042210494,20.404466433508563,8.366361539570502,69.99293932307316,2.9449363413826395e-06,113.70001376847225,254.8224066070132,15.288,0.0,2.5051569778986185,0.059966609611995,4.416751211901175e-09,-0.0010494275467989,1.0298120881856823e-05,5.679523858235893e-05,8.304939414819001,17.11658472121447,19.29937462001984,38.437661896702245
0.51,31.22217814829171,131.01040526530022,7.9192447236847805,4.407684861063262,-6.950055576869001,29.403965145174915,0.4717037926190216,3.031949711589911,323.3984349720841,20.745241848466936,8.512005404887763,69.99232137461429,-5.809511568372987e-05,113.69994922892052,263.40036630132806,15.288,0.0,2.515098370700967,0.060968241139893,4.776545918472005e-09,-0.0011175616514645,-9.92937351712812e-05,6.14916945361487e-05,8.224082976527388,16.889084071367723,19.656204947869924,29.563632892123433
0.52,31.22217784250273,131.01040609151516,8.108318836822757,4.416583222637358,-6.848369602968363,35.241185406901984,0.4831795305123467,3.019315456252859,372.0984511843415,21.09482582658968,8.66048590675967,69.99166365499985,-0.0002934981466078,113.69969913350158,272.34748763869345,15.288,0.0,2.525004754051215,0.0619957665659803,5.0973932193920464e-09,-0.0011886186874845,-0.0002116388955603,6.650236364244387e-05,8.14330128132291,16.660598288365414,20.02164606021487,35.373590108535986
0.53,31.22217753107445,131.01040693172644,8.300553458149146,4.425618110709211,-6.7507728817673085,36.982648177861726,0.4947058451004404,3.006461200103097,386.5562464348624,21.44076756829785,8.807598082475193,69.99096444632097,-0.0007077054989927,113.69925875418105,281.34819074774214,15.288,0.0,2.534877723610573,0.0630125943992464,5.378841889663047e-09,-0.0012627321826179,-0.0003268653207408,7.180623319085235e-05,8.066490983216582,16.44073358464815,20.382810428806387,37.10794805790804
0.54,31.222177213904,131.01040778619003,8.496025757380682,4.434432521748464,-6.656520692024527,32.52834795395472,0.5063251426259076,2.9933587967895106,349.2703242098436,21.78472676752129,8.953914155421636,69.99022197104428,-0.0013052733953833,113.69862324038724,290.4420891599231,15.288,0.0,2.5447244696258844,0.0640236024448349,5.620444195543104e-09,-0.0013400201210359,-0.0004450686080069,7.742226139618948e-05,7.992801316642524,16.22805162770994,20.7414735065328,32.669710476983454
0.55,31.222176891262148,131.01040865414635,8.694523230551233,4.444266192831584,-6.56720190862618,34.452110776463144,0.5178919612736673,2.9801113514073228,365.2500005919907,22.120695863620128,9.09736216581786,69.98943441199368,-0.0020907817808935,113.69778771553852,299.4639917340987,15.288,0.0,2.5545334916308047,0.065011134830341,5.821795607771108e-09,-0.0014204571655697,-0.0005661261488985,8.333377668223796e-05,7.924205749328547,16.02599773462448,21.0913794476035,34.584638391980135
0.56,31.22217656314576,131.01040953558143,8.896045991013127,4.456006007791033,-6.483833941931815,32.18214105879768,0.5292896295579593,2.9668079823865314,346.2265619465787,22.4440532656022,9.236346108637902,69.98859993855865,-0.0030687306832907,113.6967473882424,308.2770663067636,15.288,0.0,2.5643046429485863,0.0659616089447296,5.982518588444727e-09,-0.0015041257974887,-0.0006900798923368,8.95305360209627e-05,7.862011573738315,15.836845133461845,21.427747417312148,32.32293767968285
0.57,31.222176229622487,131.01041043028923,9.100539379834704,4.465466807444724,-6.40017189108867,31.826297052489885,0.5410159556121205,2.9530859321160645,343.1828296833023,22.77547477803024,9.378009731197066,69.98771668864818,-0.0042436137037093,113.69549747357756,317.4424382246453,15.288,0.0,2.574033665075747,0.0669357895728612,6.102268577822163e-09,-0.0015910726938765,-0.000816917895496,9.610249603008136e-05,7.79868925089511,15.647715104509402,21.77222755585861,31.967586691209817
0.58,31.222175890667003,131.01041133831677,9.308020935941864,4.469917657521206,-6.3123801357902245,41.78168376722701,0.5534319200650323,2.9386666167745985,426.1250058573153,23.12930051694849,9.527304043276708,69.98678275812217,-0.0056199609097024,113.69403314765746,327.37571011936507,15.288,0.0,2.5837205672126617,0.0679758218520038,6.18071338750472e-09,-0.0016813842561869,-0.0009466859355806,0.0001031330897902,7.729512921593805,15.450489791937066,22.139758816948166,41.88855627494522
0.59,31.222175545878976,131.01041226072996,9.518798934877312,4.479574548068116,-6.234713032638652,33.943669903733145,0.5652709495937706,2.9244981128392404,360.68438819711065,23.453674789263783,9.666312711872049,69.98579613616245,-0.0072025903929433,113.69234928028324,336.61577404703974,15.288,0.0,2.5933771830870334,0.0689293050189158,6.217462151550357e-09,-0.0017753282325995,-0.0010796840529314,0.0001104204015505,7.671957848053656,15.275144399359949,22.476259949316045,34.07410962874972
0.6,31.22217519546277,131.0104131969503,9.73271271213221,4.480804930047853,-6.1481728477933695,30.20983011947386,0.5782687834252501,2.909260457052786,329.4859594986058,23.81892306116028,9.81932489978954,69.98475476012756,-0.0089963791859105,113.69044067733432,347.1746353641093,15.288,0.0,2.60299533668788,0.070002922346012,6.212182925346623e-09,-0.0018728949705437,-0.0012158137632449,0.0001183004476037,7.602663352806606,15.081585198675809,22.85502262944174,30.355098863952414
0.61,31.222174839366623,131.010414147096,9.949800319639197,4.48044578407267,-6.062267469937502,35.33360521793347,0.5915888382684403,2.8935761530792994,372.0984511843297,24.19055763580704,9.974427640830996,69.9836565024318,-0.0110063152514241,113.68830202663231,358.0852656204125,15.288,0.0,2.6125778771912,0.071095316550656,6.164530526826453e-09,-0.0019741971057062,-0.0013551496423834,0.0001266421223992,7.533291694252335,14.889806633810853,23.24007465363329,35.456824702784765
0.62,31.22217447769848,131.0104151108503,10.16997592726838,4.4921409925814295,-5.994991767736128,43.84052065991889,0.6033843647995387,2.87889649009671,442.86563930529206,24.49529528805281,10.106321248459896,69.98249916927602,-0.0132374938963252,113.68592790114064,367.1562014431345,15.288,0.0,2.622128399131508,0.0719911101031331,6.07417439610347e-09,-0.0020792925345065,-0.0014976899285992,0.0001350612861628,7.486356419470302,14.738475490571954,23.55532150394409,43.93908703449755
0.63,31.22217411027477,131.01041608869144,10.393380141075246,4.499618950839002,-5.924313100531422,25.024446849836888,0.615805864515886,2.8635457024574444,286.11251274707894,24.819412927030925,10.244792387658007,69.98128058184739,-0.0156948182000401,113.6833130784108,376.928696061495,15.288,0.0,2.631630098689845,0.0729438682403062,5.940837959176751e-09,-0.0021883402591343,-0.0016435652485881,0.0001440222679908,7.434502082876155,14.5806745240464,23.890481316885676,25.19527834720518
0.64,31.222173737662622,131.01041707905523,10.61957133821176,4.500557719067262,-5.84737229876883,24.57358093656096,0.6292218017947468,2.8472124314255285,282.30782441796754,25.17663626936117,10.39458529379702,69.97999851175051,-0.0183832331995482,113.6804522898384,387.8485491728874,15.288,0.0,2.641091927578701,0.0739939308990003,5.7643081868839795e-09,-0.0023011377622623,-0.0017924279495635,0.0001536222716814,7.374034404524818,14.409914483093988,24.25972677692753,24.745977829765184
0.65,31.22217335983952,131.01041808198266,10.848565443878748,4.510396441347786,-5.783979054204742,43.14567254188995,0.641460791469666,2.8316420256448462,436.7781447787475,25.482008107321168,10.526372406095076,69.97865072888385,-0.0213075593558397,113.67734039978144,397.3054377825509,15.288,0.0,2.650498532174002,0.0748916097434936,5.544379147270585e-09,-0.002417796582095,-0.0019443520320662,0.0001633645109052,7.330000556522909,14.26928755216774,24.57500514945293,43.24325065950047
0.66,31.222172976308176,131.01041909880715,11.080746803182212,4.517613333665788,-5.719174165686794,36.753354041082325,0.6541373235758586,2.8155378225925767,383.51251517160017,25.79875090125797,10.661969948304252,69.9772349180329,-0.0244726533735106,113.6739722370346,407.23480216771935,15.288,0.0,2.6598652410236947,0.0758227152736182,5.280847822354913e-09,-0.0025386569414216,-0.0020996986532169,0.0001736590101713,7.283538126780424,14.12635464894695,24.90187622475677,36.866843940561104
0.67,31.22217258724512,131.01042012902755,11.315976939417988,4.519027669172133,-5.649068122314642,25.41509725475844,0.66775079093337,2.7984747899466087,289.1562440103425,26.145538276730267,10.807824564956828,69.97574874116847,-0.027883727413038,113.67034224211774,418.2470551668956,15.288,0.0,2.6692007386997227,0.0768421297986291,4.973500763185117e-09,-0.0026637150037745,-0.0022583824475997,0.0001846588639388,7.229615408867145,13.972404944810176,25.25962168457282,25.57742208936602
0.68,31.222172192810447,131.0104211721875,11.55413024642457,4.521617621515436,-5.582313564663207,31.64651183657326,0.681286684886581,2.781279562619193,340.8999924858462,26.483215079843703,10.950424127564563,69.9741897157674,-0.0315459490236119,113.66644491097075,429.11055799986326,15.288,0.0,2.6784742129339927,0.0778347761216256,4.6221681757016065e-09,-0.0027929847081863,-0.0024203441679101,0.0001961165065488,7.179309924471905,13.826560809091784,25.60773394344041,31.775798636302103
0.69,31.22217179307755,131.0104222280675,11.795148486070728,4.5290648357473335,-5.523266732604659,38.888881253777946,0.6941588847771277,2.764458981042388,401.0140726853634,26.789963183582604,11.08223924149228,69.97255538064795,-0.0354644108644282,113.66227481595008,439.0985135928712,15.288,0.0,2.6877056661191467,0.0787365299235787,4.226713000866217e-09,-0.0029265118964994,-0.0025855655874301,0.0002078678107231,7.1382980132727445,13.698401861073584,25.92371357796359,38.99319395978768
0.7,31.222171387909462,131.01042329702193,12.039136892861103,4.535783491167542,-5.464975102626444,32.66974881682324,0.7072101393894465,2.7473080470862787,349.27032420985284,27.097830178373247,11.214327964743354,69.97084325462191,-0.0396441405026,113.65782659837124,449.2381099147362,15.288,0.0,2.6969018891323686,0.0796415797631466,3.787028280925069e-09,-0.0030644645125823,-0.0027541768591361,0.0002201627134041,7.097663764421374,13.572598370266606,26.240694935811508,32.79268722506839
0.71,31.222170977354143,131.01042437890135,12.286057197087224,4.53861797180376,-5.4036105506408205,26.90509183400209,0.7209522005918527,2.7293728241837414,301.33126406340574,27.425775001791127,11.353234701474582,69.96905078036563,-0.0440902855484833,113.65309477086056,460.1665833487086,15.288,0.0,2.706034381625594,0.0806056469359861,3.303022302925015e-09,-0.0032069021846716,-0.0029261735437622,0.0002331787556189,7.052441093199735,13.44076820838625,26.57823555664312,27.052785710255733
0.72,31.22217056140919,131.01042547369354,12.535910279766064,4.536887186919737,-5.338518899242272,32.86974614973336,0.7355402833697618,2.71050588334692,350.79220534145287,27.778690935769,11.50064663301525,69.96717529187373,-0.0488080882229355,113.64807374751469,472.0743366724545,15.288,0.0,2.7151270289816423,0.0816431136588966,2.774615489082888e-09,-0.0033539288145698,-0.0031016044321343,0.0002470014793589,7.001678729296471,13.301163682943711,26.9413311703871,32.98951460085505
0.73,31.222170140067,131.0104265813999,12.788701007409207,4.544498552939639,-5.285872956101913,41.49670339921538,0.7486817627253294,2.6927203387331144,422.320318528234,28.07237151997376,11.62750257595404,69.96521413336761,-0.0538029990895036,113.64275771154472,482.097081944317,15.288,0.0,2.7241841869241408,0.0825064924961185,2.2017078410301353e-09,-0.0035056632919375,-0.0032805354668424,0.000260899170928,6.966654154738663,13.19009956654926,27.243245841870877,41.59071603383281
0.74,31.222169713261493,131.01042770218305,13.044479952547256,4.548499464094369,-5.230422896989296,26.098187930571203,0.7624904861542842,2.674158705985218,294.48281347105944,28.38500115499332,11.760783949026214,69.96316455917528,-0.059080243417009,113.63714109365944,492.8825719955504,15.288,0.0,2.733188324499891,0.0834255717005193,1.584280955749473e-09,-0.003662223339549,-0.0034630265461581,0.0002755792221033,6.927383682947616,13.07348526346679,27.56454889864871,26.24591263007794
0.75,31.22216928134116,131.01042883507537,13.30297590295266,4.550040207124284,-5.173542883446607,30.41626389278177,0.7768088596758975,2.654947477332457,330.24688556441487,28.710140359205504,11.898274501408972,69.96102376777482,-0.0646450832570499,113.63121828405338,504.2262835003029,15.288,0.0,2.7421372595540454,0.0843814254315491,9.223425585168059e-10,-0.0038234730836992,-0.0036488454663551,0.0002910015482559,6.885643934241938,12.954306550861263,27.89858599447038,30.541795744638282
0.76,31.22216884419318,131.0104299803676,13.56427590075318,4.554616068249929,-5.1214277704260445,32.7177024387248,0.7906838800727032,2.6359467660776823,349.27032420986166,29.01353957202858,12.028151335108536,69.9587890420274,-0.0705027544660583,113.62498369206656,514.9266631919124,15.288,0.0,2.7510444584679687,0.0852733916563346,2.159089239385796e-10,-0.0039895955139994,-0.0038381299577378,0.0003068461160523,6.849689694122766,12.846563220344498,28.210138415195,32.83323695922686
0.77,31.22216840175697,131.0104311382085,13.828426547825885,4.559628775998525,-5.071044481939844,30.61377616140241,0.8045548454657305,2.616765137942408,331.7687666960708,29.311123828588528,12.155908836323311,69.95645749252377,-0.0766585216816841,113.618431703955,525.5304375754247,15.288,0.0,2.759910879036547,0.0861482751840068,-5.349641701371812e-10,-0.0041607310197639,-0.0040309646621185,0.0003232824605823,6.815524155305369,12.743412405390924,28.5156055743942,30.73594083718544
0.78,31.222167954091795,131.01043230842043,14.095381486034864,4.5612266077447154,-5.018077422474804,25.202624237175016,0.8191157010084079,2.596754589866871,286.8734378128899,29.627551993125685,12.290059388458031,69.95402618098166,-0.0831176634443647,113.61155669001796,536.9246443161712,15.288,0.0,2.7687147073676925,0.0870785509458536,-1.3301953690487e-09,-0.0043369247473005,-0.0042273254116358,0.000340601497962,6.777362645143861,12.635080948312403,28.84032155811976,25.349287038729013
0.79,31.22216750127997,131.0104334907627,14.36507647556052,4.560729497927976,-4.96405337048211,35.68036245478114,0.8341623429629381,2.5760942000686264,373.6203323159534,29.95491127723395,12.427873445370665,69.95149221407662,-0.0898855405525697,113.60435292353074,548.8411014896972,15.288,0.0,2.777471200558471,0.088040962862881,-2.1697036603422868e-09,-0.0045182185491544,-0.004427185708523,0.0003587508360457,6.737209130739049,12.524888433816146,29.17613474329877,35.782961770186105
0.8,31.222167043100303,131.01043468582327,14.637683111314413,4.56570857792842,-4.917110104511004,36.14809064245507,0.8482738323017078,2.5561170213147903,377.42502064505743,30.243790329358912,12.552291180484774,69.94885245604111,-0.0969676315638864,113.59681456300812,559.463321679702,15.288,0.0,2.786189910986207,0.0888902853431746,-3.05337327998777e-09,-0.0047049020717809,-0.0046307893056276,0.0003771664788834,6.706149670796547,12.431621131786924,29.47236022906958,36.24827940490928
0.81,31.222166579649528,131.010435893323,14.913126161969858,4.566582346373238,-4.866869249651876,23.65563271150357,0.8632402713472695,2.535141374983724,273.9374926939919,30.5566387055378,12.684869857282788,69.94610388426314,-0.1043693998958576,113.58893577032916,571.0825009642315,15.288,0.0,2.7948663917097445,0.0898100649832312,-3.981081361515955e-09,-0.0048969832732699,-0.0048380681828705,0.0003966148693135,6.6700742211644375,12.331307145098496,29.79307167194285,23.806744517862743
0.82,31.22216611110885,131.01043711275196,15.191264814492296,4.56556278599421,-4.815720133960065,30.280480696611523,0.8786758593194742,2.513515535766748,328.72500443277005,30.879466508809863,12.820785138033434,69.94324328286059,-0.1120962730156707,113.5807107555583,583.1975233291209,15.288,0.0,2.803490126130561,0.0907591840689577,-4.9526608683287995e-09,-0.0050944243815286,-0.0050489085378574,0.000416953957794,6.632224026750664,12.229455977509398,30.12390529455546,30.397324599907716
0.83,31.222165637458,131.0104383441508,15.472114878807131,4.571282211174827,-4.772629489064739,38.3806788584644,0.8928654186907813,2.492888461492871,395.68750322465047,31.154220725486805,12.939995288828916,69.94026748477184,-0.1201537346611978,113.5721336595443,593.6058402002152,15.288,0.0,2.8120590383564767,0.091567016299575,-5.967929774285996e-09,-0.0052973643880165,-0.0052633863693683,0.0004374095070909,6.60501623887835,12.147077704240989,30.40540449264183,38.47191457640124
0.84,31.22216515858925,131.01043958780105,15.755760394909249,4.5752483606553485,-4.728651068330703,23.85332692116348,0.907461489311064,2.4716813571474057,275.4593748256452,31.437513497547418,13.06204032849215,69.93717332381182,-0.1285471304788585,113.56319876880792,604.43405784383,15.288,0.0,2.820585505984499,0.0923999527639523,-7.0266541459772515e-09,-0.0055059763663553,-0.0054816089048736,0.0004587564458339,6.57612880311625,12.063236803754986,30.695581646414237,23.99820618908328
0.85,31.22216467478965,131.0104408429046,16.041978574797074,4.5730957748381496,-4.679353224643228,25.97453848586096,0.923391740149498,2.4489713821476644,292.96093233939376,31.759712954834427,13.19741296619428,69.9339574800555,-0.1372817534441542,113.55390043273152,616.8701409792334,15.288,0.0,2.829062711086136,0.0933472506965001,-8.128580183108927e-09,-0.0057201089269138,-0.0057033457080926,0.000481469274728,6.539343549474305,11.967409556528573,31.02549870727744,26.106067545492692
0.86,31.22216418588435,131.01044210992663,16.330905753466336,4.574939943382305,-4.6350766625741855,32.423565811972466,0.9385907007265488,2.426777001985404,346.2265619465587,32.05166566376783,13.322232699338835,69.93061662648088,-0.1463631090563811,113.5442327652224,628.2460531461264,15.288,0.0,2.837496468795688,0.0942056569528424,-9.27343198012123e-09,-0.0059400460864139,-0.0059288192825781,0.0005045637868712,6.509094691026458,11.8839704067846,31.324383398969072,32.527800710840644
0.87,31.222163691893986,131.01044338879842,16.622526409172355,4.578510788501227,-4.593404355440963,30.22042291845849,0.953496879705492,2.4046777580057377,327.964078366998,32.32848112089444,13.44171528325698,69.92714736888921,-0.155796636042239,113.53418995224663,639.1267566312769,15.288,0.0,2.845886363383871,0.095019580421871,-1.0460908419044364e-08,-0.0061658745013589,-0.0061580442459522,0.0005282548311283,6.482065673531915,11.807282147368047,31.60772351092414,30.330934584841703
0.88,31.22216319285076,131.01044467942023,16.916816167323876,4.578877150795416,-4.549372581022412,26.173835306851856,0.9691603670781616,2.38162183671741,294.4828134710418,32.62464842764816,13.567772666019904,69.92354627482426,-0.1655877316952182,113.52376622234073,650.8723219996142,15.288,0.0,2.8542248671001165,0.0958903911051804,-1.1690680722718472e-08,-0.0063976475008306,-0.0063910009589891,0.0005531174614815,6.451264104889266,11.725554349818276,31.91078530972533,26.29982982949603
0.89,31.222162688832064,131.01044598156858,17.21371552435178,4.576106535827504,-4.503104327161329,28.66652769706445,0.9855994702952114,2.3575732187823424,315.028134248087,32.94028054358486,13.700447678257683,69.91980984594889,-0.1757418248709556,113.51295576878248,663.5082494806135,15.288,0.0,2.862510098825761,0.0968184215951103,-1.2962398947870416e-08,-0.0066354142430923,-0.0066276664187208,0.000579207493483,6.416817466330658,11.638994661099332,32.2336625596907,28.78019054843677
0.9,31.222162179760968,131.01044729544287,17.51328511676272,4.580240812051362,-4.4644020589750655,31.62144005883995,1.0005976443162228,2.334782639890645,339.37814235421445,33.20363382635268,13.814955977211856,69.91593447191143,-0.1862644966036885,113.50175262137904,674.1405889638934,15.288,0.0,2.870752778160561,0.0975928022291336,-1.427568186764062e-08,-0.0068793740641626,-0.0068681662222394,0.0006052863541355,6.392730293135776,11.57113757451981,32.5030765748522,31.723301798774887
0.91,31.222161665704483,131.01044862084956,17.815473792745028,4.581215187821624,-4.423384706663572,24.16047651971112,1.0163660930070335,2.3110066164424348,277.7421810230789,33.48644146734146,13.936077253343624,69.91191657334548,-0.197161079558895,113.49015107278608,685.6534050687392,15.288,0.0,2.878950477150996,0.0984243718502939,-1.5630115308718504e-08,-0.0071295548463815,-0.0071124533746463,0.0006326232529536,6.3649142626081225,11.498238233099984,32.79230783668822,24.292022914441844
0.92,31.22216114685825,131.01044995724172,18.12013025093433,4.5791203810926815,-4.380190056758264,28.683348591857943,1.0329188539984775,2.2862123886391807,315.02813424806214,33.788635651671626,14.063795793763203,69.90775251353102,-0.2084369311419237,113.47814538669128,698.0640047411006,15.288,0.0,2.887099344484497,0.0993129316235674,-1.7025286037922132e-08,-0.0073858566474385,-0.0073603598814804,0.0006612604689718,6.333523971020461,11.420539657481708,33.1012670072818,28.792849370754396
0.93,31.222160623131103,131.0104513048601,18.42732659128501,4.583341843943326,-4.3437209378318045,34.03896044242347,1.0480801542031857,2.262655836302432,359.1625070654728,34.04146948331964,14.17435309865552,69.90343854308776,-0.2200974098426397,113.46572982801528,708.5291424229939,15.288,0.0,2.895203562624031,0.1000564179203455,-1.8460689330141185e-08,-0.0076485139370249,-0.0076120416954868,0.000689880038657,6.311470156660661,11.35972449934208,33.359812801727664,34.130175965618136
0.94,31.22216009441352,131.01045266399805,18.73714954226237,4.581361442924102,-4.302102202578429,24.81908482474305,1.0647560975000516,2.237312307791548,283.0687504837787,34.3367896024363,14.29948721350034,69.89897103542917,-0.232147770800415,113.45289875975396,720.8544289571532,15.288,0.0,2.903263043594205,0.1009247906528833,-1.9935808704674547e-08,-0.0079177063038621,-0.00786759637896,0.0007203347560313,6.281518933604594,11.286828730417238,33.66165177775088,24.942458648809062
0.95,31.22215956098689,131.01045403387292,19.04938107613702,4.579983377880337,-4.261756877525446,32.02260724652994,1.0813767150526463,2.21180979739453,342.4218736174873,34.62478118576096,14.421990430713432,69.89434605927816,-0.2445934189268302,113.43964639598012,732.9751446123186,15.288,0.0,2.911274572466049,0.1017716316684606,-2.1450159551435248e-08,-0.0081932726847743,-0.0081268009179271,0.00075163451974,6.253007598851722,11.217503260221475,33.95596310031849,32.1171115302298
0.96,31.2221590225622,131.01045541527225,19.364247942665468,4.581661924986356,-4.224905839400572,31.382806389294288,1.0973292188852692,2.1868050445007974,337.09533515678345,34.88661483210578,14.535344427939608,69.88955982431256,-0.2574397218956793,113.4259669758253,744.0801175969546,15.288,0.0,2.9192444131179247,0.102541596152671,-2.300312774250701e-08,-0.0084756451561536,-0.0083899882528236,0.0007833948887853,6.229235822380528,11.157283147191997,34.223569426551904,31.478036542726166
0.97,31.22215847915724,131.0104568081402,19.681737876687773,4.581502646121219,-4.1870020738805485,20.214950971576897,1.1137979067135635,2.161041167703204,245.02188719299323,35.15898741811772,14.652236199429847,69.88460826521886,-0.2706921055880304,113.4118546871098,755.7210403904878,15.288,0.0,2.9271717982403525,0.1033425461929601,-2.459412556131805e-08,-0.0087649151433736,-0.0086571676017594,0.0008164319064777,6.203527982621813,11.094950635185498,34.50187988731581,20.360620999585578
0.98,31.22215793105186,131.01045821169888,20.001634195871024,4.575450445673932,-4.144407448479963,29.27065435747156,1.131836694238183,2.13336597602842,319.5937466429581,35.47346231626925,14.78359279696052,69.87948740089156,-0.2843559508308025,113.39730375365863,769.276756311232,15.288,0.0,2.9350513990221203,0.1042672562560432,-2.6222624050104297e-08,-0.0090608587138705,-0.008928060610012,0.0008515212451447,6.170439240744765,11.021346933568497,34.82302785738164,29.37011255008514
0.99,31.22215737809961,131.0104596263448,20.32405281227337,4.578831528456212,-4.110933340449002,31.955779046501902,1.1475481563114431,2.107988016682995,341.6609485517054,35.712254107852644,14.888671072245346,69.8741931205219,-0.298436741406804,113.38230828941686,779.6443389690878,15.288,0.0,2.9428891865419065,0.1049695195943429,-2.7887935516622488e-08,-0.0093638152282041,-0.0092029062403086,0.0008858887774881,6.150566358903191,10.970997208958224,35.0670641106952,32.045784351742476
1.0,31.22215682029808,131.01046105208036,20.648997593680978,4.576477530292392,-4.072907789309038,28.634702174554416,1.1647991379628049,2.08072125434014,314.2672081822764,35.9920464502188,15.007831442119969,69.8687213570552,-0.3129396102255014,113.36686278160332,791.8839313259588,15.288,0.0,2.950682172641966,0.1057923049807571,-2.9589381236563617e-08,-0.0096738471149149,-0.0094816855851417,0.0009223617982501,6.123513652005262,10.909699439167111,35.35281426641386,28.733818517480287
1.01,31.222156257821435,131.01046248841905,20.976334450919296,4.574883391422618,-4.0361399534871145,29.934289134447937,1.1819225854827675,2.0533695005769546,324.9203161036979,36.26278146510049,15.123763057702828,69.86306790001981,-0.3278699081999067,113.35096148140164,803.8166918841067,15.288,0.0,2.9584284531875835,0.1065884767570412,-3.132630520932391e-08,-0.0099908878872188,-0.0097642672689231,0.0009597256259895,6.097978163959902,10.852007341222176,35.62931030457264,30.027902578913196
1.02,31.222155690594324,131.01046393556476,21.30612429431604,4.57456713956118,-4.001050326036959,25.038524262296345,1.1987661653719264,2.026105744549924,284.59063161540416,36.52012618048044,15.23496283681891,69.85722854975064,-0.3432328164835568,113.33459881779432,815.240181592489,15.288,0.0,2.9661321926438373,0.1073452986612288,-3.309793955342082e-08,-0.0103151429550855,-0.0100507615442063,0.0009978738844477,6.074621539319505,10.799013602562711,35.89215333395548,25.148953100297067
1.03,31.222155118682178,131.0104653933334,21.638318246009767,4.5702829647416605,-3.963065133804496,20.509931756616453,1.2167536628095592,1.9973451426903133,247.30469339049705,36.80573940962604,15.35585425104214,69.85119906856367,-0.3590334175051214,113.31776932259493,828.0151347618366,15.288,0.0,2.973792032379387,0.1081852203959877,-3.4903532521404666e-08,-0.0106466305592401,-0.0103411112233217,0.0010379633291055,6.046489585429403,10.739049959678834,36.18371885850067,20.642848101850024
1.04,31.22215454214349,131.010466861559,21.972872737898733,4.569465047472602,-3.92861343939702,32.449211069484605,1.2338644158813274,1.96933398671482,345.46563688072297,37.060435662690296,15.465949284589865,69.84497502259588,-0.3752769503220768,113.30046736197129,839.4875626411235,15.288,0.0,2.9814090609592374,0.1089342749496799,-3.6742291542429096e-08,-0.0109854230295968,-0.0106353083536392,0.0010783695828889,6.023393397559845,10.688536648130242,36.44381394288639,32.53232233917478
1.05,31.222153960703384,131.01046834100111,22.310005151324216,4.565413627931552,-3.8919265156506913,19.682744196494305,1.2519389458972503,1.94001071532683,240.45625879819983,37.33779544363723,15.5837939591793,69.83855209915784,-0.3919685346386897,113.28268741660553,852.072416525971,15.288,0.0,2.9889874149800755,0.1097499550634154,-3.861329216209953e-08,-0.0113319886642798,-0.0109336826052305,0.0011206785609283,5.996500075662759,10.632684822651202,36.726923076927775,19.81770450391436
1.06,31.222153374589364,131.01046983102654,22.64953995201132,4.558596764740977,-3.853445479775461,27.92501790963572,1.2708970028247712,1.9094441982375188,308.17968365593924,37.63466998392119,15.708310420190578,69.83192563808262,-0.4091134894424027,113.26442376405704,865.6477865529966,15.288,0.0,2.99652394414052,0.1106230058881572,-4.051576688375405e-08,-0.011686145689185,-0.0112360025596522,0.0011648540260456,5.966447134878856,10.572529779363515,37.02982840180642,28.01906104050326
1.07,31.222152783689463,131.0104713319431,22.99156716291888,4.557643697791965,-3.820412305808696,32.83811740744035,1.2882386220282604,1.8804789131178203,348.5093681440308,37.88019573198429,15.81494189310651,69.82509101481595,-0.4267172529050183,113.24567054041827,876.9506611054184,15.288,0.0,3.004021545410139,0.1113451317863129,-4.244878547673816e-08,-0.0120482229540072,-0.0115424738702632,0.0012087404032002,5.944481429654067,10.526927244779849,37.28053135808446,32.91713405742977
1.08,31.222152187907,131.01047284401935,23.336165217146235,4.555257091972732,-3.786652530087151,22.19167188686616,1.3060507588868655,1.850743950826805,261.00157857466235,38.13388862349858,15.924305060832976,69.81804354627553,-0.4447850218754537,113.22642214137556,888.7068826892928,15.288,0.0,3.0114800951206115,0.1120912731246741,-4.441139682671199e-08,-0.0124184492885199,-0.0118532102817963,0.0012541859057983,5.921053257288843,10.479872064799965,37.53951554225954,22.306979241722463
1.09,31.222151587505667,131.01047436652172,23.6831303653755,4.546249430073496,-3.747920677487389,20.434036605793604,1.3259126006832336,1.8183975589932428,246.54375332474407,38.43958871344228,16.051613248691737,69.81077842284762,-0.463321979752349,113.2066729764762,902.98252701439,15.288,0.0,3.01889646282118,0.1129902945499342,-4.6402780363623215e-08,-0.0127965520856622,-0.0121679067727899,0.0013026888054871,5.88946457296861,10.420087577873256,37.85128647065823,20.557589010244275
1.1,31.22215098255805,131.01047589924733,24.032408443154434,4.540425818409884,-3.712314953111143,40.73502721340224,1.3449156877876602,1.7867873731134192,413.1890617385841,38.71566032051959,16.168568423422567,69.80329088956468,-0.4823333299679254,113.18641742021836,915.9687419560092,15.288,0.0,3.0262721024266748,0.1138022349381716,-4.842198067187155e-08,-0.0131825985707032,-0.0124865463628347,0.0013515810929066,5.862412535291615,10.368854380523455,38.13293916344929,40.79637054200528
1.11,31.222150372680176,131.0104774432662,24.38430332565021,4.541143629244054,-3.6824750788498193,29.89593712284716,1.3619538031160472,1.7572308798207588,324.1593910376397,38.932550041886806,16.264897361131744,69.79557595995641,-0.501824299011779,113.16564982893,926.2289112077232,15.288,0.0,3.033614027858224,0.1144402230125381,-5.046777221969936e-08,-0.0135773156578926,-0.0128096489493561,0.0013998016315499,5.844158908137067,10.333367028309498,38.35450636500923,29.978489538001227
1.12,31.22214975793269,131.01047899841305,24.73877078113874,4.529201189202021,-3.6428830163091983,11.446317502341268,1.3830143207753636,1.722702296917496,172.73281794065943,39.25400689390151,16.397417113252448,69.78762865053189,-0.5217998881866963,113.14436479521144,941.555302574081,15.288,0.0,3.040919061988911,0.1153855904140098,-5.2539161444933695e-08,-0.0139806891752107,-0.0131371182130609,0.0014532405833101,5.810042965771817,10.272188175471046,38.68216962065038,11.65755618385254
1.13,31.222149138879043,131.0104805631141,25.09537156955609,4.523908145929798,-3.6090971703627823,35.193745989411035,1.4020710912609533,1.6902672417720848,367.5328077900705,39.51541179634418,16.50902764408291,69.77944379837186,-0.5422656320964782,113.1225563274644,954.104606618294,15.288,0.0,3.0481823943237503,0.1161544471560687,-5.46353828573677e-08,-0.0143920352503637,-0.0134683273775555,0.0015059092210857,5.784828498857064,10.226860177557867,38.94887096729649,35.26219737141664
1.14,31.22214851488909,131.01048213913347,25.45460358283736,4.523246257351837,-3.579398179269373,19.612302178482384,1.419673477456058,1.659313924002554,239.69531773195544,39.7326603513333,16.605211006774734,69.77101631809276,-0.5632263141051084,113.10021924482388,964.591147271872,15.288,0.0,3.05541361381842,0.1167935166863071,-5.6754925721677895e-08,-0.0148124884436421,-0.0138041081047424,0.001558370611619,5.765866228051443,10.19300436024668,39.17077545270841,19.733504306662965
1.15,31.22214788642692,131.0104837251785,25.816105981909256,4.5097459657005325,-3.540023713677596,19.335550810445124,1.441545329623633,1.6229963707881592,237.41251153546767,40.058881559753935,16.73916726623784,69.76234114663171,-0.5846866612021806,113.07734841449088,980.4614903802468,15.288,0.0,3.0626040047986134,0.1177529190795654,-5.889695515675326e-08,-0.0152413532072543,-0.0141438240943822,0.0016165991514742,5.730940598600627,10.133168077507044,39.50316965461576,19.457021747951465
1.16,31.222147253623604,131.01048532088248,26.17977881032836,4.509941899511385,-3.511773976533292,50.16043929584437,1.4589426186798635,1.59178371634306,490.0437743845894,40.26097565944573,16.82993056583684,69.75341288181251,-0.6066518683001064,113.0539382024654,990.3445586237772,15.288,0.0,3.06975662119714,0.1183474595829517,-6.106030390252528e-08,-0.015678658136509,-0.0144874266126516,0.0016713138544067,5.713724313073906,10.104046938220344,39.70969281293743,50.20689155202006
1.17,31.22214661565404,131.0104869285664,26.546274493822487,4.503296500241924,-3.4786003782005355,9.125802377837449,1.4786586060064064,1.5575220421871463,153.70937929486794,40.51954931921991,16.9402194212895,69.74422634315515,-0.629126460386711,113.02998368574866,1003.0709487997595,15.288,0.0,3.0768808561088945,0.1191080315624888,-6.324323641010817e-08,-0.0161258901473514,-0.0148359938547209,0.0017299670889362,5.688181266578241,10.061845740898342,39.9734676766105,9.375104011388848
1.18,31.222145973609752,131.01048854517236,26.914738355255285,4.487579534589336,-3.438896128730368,24.543763700421355,1.501593652921462,1.5190565464883805,280.02501822196746,40.856686496753056,17.077773912218998,69.73477609390252,-0.6521152790739037,113.00547959654703,1019.7961133707532,15.288,0.0,3.083961447131976,0.1200995525017713,-6.54452560857283e-08,-0.0165812361046811,-0.0151880353394821,0.0017935529873028,5.651564275426484,10.001769542147365,40.31683022269859,24.636530861142855
1.19,31.22214532700101,131.0104901720786,27.285558986294284,4.491280324156271,-3.4143922294514386,42.66574920565964,1.5178238015692296,1.488510260261141,428.4078130529292,41.01460589955265,17.152921279751844,69.7250565303919,-0.6756232895385555,112.98042053295327,1027.6581802149112,15.288,0.0,3.0910107399844846,0.1205642662551897,-6.766462064117026e-08,-0.0170458687568682,-0.0155443834260517,0.0018508719725194,5.639661307552581,9.98434590504604,40.47859180738337,42.71867983877497
1.2,31.22214467540947,131.01049181047392,27.659070093988383,4.47901162049827,-3.378153614034672,4.662538750159033,1.5396999036405683,1.4507688154998066,117.1843741360236,41.31347973153096,17.277016988868233,69.71506235451301,-0.6996546218608068,112.95480197837784,1042.6524482937143,15.288,0.0,3.0980286248846984,0.1214433311632049,-6.989978232215904e-08,-0.0175205361175563,-0.0159055181586202,0.0019162063739659,5.608048290363276,9.93451072997211,40.78314799010104,5.120026713410004
1.21,31.222144019925903,131.01049345729083,28.03441626984024,4.467383684094885,-3.3428002513157087,34.31582082475779,1.5614501376893224,1.412871661563227,359.92343213200894,41.60377132852839,17.39808970824,69.70478777324445,-0.7242141781343862,112.928618586067,1057.3183199434477,15.288,0.0,3.1049927529001327,0.1222971779415777,-7.215015801812878e-08,-0.0180033889699672,-0.0162699595507428,0.0019827794960757,5.577559661956888,9.88739133031127,41.07898333135499,34.38037073304212
1.22,31.22214335972367,131.0104951148676,28.41225279366426,4.469128942238352,-3.3177535832125,24.930429850609407,1.578338906118255,1.3807423583266252,283.0687504825761,41.76610234338212,17.474522282635796,69.69422717423033,-0.749306274716606,112.90186563143352,1065.546702022736,15.288,0.0,3.1119282337017253,0.1227748847869322,-7.441361278423002e-08,-0.0184962373555567,-0.0166389932739104,0.0020449327429159,5.564015144395368,9.869912431117976,41.24524202355131,25.018471889761784
