Time,Latitude,Longitude,Altitude,Angle of Attack,Angle of Sideslip,X-Acceleration,Y-Acceleration,Z-Acceleration,Thrust,True Velocity,Ground Velocity,Pitch,Roll,Yaw,Dynamic Pressure,cp,parachute_deploy_gain,Wind Speed,Mach,omega_x,omega_y,omega_z,Cmq,Angle of Attack(total),Angle of Attack(gust),True Velocity(gust),Acceleration
0.0,31.222216000000007,131.010392,3.000000004412624,0.0,0.0,0.0,0.0,0.0,2.2828121974499247,0.0,0.0,71.99999999612658,-1.0292491154817412e-14,119.99999999354436,0.0,15.288,0,0.0,0.0,0.0,0.0,0.0,-0.0,0.0,90.0,0.0,0.0
0.01,31.22221599999862,131.01039200000284,3.0000009727369523,0.0,0.0,0.0,0.0,0.0,34.24218696174923,5.916279387578309e-11,5.734623670548936e-11,71.99999999613168,-5.86671995824671e-13,119.9999999935449,2.1432944861733093e-21,15.288,0,0.0,1.7386402909615473e-13,-3.4220131069073734e-19,7.115076756936125e-19,5.488773498207866e-19,-1.1574302492039043e-31,0.0,89.99999999962336,5.916279387578309e-11,0.0
0.02,31.22221599999738,131.01039200000537,3.0000018317022668,0.0,0.0,0.0,0.0,0.0,25.871876237766408,1.2265415415436536e-10,1.1895038237325684e-10,71.9999999961369,-1.1836364828043265e-12,119.99999999354544,9.211895886571454e-21,15.288,0,0.0,3.6044858651615574e-13,-6.979551485375437e-19,1.4162390878091906e-18,1.0909784360635388e-18,-4.776231873571785e-31,0.0,89.99999999921916,1.2265415415436536e-10,0.0
0.03,31.22221599921969,131.01039200159065,3.0001883335529382,18.80143492628821,-0.0001350810307892,10.931161642028636,-1.75114298675875e-05,3.026590975169265,180.34219359854663,0.0798232026864394,0.0478175828508887,71.99999999765336,-5.341802909786072e-12,119.99999999436793,0.0039016003969354,15.288,0,0.0,0.0002345795854893,3.788270153300133e-17,-7.771883375645477e-10,1.1422790048099072e-11,1.7057759223764537e-13,18.80143492675591,89.51882325913425,0.079801984207741,11.342422482672777
0.04,31.222215995131297,131.01039200995308,3.001692634342189,9.19442604083399,-4.49173898918486e-05,52.29595764159784,6.445392950801871e-06,3.026413589912948,548.6359724538078,0.3504174083926908,0.1601447499964056,72.00000000319055,-3.111420077280171e-11,119.99999999870242,0.0751892535633216,15.288,0,0.0,0.0010297854387864,2.0082066977226968e-15,-1.520937588847922e-08,2.5623342884322286e-11,1.4654248781413086e-11,9.19442604094277,87.798916624545,0.3504103527855857,52.383455068075136
0.05,31.222215983575865,131.01039203366796,3.0074067499493786,5.158590039700252,1.707592688632746e-06,76.26884281015512,5.843947534199429e-05,3.0258124765658088,761.6984298824644,0.9592973585397016,0.3772700771701255,72.0000000004862,-1.3608731808076822e-10,120.0000000109612,0.5634958029902841,15.288,0,0.0,0.0028191251099456,2.086299069701397e-14,-1.0551247853743037e-07,3.973493515691201e-11,2.783064866637575e-10,5.158590039700515,83.94063169874748,0.959297626767734,76.32884071402438
0.06,31.222215961742712,131.0103920785344,3.019291017943491,4.109521257467909,3.140103977270004e-05,57.06876634333886,0.0001151069734147,3.024834864051463,590.4875390737208,1.6257536642597354,0.6118982818704327,71.99999992547217,-3.5903296759057166e-10,120.00000003412836,1.6184272268450337,15.288,0,0.0,0.0047776672697797,1.0694899894620088e-13,-3.741090980393931e-07,5.521401959501359e-11,1.6723176417636091e-09,4.109521257587776,79.78719176344794,1.6257585967235286,57.148873286519276
0.07,31.222215929936205,131.01039214392435,3.0371334573469446,3.649087515174788,5.707077112564807e-05,86.89643797254193,0.0001728541558773,3.0234947746384675,855.2937749779139,2.3057260079826607,0.8506307413593818,71.99999965378231,-6.907496536790437e-10,120.00000006788592,3.255354923652711,15.288,0,0.0,0.0067759305364855,3.495199904512709e-13,-9.036515915819006e-07,7.594816279105379e-11,5.728932851326001e-09,3.6490875156204896,75.6601668283889,2.305734972638426,86.94902215090157
0.08,31.222215886364623,131.01039223353447,3.0621840248716574,3.4254446680114707,8.413075603463509e-05,17.831756866644035,0.0002285946601282,3.021841001032126,241.2171988638848,2.961944911520492,1.0819695676346892,71.99999900671328,-1.141745983122182e-09,120.00000011415082,5.371998197385977,15.288,0,0.0,0.0087043901031071,8.800530155962314e-13,-1.829098470920821e-06,1.0943386634701918e-10,1.4896287129277132e-08,3.4254446690434226,71.81713637501419,2.9619581267487467,18.085991154451033
0.09,31.22221583454733,131.01039234010327,3.0919888289029,3.389560809024919,0.0001118726864415,54.09031716446879,0.0002748660999733,3.020060228038602,563.0937377043176,3.504225426410036,1.2780161667917422,71.99999774508822,-1.634190085504106e-09,120.00000016921716,7.519080503822694,15.288,0,0.0,0.0102980157586766,1.865782139518716e-12,-3.1503298654458527e-06,1.6284478329871028e-10,3.03536411425607e-08,3.389560810868955,68.76526501308032,3.504242999330529,54.17456206384468
0.1,31.22221577423132,131.0103924641528,3.1267248829165366,3.4447939461814814,0.0001419149103147,51.372195336549765,0.0003131602029306,3.0182021883815127,538.7437595981919,3.950569597142709,1.4443465951180965,71.99999562056465,-2.1287748602259068e-09,120.00000023339832,9.55649523509932,15.288,0,0.0,0.0116097108366932,3.485956000178229e-12,-4.949356763187612e-06,2.4573266549165286e-10,5.3761299442583966e-08,3.444793949101151,66.34639928474206,3.9505918890846927,51.460781166288626
0.11,31.222215706113143,131.01039260424562,3.165907002780892,3.4691423802630394,0.0001702373452339,40.591037561894986,0.0003534470100582,3.016051659024047,442.8656393052949,4.421478635995476,1.6182620895289603,71.99999235067894,-2.5564479031457968e-09,120.00000030601664,11.970509656144712,15.288,0,0.0,0.0129935974697161,5.942887149865172e-12,-7.273722517324353e-06,3.67769289312894e-10,8.842679949465076e-08,3.4691423844348632,63.88798785789768,4.421505376815134,40.70293476011277
0.12,31.222215630588888,131.0103927595646,3.2092596514826863,3.4852659299808075,0.0001974376474727,44.30042894095728,0.000394069215595,3.013641598889868,475.58594813540446,4.896982486381051,1.793579340340896,71.99998761802138,-2.8337988279882726e-09,120.00000038673312,14.683611096353944,15.288,0,0.0,0.0143909889875706,9.464337642181618e-12,-1.017558359402848e-05,5.395790443954697e-10,1.3700793350599625e-07,3.4852659355662303,61.5068242157714,4.897013499814194,44.40281567867803
0.13,31.222215548046687,131.0103929293088,3.256512891171917,3.5606043721293616,0.0002276507019012,48.86766833507025,0.0004268800875964,3.0112558910133567,515.9156326236895,5.278566579338586,1.939796541405244,71.99998107389406,-2.8573058577484587e-09,120.00000047523812,17.061052093156064,15.288,0,0.0,0.0155123760833565,1.4300406003001044e-11,-1.3705268062305584e-05,7.724776992181392e-10,1.989112774124932e-07,3.560604379397528,59.67313531776262,5.27860233862722,48.960358155653
0.14,31.222215458587108,131.01039311327068,3.30759734332425,3.6000732663755977,0.0002555702913645,45.540290862247225,0.0004629468001456,3.0085404980032777,486.2390860568404,5.70011779273801,2.098362647205908,71.99997235012626,-2.508533681468686e-09,120.00000057154703,19.894788765881632,15.288,0,0.0,0.0167512184495524,2.071534240530911e-11,-1.7917736259613292e-05,1.0787346240473087e-09,2.8081526258393346e-07,3.6000732754351943,57.72385750323359,5.700157937625502,45.639559681930805
0.15,31.222215362317904,131.01039331122794,3.3624387479639086,3.651605404442164,0.0002842753491325,44.01308509501,0.0004965057129938,3.005703619811542,472.54218587214,6.091938849578711,2.2476968067377374,71.99996103728932,-1.6446954747148112e-09,120.00000067569304,22.723773683610247,15.288,0,0.0,0.0179026934683374,2.9002783512213203e-11,-2.287326399669318e-05,1.47199345427166e-09,3.831202693354572e-07,3.651605415492516,55.98561718911576,6.091983503446133,44.115597174664394
0.16,31.22221525912812,131.01039352340948,3.421115382839859,3.67540086436193,0.0003108411545024,34.83804992586084,0.0005330990866742,3.002517946501868,391.1218908297564,6.521183188362317,2.4085903880902046,71.99994669525161,-1.0153513453738144e-10,120.00000078796704,26.03872642002185,15.288,0,0.0,0.019164148528834,3.9478358970291335e-11,-2.864207894220033e-05,1.9677461746207517e-09,5.135466997084602e-07,3.6754008774883777,54.15946979122355,6.521232015176687,34.96719658394182
0.17,31.2222151493826,131.01039374906244,3.4833737923187487,3.7139589864597298,0.0003384978477213,43.96471427482637,0.0005668629535037,2.999235483723449,471.78125980632376,6.916861975403744,2.559060925010733,71.99992884100092,2.3206494032971838e-09,120.0000009081849,29.29426197817256,15.288,0,0.0,0.0203269651395979,5.248754693205839e-11,-3.5267097947693114e-05,2.580363454062817e-09,6.706952682968329e-07,3.713959001863866,52.549031795895466,6.916915146521327,44.06689817851128
0.18,31.22221503253009,131.01039398932429,3.549599475912623,3.7380363034619775,0.0003650282082698,36.67395661481795,0.0006021794701355,2.9956556354306425,407.10156721191447,7.332140201215607,2.71556808256092,71.99990696207136,5.837017536380516e-09,120.00000103716444,32.917216366714264,15.288,0,0.0,0.0215473823438242,6.839750892601699e-11,-4.285557247677198e-05,3.331016495775474e-09,8.639362741436378e-07,3.738036321259578,50.93050624815799,7.332197539712479,36.796100973258795
0.19,31.22221490871209,131.01039424390297,3.619694897703461,3.747799769666444,0.0003901520189829,41.42208371271829,0.0006393759928961,2.991742733214697,448.9531328318269,7.771071983754382,2.879366399937307,71.99988049019642,1.0709144790974043e-08,120.00000117502664,36.97605053227239,15.288,0,0.0,0.0228373144884866,8.761416506509219e-11,-5.146771415177372e-05,4.238406957677133e-09,1.0996552116864756e-06,3.747799789945131,49.29705748437159,7.771133268690212,41.529983675580546
0.2,31.22221477769685,131.01039451327668,3.693822889232993,3.7700519460961166,0.0004166800650969,37.99697972290605,0.0006740224661302,2.987733789228414,418.51563019916136,8.179966026035371,3.0338260708461373,71.99984881140107,1.723179577184912e-08,120.0000013223286,40.969302182777255,15.288,0,0.0,0.024038975990988,1.1057590044953188e-10,-6.120032215177249e-05,5.3263847350253015e-09,1.376394225587184e-06,3.7700519690893857,47.8457752505109,8.180031477986942,38.11426270718793
0.21,31.222214639876928,131.01039479663547,3.771710975053407,3.7926098867321474,0.0004432924407074,36.46301043881366,0.0007080907240332,2.983530483977461,404.8187610144644,8.582757448615462,3.1863584283669346,71.99981127559042,2.5745201416596626e-08,120.00000147900325,45.103059028532826,15.288,0,0.0,0.0252227064089584,1.3774582723633048e-10,-7.20875523136271e-05,6.61341033873124e-09,1.7010673350603349e-06,3.792609912601061,46.47936953648762,8.582827080829217,36.584868250565684
0.22,31.22221449507626,131.01039509434258,3.8534832466471007,3.782921298925821,0.0004660920499522,44.14577847155813,0.0007479176313898,2.978724032883548,472.5421858721365,9.056569122268344,3.360845972992861,71.99976720416048,3.661811567390422e-08,120.00000164562512,50.21995530074818,15.288,0,0.0,0.0266151520780326,1.6960703048385348e-10,-8.421592474264931e-05,8.124635526119773e-09,2.0969540034515424e-06,3.7829213275976334,44.9464484092354,9.056642335836344,44.24615863872642
0.23,31.22221434283448,131.01039540734791,3.9394622486964206,3.813874679301352,0.0004940771488601,36.66675459308932,0.000779455230549,2.974212905336642,406.3406421461021,9.430647902846331,3.5044030163419806,71.99971583979395,5.0272885112871524e-08,120.00000182313076,54.45382429059888,15.288,0,0.0,0.0277145095638672,2.0669790509245914e-10,-9.77285871729516e-05,9.894576563683824e-09,2.5339062472561444e-06,3.813874711257219,43.79476959007253,9.430725512303388,36.78718303164376
0.24,31.222214184153326,131.01039573358457,4.028950821673608,3.829256049377765,0.0005200487408944,37.802126339316736,0.0008136255607606,2.9692962675112065,416.2328240017114,9.837806876534357,3.658163422426286,71.9996564062533,6.718950080713476e-08,120.0000020109434,59.25679777340223,15.288,0,0.0,0.0289110855155543,2.4956955046738006e-10,-0.0001125744417092,1.1934277804843484e-08,3.0448209172448607e-06,3.829256084638984,42.59361542722471,9.83788856559955,37.91856374864305
0.25,31.22221401888584,131.01039607335582,4.122052964664892,3.851417709838087,0.0005469594058717,38.85163035360012,0.0008459008130282,2.964283881833675,425.36408079150686,10.22297576958679,3.8050691648373967,71.99958811418384,8.786880969336211e-08,120.00000220974424,63.98709205399403,15.288,0,0.0,0.0300430411774988,2.987811646313829e-10,-0.0001288461362054,1.4273117985167728e-08,3.621333387698252e-06,3.8514177486178034,41.50703126619192,10.223061685769354,38.96455005232871
0.26,31.222213847358866,131.0103964259872,4.218542267117083,3.8780574625554745,0.0005745172425185,42.3164797140743,0.0008766626387865,2.959162938653076,455.8015834241788,10.590779679138215,3.946551912391076,71.99951013710364,1.1286401474734325e-07,120.00000241975916,68.67355887153568,15.288,0,0.0,0.0311239685467471,3.5491769188178554e-10,-0.0001465721578858,1.6932703957058654e-08,4.267712643344226e-06,3.8780575050466,40.51245375834074,10.590869924095635,42.41981967733593
0.27,31.22221366913008,131.0103967923915,4.318728802515264,3.886188503202341,0.0005994342651313,38.70936050721014,0.0009111181036949,2.953518013741325,423.84219965987256,11.004860953238978,4.102320296019413,71.99942161756776,1.4276417094868828e-07,120.0000026420792,74.14786134434608,15.288,0,0.0,0.0323408987462391,4.1858405402174807e-10,-0.0001658847815307,1.995072923688136e-08,5.018832267232506e-06,3.886188549362022,39.43841359495857,11.00495511215316,38.8218734782956
0.28,31.22221348431185,131.01039717233687,4.422535913956003,3.90556090261878,0.0006261175699806,44.68030766832924,0.0009425767186621,2.947879457547137,476.3468732012221,11.38358114165448,4.247086834352694,71.999321619057,1.7823531611327881e-07,120.000002877279,79.33831935330025,15.288,0,0.0,0.033453914386159,4.904408325040897e-10,-0.0001868529238516,2.3357766479368094e-08,5.847713054408178e-06,3.9055609527288775,38.49894431917428,11.383679491972384,44.77744842575601
0.29,31.222213292835256,131.0103975659655,4.530013412817602,3.9242599519377537,0.0006528240665589,35.802573724660256,0.0009737210635801,2.942037024315898,397.97031042211177,11.759725774384751,4.391004157029451,71.99920917567837,2.1999186079018322e-07,120.00000312617878,84.66717879828003,15.288,0,0.0,0.0345593650464213,5.711677680739745e-10,-0.0002095620322847,2.7188189988316943e-08,6.77505090435382e-06,3.9242600061534456,37.60352534239979,11.759828319749328,35.92324968749781
0.3,31.222213095024976,131.0103979726075,4.64093665799555,3.936939025755682,0.0006785438093183,33.570228713727204,0.0010059102294455,2.93586442972183,378.1859457108711,12.149968255527943,4.539237002744259,71.99908328532703,2.6880857935396905e-07,120.00000338923812,90.3787563598417,15.288,0,0.0,0.0357062504417728,6.614698865958865e-10,-0.0002340353597042,3.1467140861055e-08,7.817263716758327e-06,3.9369390841381695,36.71173884615234,12.150074840940263,33.698361337808635
0.31,31.22221289105846,131.01039839189684,4.755183729044857,3.9598342215431432,0.0007060286581592,35.396825578217346,0.0010350810412898,2.9297385597941448,394.1656220930212,12.504537499407316,4.6763673222047455,71.99894291513503,3.255120771695107e-07,120.00000366712923,95.72967338626896,15.288,0,0.0,0.0367483036680869,7.620720834468404e-10,-0.0002603234137215,3.622454560346964e-08,8.948994505138873e-06,3.9598342843844345,35.934338386209795,12.504648402129598,35.5178635353378
0.32,31.222212681031937,131.01039882363492,4.872689374180126,3.985461429033668,0.0007340760463279,38.52097867048992,0.0010630242168685,2.9235095146848846,421.55939346242695,12.84534566718622,4.809181081594425,71.99878701464397,3.909756427278764e-07,120.0000039606604,101.01782231644016,15.288,0,0.0,0.0377499198995686,8.737098716736534e-10,-0.0002884807530145,4.1491545539590986e-08,1.0187112828155184e-05,3.98546149652875,35.21473736963424,12.845460975581933,38.631757748577954
0.33,31.22221246496604,131.01039926777932,4.9934410812554,4.010606629086,0.0007621365968788,38.18822026147908,0.0010905599149574,2.917102431053817,418.5156301991682,13.18247167592885,4.940798912752974,71.99861449732019,4.661299779655886e-07,120.000004270781,106.38859400029033,15.288,0,0.0,0.0387407190563976,9.971421990244511e-10,-0.0003185760672934,4.7302669734505256e-08,1.154498667827874e-05,4.010606701382261,34.52805863348922,13.182591392065536,38.299473293007864
0.34,31.222212242662028,131.01039972474007,5.117579377337869,4.019339771238816,0.0007871574969313,29.898022638335373,0.0011220389395318,2.910051232417875,345.46563688075645,13.569536737955724,5.0878303926024735,71.99842423285973,5.519675040347761e-07,120.0000045987411,112.72655675097128,15.288,0,0.0,0.0398782837956187,1.1331556132162459e-09,-0.0003507224668667,5.37022358302301e-08,1.308298593306914e-05,4.019339848191799,33.76700548046532,13.5696603843662,30.039310197084795
0.35,31.22221201433324,131.01040019407705,5.2449575244483055,4.033762873683395,0.000813261106463,32.76415525156106,0.0011515840876071,2.902959820469776,370.5765700527033,13.934300103976534,5.227895396154902,71.99821502296155,6.495674834876441e-07,120.000004945438,118.8669740701126,15.288,0,0.0,0.040950312688979,1.2825853697215452e-09,-0.0003849609961885,6.072234695821837e-08,1.4746020857580124e-05,4.033762955530055,33.07785186209504,13.934427850732408,32.89250745069162
0.36,31.22221177990305,131.01040067594835,5.375631006350063,4.051723629010647,0.0008401329464575,37.01692984301412,0.0011797030485285,2.8957873473716007,407.8625232777193,14.282998147928636,5.362923567977223,71.9979856440668,7.600645476620651e-07,120.00000531213882,124.88900300695136,15.288,0,0.0,0.0419751331662584,1.4462801652534363e-09,-0.0004213876232777,6.84067806399068e-08,1.654507199147348e-05,4.051723715967022,32.44322602189087,14.283130115703262,37.13002398000203
0.37,31.222211539445663,131.01040117020102,5.509550188388412,4.071639898917391,0.0008674922629137,35.12417761390579,0.0012067983861697,2.88849906286036,391.1218908297666,14.620581431527652,5.494447309446232,71.99773482653193,8.846681943540367e-07,120.00000570002652,130.86067091914967,15.288,0,0.0,0.0429672939311924,1.6251202388969355e-09,-0.0004600660652957,7.679415042686734e-08,1.849041957573993e-05,4.071639991174516,31.85023865502424,14.620717696893658,35.24274792557624
0.38,31.222211292895075,131.01040167697127,5.646763233102716,4.08264881385344,0.0008930259828975,36.695642158537446,0.0012360471443664,2.880711738179021,404.8187610144602,14.986392916850402,5.634654729559426,71.99746126698146,1.0246533537040716e-06,120.0000061105033,137.4891296153862,15.288,0,0.0,0.0440424171304414,1.8200057922063743e-09,-0.0005010869196581,8.592980519823866e-08,2.0642694281337543e-05,4.082648911356968,31.228847973200924,14.986533193043764,36.808540518115166
0.39,31.22221104018777,131.0104021963902,5.787316652586672,4.096641430700089,0.0009192713382325,31.335681548387896,0.0012640110027448,2.872831219844713,357.64062493382744,15.337978856701952,5.770390286512262,71.99716358743511,1.1813915463769678e-06,120.00000654506955,144.01394309468844,15.288,0,0.0,0.0450757388736732,2.031886352449547e-09,-0.00054455673306,9.586443829735616e-08,2.295945663566148e-05,4.096641533664766,30.65298398882095,15.338123255506089,31.4670954954126
0.4,31.222210781536543,131.01040272801887,5.931064331106764,4.109028969993624,0.0009451871856381,29.95928076777898,0.0012920492774571,2.8646905607053603,345.465636880754,15.692185018814769,5.906873567965718,71.99684037970908,1.3563276523471372e-06,120.00000700500496,150.74021066990193,15.288,0,0.0,0.0461167659598875,2.2617341782092324e-09,-0.0005905037520737,1.0663253249436129e-07,2.5471259834659164e-05,4.1090290785164525,30.09246700352443,15.692333488470696,30.095929256306363
0.41,31.222210517064383,131.01040327160345,6.077922766619747,4.122888296344507,0.0009714525997821,33.78425365340317,0.0013192264430821,2.85640971467756,378.94687077668647,16.03742529732769,6.0405139809190125,71.99649020751959,1.5509747261474075e-06,120.0000074917568,157.44375780268788,15.288,0,0.0,0.0471314487675864,2.5105374204052982e-09,-0.0006389770219162,1.1827345344180344e-07,2.816813594418537e-05,4.122888410595805,29.56469007160549,16.037577892745222,33.904791300285986
0.42,31.22221024682894,131.0104038270252,6.227854084363214,4.14444025865494,0.0009995884754813,38.04468161607466,0.0013435485656724,2.8482703202464488,416.2328240017114,16.348862540904037,6.163613566771559,71.99611159893284,1.766920641656551e-06,120.00000800692096,163.6157044470786,15.288,0,0.0,0.0480467946810589,2.779304965995011e-09,-0.0006900467934588,1.308321832549104e-07,3.100973487310896e-05,4.144440378988911,29.104646754454564,16.34901955589459,38.15115260238947
0.43,31.222209970843565,131.0104043942566,6.380851271439565,4.1618082623168045,0.0010268052928652,33.45815353250911,0.0013687230309017,2.8397750580998298,375.9031395134336,16.67263197205097,6.290467308135904,71.99570306121484,2.005818691215035e-06,120.00000855220898,170.15779512382937,15.288,0,0.0,0.0489983878509763,3.0690566816849196e-09,-0.0007437862329608,1.443552931671376e-07,3.4086145072160934e-05,4.161808388761201,28.640125213458976,16.672793262249197,33.57845085853367
0.44,31.22220968892116,131.01040497368373,6.537047157143216,4.164954087655709,0.0010505545842624,30.86574023822051,0.0013980747538988,2.830419582421933,353.0750125389216,17.050421620730056,6.433992917638883,71.99526304125902,2.269416145406482e-06,120.00000912964636,177.9537948947602,15.288,0,0.0,0.050108743779844,3.380847125286677e-09,-0.0008003278134917,1.589055036683518e-07,3.750784460406397e-05,4.164954219916419,28.113519280259386,17.050586641458253,30.99524475496968
0.45,31.22220940081287,131.01040556582012,6.696617751072218,4.165241899529329,0.0010735835484822,35.912216710755274,0.0014280646808282,2.820677244966047,397.2093853562869,17.438293672974723,6.580571293039616,71.99478987454265,2.5595995397253085e-06,120.00000974147088,186.13940823302417,15.288,0,0.0,0.0512487363629523,3.7158016249566814e-09,-0.000859850913876,1.745604864109677e-07,4.121350642664912e-05,4.1652420376426775,27.591357195572936,17.43846231108416,36.02281959036367
0.46,31.222209106468902,131.0104061707686,6.859600379555308,4.174585124444534,0.0010989881252456,41.916816790010685,0.0014546917035209,2.811153314474766,449.7140588976434,17.786187321601275,6.714685486378061,71.99428180697711,2.8783880229668832e-06,120.0000103898448,193.6374175079873,15.288,0,0.0,0.0522712438446989,4.0751091178509895e-09,-0.0009224765531151,1.9138630415982226e-07,4.50966024037632e-05,4.1745852688465686,27.13985967570823,17.786359950252297,42.01097612387663
0.47,31.22220880579083,131.01040678873238,7.026066274755745,4.1823089530633855,0.0011240727220223,28.37640408484148,0.0014814747534716,2.801325368441072,331.0078106302534,18.138167428286582,6.849989708801916,71.99373704967608,3.2278903746588286e-06,120.00001107707628,201.37401505997488,15.288,0,0.0,0.0533057667609836,4.459978104761035e-09,-0.0009883252835099,2.094509673354327e-07,4.927107017839778e-05,4.182309103852639,26.69716826759888,18.13834399721685,28.514342615617974
0.48,31.222208499300592,131.0104074186346,7.195654207463586,4.189479568102716,0.0011490100608361,27.95074823096412,0.0015080719422187,2.7912412472910484,327.2031223011574,18.48995085190441,6.98515976370584,71.99315377257649,3.6103201777021456e-06,120.00001180491516,209.25751230436188,15.288,0,0.0,0.0543397174489847,4.8716620260348906e-09,-0.0010573190976925,2.2877013380347535e-07,5.373205427420879e-05,4.189479725385959,26.268461765425428,18.4901313379827,28.089773168283216
0.49,31.222208187201936,131.01040806005494,7.368224738812109,4.202723284133339,0.001175611380853,35.08821363242469,0.0015321405723077,2.781292092003844,389.60000969812296,18.812014261754847,7.111044804193205,71.99253015042137,4.027946338669921e-06,120.0000125755114,216.60722913930897,15.288,0,0.0,0.0552863302793499,5.311396446020465e-09,-0.0011294854492155,2.4938633613154685e-07,5.8398320167141767e-05,4.202723448262914,25.88860807032205,18.81219892635871,35.1982716047702
0.5,31.22220786953184,131.01040871291724,7.5437546994244835,4.220815778795054,0.0012036252596423,36.05491615971072,0.0015540388599792,2.7714444106710974,397.97031042210494,19.10875420627192,7.229005658018125,71.99186435180009,4.483102820610566e-06,120.00001339126192,223.4908652241728,15.288,0,0.0,0.0561585257949344,5.7804122391526605e-09,-0.0012048912160576,2.713531252030471e-07,6.327866493526626e-05,4.220815950099865,25.54902500917784,19.108943271285572,36.161276053538906
0.51,31.222207546379583,131.0104093770373,7.722184419225251,4.232567510615346,0.0012298790840397,27.54004661432325,0.0015777580800203,2.761017323676155,323.3984349720841,19.430597746636646,7.354673636736509,71.99115452520388,4.978202222778502e-06,120.00001425458936,231.07869697977367,15.288,0,0.0,0.0571045034845869,6.2799518101633574e-09,-0.0012835871653678,2.947201005874635e-07,6.854585242460463e-05,4.232567688976395,25.189423168613605,19.430790935591396,27.678103017910345
0.52,31.222207217891288,131.01041005226662,7.903543808147052,18.94206649371353,-0.0013721708729752,33.526897169259385,0.0011300012870584,1.577081609109379,372.0984511843415,22.892825225327627,7.476102783563424,71.99035895720822,4.072647776480208e-05,120.00005219272067,320.75897002821523,15.288,0,6.2857284113756124,0.0672797671723176,6.849180736612648e-09,-0.0016186188453243,3.359581252437198e-05,0.0001018371125295,18.9420665415898,28.32458019629508,22.892609685230948,33.5639690959932
0.53,31.222206884206464,131.01041073824763,8.087993978521345,18.761962270144856,-0.0013260492007164,35.19459747999815,0.0011503262235575,1.5375526793189298,386.5562464348624,23.224419024214487,7.593178058057392,71.98930798122541,9.989969636322312e-05,120.00011476802892,330.1125613725858,15.288,0,6.309919821085586,0.0682544308337037,7.607149865663577e-09,-0.0021029101358267,3.3559676939802934e-05,0.0001342208462901,18.76196231531877,28.00632053259222,23.224210728893144,35.22816715845466
0.54,31.22220654522668,131.0104114351214,8.275613027901352,18.58734213445635,-0.0012808281507168,30.941923641666826,0.0011704465422902,1.4974548332933415,349.2703242098436,23.55429198854442,7.709381443983451,71.98797607716364,0.0001590001351016,120.00017727232633,339.55069052994634,15.288,0,6.334064142899494,0.0692240436411427,8.565268418018398e-09,-0.0026006861571696,3.352373663818456e-05,0.0001683466879158,18.58734217702732,27.697430118752024,23.554090796529,30.978137629535432
0.55,31.22220620125907,131.01041214225452,8.466196265578319,18.42228839867992,-0.0012367765893455,32.783833720112725,0.0011900526318963,1.457187793782,365.2500005919907,23.876923910436428,7.822936293899784,71.98635561210564,0.0002180254289904,120.00023970275524,348.90991610562975,15.288,0,6.35813126312134,0.0701723820521926,9.728455695063036e-09,-0.0031115376127446,3.348807798429402e-05,0.0002041700611843,18.42228843875469,27.403482361129218,23.87672963802408,32.816202569318904
0.56,31.222205852315465,131.01041285962307,8.659744597484945,18.269552058262704,-0.001194020475033,30.61852225316818,0.0012089045454339,1.4170777895592614,346.2265619465787,24.18805989135628,7.932465446730358,71.98443902193013,0.0002769732334315,120.00030205679532,358.0556744098472,15.288,0,6.382119296358337,0.0710869411895328,1.1101530453173668e-08,-0.0036356974046528,3.345274159163948e-05,0.0002416680971056,18.269552095949315,27.128218761265444,24.18787233505866,30.651297132272678
0.57,31.222205498483504,131.0104135870466,8.856205948718179,18.11390542175645,-0.0011515698223989,30.282218957204265,0.0012280675655379,1.3757495737008352,343.1828296833023,24.50661855050652,8.044142540092725,71.98221870706116,0.0003358412063264,120.00036433184547,367.5420889127769,15.288,0,6.406016403036545,0.0720233214445647,1.2689311432290657e-08,-0.0041731881723718,3.3417783227009205e-05,0.0002810436149585,18.11390545713354,26.850871251912118,24.506437662341824,30.31345366944765
0.58,31.22220513975057,131.01041432455153,9.055598061254075,17.945749054244967,-0.001108863203234,39.79818645342312,0.0012482756488611,1.3321791320919798,426.1250058573153,24.845766920376576,8.162245237194991,71.97968693067281,0.0003946347597809,120.0004265360912,377.7781154663817,15.288,0,6.429821417510415,0.0730202201888245,1.4496651016936692e-08,-0.004724259989691,3.3383244407176066e-05,0.0003225523764341,17.945749087375503,26.558310887348508,24.845592740551933,39.82047648860577
0.59,31.22220477570105,131.0104150729958,9.258219829165386,17.80074636278669,-0.0010679952087428,32.31271871770713,0.001266853411752,1.2898905688491813,360.68438819711065,25.15795830941703,8.271284942145785,71.97683561253473,0.0004533359068481,120.00048864596292,387.3239200853764,15.288,0,6.453569908442798,0.0739379009825753,1.6528629984348164e-08,-0.0052901725783788,3.3349106650745915e-05,0.0003657217863685,17.80074639378756,26.2991393544707,25.15779054912195,32.33845404799346
0.6,31.22220440657008,131.01041583189473,9.463916662425204,17.631297647789673,-0.0010261871301427,28.748800520512773,0.0012874141959287,1.244007387342967,329.4859594986058,25.50772504160428,8.39225221294862,71.97365641942552,0.0005119499588824,120.00055066926885,398.16071553346654,15.288,0,6.477238348015476,0.074966020759442,1.879047852655392e-08,-0.0058706127810036,3.331545376627384e-05,0.0004114832713443,17.631297676704406,26.008395371192385,25.507563848506827,28.775703074042077
0.61,31.22220403231708,131.01041660133242,9.67272612312128,17.461193165748405,-0.0009848601822933,33.64798188205482,0.0013081797725796,1.1968551467367348,372.0984511843297,25.863442244721146,8.514859205610762,71.9701408053744,0.000570482460443,120.00061261444658,409.3350170136508,15.288,0,6.500829775203407,0.0760116361760189,2.1287506775001596e-08,-0.0064659504521732,3.3282328044156615e-05,0.0004595227440334,17.461193192657586,25.7184998451167,25.86328754324548,33.66926118418244
0.62,31.222203653073592,131.01041738103788,9.88456598316138,17.336541082374342,-0.0009464682588037,41.77948022969809,0.0013253966526454,1.1536990140968548,442.86563930529206,26.157701786948248,8.617251917743053,71.9662801394625,0.0006289148167242,120.0006744565113,418.6938489172697,15.288,0,6.524343215436687,0.0768766370817128,2.402513786879844e-08,-0.0070762494184475,3.324979157735016e-05,0.0005086068387528,17.336541107416704,25.49240413804521,26.15755311606182,41.79540634370645
0.63,31.222203268655928,131.01041817139048,10.099572922019842,17.201483566488427,-0.0009079039697312,23.80569658279685,0.0013434815451116,1.10842431278955,286.11251274707894,26.46978994511371,8.725158391425369,71.96206585480563,0.0006872608287737,120.00073621540956,428.73549033745854,15.288,0,6.547760860103968,0.0777940427509647,2.70085717887848e-08,-0.0077021137131138,3.3217877414065696e-05,0.0005601843009209,17.201483589724027,25.25384169666134,26.469647331891643,23.831487491432657
0.64,31.222202879689195,131.01041897110096,10.317320639762473,17.048445815566232,-0.0008688917779574,23.378679922140847,0.001363134282153,1.059951152179152,282.30782441796754,26.812393640063124,8.842709991126867,71.95748939746876,0.0007455099752247,120.0007978767172,439.8965322652475,15.288,0,6.571094511961236,0.0788011399155609,3.0243198113880554e-08,-0.008342214646881,3.318672403234724e-05,0.0006145799370393,17.048445837050863,24.99235752732954,26.81225715486181,23.40269585336383
0.65,31.22220248616261,131.010419780192,10.537825232817124,16.928709453283854,-0.0008319766685129,41.126167836837325,0.0013800165413702,1.0145417597941784,436.7781447787475,27.10723359617931,8.94455838012165,71.95254230618211,0.0008036593003278,120.00085943709844,449.6147660543368,15.288,0,6.594274313922927,0.0796678673970518,3.3734149127040854e-08,-0.0089969147833055,3.315637513596466e-05,0.0006700867665034,16.92870947312957,24.778082041915987,27.107102909589827,41.1386798260533
0.66,31.22220208755297,131.01042059974333,10.761458975741094,16.80376256762999,-0.0007951637993194,35.02256119708282,0.0013973468273787,0.967521473157215,383.51251517160017,27.412565445926337,9.049539818855838,71.9472159960156,0.000861707238507,120.0009208956854,459.79072442390566,15.288,0,6.617391049261399,0.0805654376743518,3.748647341883621e-08,-0.0096677565338187,3.3126819407703725e-05,0.000728145711401,16.803762585901286,24.558288100593664,27.412440541888824,35.03592288718837
0.67,31.222201684064284,131.01042142933443,10.988088662013851,16.66324473220401,-0.0007580381455314,24.19387949548029,0.0014160697267499,0.9174199538802248,289.1562440103425,27.74562593450793,9.16324301110542,71.94150134238139,0.0009196510322708,120.00098224920804,471.0211896850887,15.288,0,6.6404291571395575,0.0815445098192525,4.1505748757101375e-08,-0.0103544703633835,3.309814159981493e-05,0.0007893250293598,16.663244748957304,24.318802235193093,27.74550686215448,24.211267344334797
0.68,31.22220127588264,131.01042226858183,11.217593527167484,16.529885741546586,-0.0007216647674172,30.15078348128909,0.0014341919675538,0.8671826202610174,340.8999924858462,28.07028395577662,9.2739943586862,71.93538919652622,0.0009774879211092,120.00104349440288,482.098113361292,15.288,0,6.663321362310692,0.0824988946977424,4.5797528675685785e-08,-0.011056885533654,3.3070420110709906e-05,0.0008527142219355,16.52988575686036,24.09072626938237,28.07017059694004,30.163251686271565
0.69,31.22220086310009,131.01042311729594,11.449917914090785,16.415394996222194,-0.0006864816604771,37.073343106485126,0.0014506077350962,0.8185489568612118,401.0140726853634,28.36640666640346,9.375282892995894,71.92887043725806,0.0010352229480529,120.00110463884744,492.3124067969177,15.288,0,6.686128143600323,0.0833694213401544,5.0367270748038986e-08,-0.0117749983876159,3.304372484550977e-05,0.0009176548811043,16.41539501018141,23.88993435101207,28.366298834116392,37.08237847806165
0.7,31.222200445580803,131.01042397575736,11.685164167598288,16.301471500064785,-0.0006516655245026,31.13551300703076,0.0014669394598298,0.7690443813919393,349.27032420985284,28.663558724987787,9.476669339863133,71.92193610108319,0.0010928384476916,120.00116565905662,502.66950466727616,15.288,0,6.708847091859718,0.0842429806050899,5.522026163202172e-08,-0.0125094190995861,3.3018100375936324e-05,0.0009850803117631,16.301471512736867,23.691413979079805,28.66345636160657,31.145009257077508
0.71,31.22220002338869,131.01042484383467,11.92329589515866,16.177940129801165,-0.0006168429437217,25.631959579869104,0.0014841412734147,0.717126873848922,301.33126406340574,28.979237557221488,9.583825765449074,71.91457682594752,0.0011503483596744,120.001226574891,513.7907711328555,15.288,0,6.731418362856793,0.0851709981175071,6.03620155621972e-08,-0.013260204871821,3.2993617503687114e-05,0.0010556784225012,16.17794014124668,23.48132047093264,28.979140663758468,25.64198949106553
0.72,31.22219959653321,131.01042572150854,12.164314543705196,16.042888566097176,-0.0005819915334736,31.33356618022053,0.0015024509367796,0.6623011325714636,350.79220534145287,29.31803025331024,9.698221906995457,71.90678316261675,0.0012077420424714,120.00128737239156,525.8621523752284,15.288,0,6.753904253701833,0.0861669560644652,6.579811092355178e-08,-0.014027632662277,3.297033924202923e-05,0.0011298052212513,16.042888576376345,23.256930795564337,29.31793883429394,31.340565001573026
0.73,31.222199165018587,131.01042660877076,12.40822541642998,15.939982452938668,-0.0005486362555371,39.57831379574205,0.0015176240724445,0.6114552595560722,422.320318528234,29.6020450768926,9.794688791786536,71.89854523855779,0.0012650248721738,120.00134805969364,536.0873955379565,15.288,0,6.776308999376253,0.087001927298403,7.153431655443774e-08,-0.0148120459594924,3.294832839004816e-05,0.0012045116320401,15.939982462135548,23.077852652092925,29.601958897311107,39.58303680557932
0.74,31.22219872878437,131.01042750574635,12.655077943871364,15.828203942799677,-0.0005153001468725,24.871792169025763,0.0015335953131795,0.5582382241424627,294.48281347105944,29.903562051140234,9.896593895329472,71.88985355026762,0.0013221780936651,120.00140861169974,547.0508752943275,15.288,0,6.798581100499317,0.0878883459043591,7.757617081658939e-08,-0.0156137747333947,3.2927650723701145e-05,0.0012826104373835,15.828203950973217,22.888113849239957,29.903481107982444,24.87805615328536
0.75,31.222198288218863,131.0104284116345,12.904610538194552,15.711241697409788,-0.0004821649190346,29.00018340313616,0.0015500384635382,0.5031047291880554,330.24688556441487,30.216652229253786,10.002042334496384,71.88069829192047,0.0013792190770099,120.0014690526374,558.5526998518664,15.288,0,6.820731906788077,0.0888087865622976,8.392953144293538e-08,-0.016431923965716,3.29084136441389e-05,0.0013639180997073,15.711241704622044,22.69268117416673,30.21657649096541,29.004547129487896
0.76,31.222197843210576,131.01042932666576,13.156907842940631,15.606026237187503,-0.0004497235187544,31.20204712890148,0.0015652320851343,0.4489538274230412,349.27032420986166,30.509603656601893,10.100780933452617,71.87106985661063,0.0014361287749275,120.00152935703376,569.4217771013932,15.288,0,6.842785508513966,0.0896700458819647,9.059987013823344e-08,-0.017267139947084,3.289067170804739e-05,0.0014471047939559,15.606026243506363,22.51462742144296,30.50953301419676,31.20527690989616
0.77,31.2221973937041,131.01043025095447,13.412015400497,15.504367809199088,-0.0004176909510939,29.19564079161052,0.0015799725656731,0.394452184432688,331.7687666960708,30.797153367068606,10.197570032233722,71.86095837188093,0.0014929119845445,120.00158953223549,580.1916212093145,15.288,0,6.86474411836287,0.0905154368733403,9.759277321090069e-08,-0.018119853355993,3.2874490378171606e-05,0.0015328428143409,15.504367814687418,22.34274914048102,30.79708775632744,29.19830536614872
0.78,31.2221969397736,131.0104311843481,13.669888883969769,15.39440732493332,-0.0003857633063564,24.030076162204534,0.0015954861884658,0.3374536852908747,286.8734378128899,31.10213490254556,10.299804165656594,71.85035386262204,0.0015495767737363,120.00164958995954,591.7250399412135,15.288,0,6.886550662419071,0.0914120693390579,1.0491395531105126e-07,-0.0189900387006294,3.2859950410601895e-05,0.0016223242633856,15.394407329649788,22.160902696561312,31.1020743069871,24.03244552467857
0.79,31.22219648151829,131.01043212664234,13.930466688205971,15.280290558521086,-0.0003540819624762,34.04187480241502,0.0016113714521854,0.2785656576448848,373.6203323159534,31.417253537833435,10.40512824366908,71.83924634937247,0.0016061012853962,120.0017095005892,603.7610773529569,15.288,0,6.908249350435246,0.0923385038068007,1.1256919384146873e-07,-0.0198776572401435,3.284713280648966e-05,0.0017153160826133,15.280290562525844,21.974662622795044,31.41719791876883,34.0430145769354
0.8,31.222196018707752,131.01043307831267,14.19391507589796,15.184703052425398,-0.0003231238502359,34.49182297090699,0.001625168214919,0.2222000742533532,377.42502064505743,31.69666344854592,10.498714380476136,71.82762536241427,0.001662501001221,120.00176928639628,614.5324038712009,15.288,0,6.929859927939841,0.0931599948576075,1.205641372843608e-07,-0.0207838134238944,3.283609265877503e-05,0.0018094164786825,15.184703055782489,21.814969431927064,31.696612692370216,34.492538720287854
0.81,31.222195551456124,131.01043403912402,14.460161781434348,15.078785064899694,-0.0002922462687862,22.562280984015043,0.0016399744126744,0.1627853459328196,273.9374926939919,31.998306784858432,10.59929706756754,71.81548058162775,0.0017187624894475,120.00182892935176,626.2685201517978,15.288,0,6.951371221027163,0.0940468404498079,1.289047393986841e-07,-0.0217082995703778,3.282692052861684e-05,0.001907837834925,15.078785067666068,21.64241705680417,31.99826087892188,22.562868278656712
0.82,31.222195079969424,131.01043500865163,14.729071171383763,14.969175228078813,-0.0002616317714911,28.89336663344204,0.001655090634863,0.1015046095783384,328.72500443277005,32.30920433251169,10.702704371461389,71.80280154580642,0.0017748874950485,120.0018884322632,638.4808804378736,15.288,0,6.97275796958718,0.094960893536413,1.3759703760799722e-07,-0.0226507047040316,3.281970936241416e-05,0.0020099507629827,14.969175230312947,21.466060832850964,32.30916323548913,28.89354497702891
0.83,31.222194604234435,131.01043598692317,15.00065892667108,14.881215256302356,-0.0002316837899517,36.633452963079336,0.0016676508925585,0.0437660100474868,395.68750322465047,32.57541296087103,10.79150026582525,71.78957768766361,0.0018308740116296,120.00194779298349,649.0287027513048,15.288,0,6.994013550924177,0.0957436082022576,1.4664686167004462e-07,-0.0236114227255165,3.281453566162885e-05,0.0021124099136394,14.881215258065144,21.320476549657133,32.5753765680664,36.633479144668215
0.84,31.222194124141367,131.01043697416523,15.275006578379816,14.7897543164126,-0.0002019358069341,22.76056515043685,0.0016804458187135,-0.0156322559472938,275.4593748256452,32.84952703006813,10.88267579774139,71.77579858283632,0.0018867201083717,120.00200700954731,659.980103398289,15.288,0,7.015168802525685,0.0965495659187909,1.560598544925407e-07,-0.0245909918151586,3.281147698491248e-05,0.0022185020485699,14.789754317760424,21.17129395481485,32.849495310065755,22.760570580690736
0.85,31.222193640010648,131.01043796971723,15.551899261843658,14.682144281293963,-0.0001722801966839,24.78962757545315,0.001694960118589,-0.0796617531345381,292.96093233939376,33.15979272591232,10.985398402402556,71.76145377818553,0.001942423912102,120.0020660795858,672.488197749168,15.288,0,7.036206686738916,0.0974617866730761,1.65842146689243e-07,-0.0255884980154592,3.281063392491597e-05,0.0023302349997083,14.682144282282504,21.00123135682807,33.159765664202304,24.789755630047456
0.86,31.222193151659177,131.01043897395706,15.831469002798316,14.587798017884744,-0.0001430762956595,30.952189660893623,0.001707793653706,-0.1417565217951157,346.2265619465587,33.44191962834905,11.07886176230912,71.74653244473583,0.0019979835482763,120.00212500126884,683.9617102114961,15.288,0,7.057141466983548,0.0982913115496043,1.759993898938941e-07,-0.0266049671267417,3.281207896594188e-05,0.0024433483227945,14.587798018571153,20.85040844067045,33.44189715397708,30.952514318419446
0.87,31.2221926591164,131.01043998682422,16.113701114788793,14.499942225557112,-0.0001141969483958,28.850733125424973,0.0017196896837532,-0.203297423382126,327.964078366998,33.70993877649602,11.167604663672988,71.73102376827487,0.0020533972091087,120.0021837726065,694.9499819642183,15.288,0,7.077971969848293,0.0990793794916104,1.865375021124069e-07,-0.027640537769041,3.2815900711743834e-05,0.002558728104667,14.49994222599718,20.70956742965325,33.70992083848131,28.8514494380123
0.88,31.22219216242381,131.01044100823327,16.39857232393757,14.404368532528933,-8.552333293755571e-05,24.98856897181549,0.0017323261094298,-0.2676715452582843,294.4828134710418,33.995937610919135,11.262025331832495,71.71491692000372,0.0021086631482433,120.00224239165875,706.7727324232876,15.288,0,7.098683743007579,0.0999203010257905,1.974624419508808e-07,-0.0286952016258044,3.282219011615941e-05,0.0026788235597105,14.404368532777443,20.559316649240294,33.995924176945415,24.9900026073683
0.89,31.222191661672404,131.01044203799685,16.686025434234427,14.301350346152368,-5.710343491434188e-05,27.372111933983795,0.0017456970186899,-0.3349397664527597,315.028134248087,34.30003534466762,11.362181743593316,71.69820093935805,0.0021637796677358,120.00230085648197,719.4537564355185,15.288,0,7.119263543279803,0.1008144270620712,2.087802293096835e-07,-0.0297689278322861,3.2831038429881095e-05,0.002803842258393,14.301350346263966,20.400020325149157,34.300026374881035,27.37416116378998
0.9,31.22219115678412,131.01044307627612,16.976119256232792,14.219290186173316,-2.903001448541156e-05,30.19698390255456,0.0017563219198118,-0.3979236193308661,339.37814235421445,34.55542761814234,11.44641707342122,71.68086454236497,0.0022187450931723,120.00235916533757,730.1871620477633,15.288,0,7.139741846478482,0.1015654067086908,2.2049676035492538e-07,-0.0308623238721931,3.284253487272503e-05,0.0029283879604646,14.219290186202343,20.270402684842992,34.55542305811833,30.199605677932738
0.91,31.222190647837312,131.01044412290972,17.26880461264835,14.129622687272596,-1.1829034703995918e-06,23.073873079210795,0.0017676747754137,-0.4638095625217628,277.7421810230789,34.82891419329609,11.536387339395429,71.66289675637633,0.0022735578631339,120.00241731643573,741.7700815458323,15.288,0,7.16011250452102,0.1023695772606521,2.326180369670329e-07,-0.0319752636759011,3.2856774693671285e-05,0.0030579161915138,14.129622687272658,20.13146525335047,34.82891400748605,23.078534210614187
0.92,31.222190135051967,131.01044517744407,17.56393563711824,14.03268880850818,2.638422733944868e-05,27.39604778972752,0.0017797424323721,-0.5326691069614161,315.02813424806214,35.120448472513765,11.632108780843776,71.64428648533676,0.0023282164735874,120.00247530789336,754.2185991878603,15.288,0,7.180365849379503,0.103226802184898,2.451503661256095e-07,-0.0331070834323324,3.2873851982908806e-05,0.0031925681381678,14.032688808532487,19.983648497808137,35.1204526169385,27.401225776268262
0.93,31.222189618332607,131.01044624007628,17.861582124472683,13.95456177568864,5.373544369313412e-05,32.513316552548545,0.001789217691068,-0.5973462956013902,359.1625070654728,35.36594363187805,11.712772247820569,71.62502252440011,0.0023827194774945,120.002533138225,764.777703308968,15.288,0,7.2005121069645455,0.1039487161156179,2.580993773676562e-07,-0.0342585316753082,3.289385991558732e-05,0.0033266015027268,13.954561775790031,19.86253671125394,35.3659520726218,32.518803468830086
0.94,31.22218909756185,131.01044731104855,18.16182789961189,13.860457738317676,8.07901181362113e-05,23.710259708384427,0.0018005004341637,-0.6674586801342377,283.0687504837787,35.65102993575702,11.806178769613185,71.60509378873829,0.0024370655170411,120.00259080606104,777.1347969643267,15.288,0,7.220550927983408,0.1047870059227413,2.714707390688406e-07,-0.035430123154784,3.291689689421792e-05,0.0034679993167925,13.8604577385485,19.720636968807742,35.651042626239104,23.719652606446967
0.95,31.222188573054293,131.01044838971237,18.464462687043028,13.76922107011132,0.000107584078548,30.59193805994568,0.001811200293636,-0.7377977950295205,342.4218736174873,35.929262839607055,11.89727529977258,71.58448879558769,0.0024912532720347,120.00264830960528,789.2892434885891,15.288,0,7.240474228574784,0.1056051603880172,2.852710543540292e-07,-0.036620946534727,3.294305589685324e-05,0.0036124305749864,13.76922107052352,19.5836488822733,35.9292797388746,30.60083369992311
0.96,31.22218804449391,131.01044947671943,18.769705398228364,13.687472271785696,0.0001342174287094,29.98294073073248,0.0018204173904174,-0.8063147273436712,337.09533515678345,36.18306366182048,11.980316529521849,71.56319608386212,0.002545281497809,120.00270564781788,800.4560861394069,15.288,0,7.260297386139807,0.1063515112798467,2.995055496891121e-07,-0.0378325431342049,3.2972444755604045e-05,0.0037581990417573,13.687472272431163,19.460622535417755,36.18308474464489,29.993780715609486
0.97,31.22218751190291,131.0104505720242,19.07754424042915,13.601783575518724,0.0001605913334636,19.31963148063675,0.0018298936429312,-0.8769659540696181,245.02188719299323,36.44667309084854,12.066445037998085,71.54120394015708,0.0025991490096075,120.00276281935652,812.137905022035,15.288,0,7.280018376759406,0.1071267006188481,3.141803749348242e-07,-0.0390650312439883,3.300516855683293e-05,0.0039087881433488,13.601783576448868,19.333207021956877,36.446698316476215,19.33952515396173
0.98,31.22218697559392,131.01045167498208,19.38777022486901,13.501268999548223,0.0001865201210065,27.96957588272424,0.0018411099761944,-0.9533233066695443,319.5937466429581,36.74957818951222,12.165311689411704,71.5185006662154,0.0026528547141145,120.00281982266128,825.6686123683465,15.288,0,7.299623892249478,0.1080173993327622,3.2930241047740013e-07,-0.0403172464716312,3.304131732586689e-05,0.0040674886253716,13.501269000812682,19.186491592068325,36.74960748802432,27.985817904363536
0.99,31.222186435407245,131.01045278592247,19.70049522676944,13.427174764220773,0.0002125672089123,30.535504090327684,0.0018485092532638,-1.02223172113215,341.6609485517054,36.98177750375786,12.241047430872914,71.49507428298244,0.0027063975722116,120.00287665673582,836.1103056140304,15.288,0,7.319128588602371,0.1087002823326938,3.4487722991881413e-07,-0.0415903131807929,3.308100615376506e-05,0.004222309384557,13.427174765872454,19.0768577669016,36.98181089373696,30.552609891122135
1.0,31.22218589134077,131.0104539048498,20.01572292027437,13.338670862212124,0.0002381765736942,27.36557228946735,0.0018575805445228,-1.0967679915286044,314.2672081822764,37.25225059610074,12.32919046597082,71.47091327371112,0.0027597766833502,120.00293332055833,848.3594392645998,15.288,0,7.338526536636317,0.1094956714932769,3.609108583317731e-07,-0.042884227006054,3.312434098144873e-05,0.004385378001105,13.338670864300038,18.948479340670637,37.25228800878944,27.387541879619473
1.01,31.22218534358985,131.0104550313614,20.33332398310805,13.253153936422212,0.0002635936280088,28.60807803562705,0.0018659682645689,-1.171286528612137,324.9203161036979,37.51423794993796,12.414509615195604,71.4460056602377,0.0028129911962648,120.00298981294527,860.3078276165926,15.288,0,7.357813101401691,0.1102661270168583,3.774098513049465e-07,-0.044198464704711,3.317141812870903e-05,0.0045514208662119,13.253153938996604,18.82512532183273,37.514279355128224,28.632045761811582
1.02,31.222184792071047,131.0104561656294,20.65335708907577,13.171921454940827,0.0002888707781274,23.93427647292956,0.0018734690760567,-1.2452571942904835,284.59063161540416,37.76368207582858,12.495668805058882,71.42033963792571,0.0028660403675396,120.00304613312484,871.7599898544264,15.288,0,7.376993068415075,0.1109997224920007,3.9437991944711204e-07,-0.0455335882893604,3.322235321973692e-05,0.0047199407105082,13.171921458052408,18.708572523576148,37.7637274515443,23.966648895338874
1.03,31.222184236857068,131.0104573075038,20.975775010708592,13.081148859390815,0.000313706572547,19.61107357475104,0.0018820111755143,-1.3235759370179263,247.30469339049705,38.0395389246361,12.585427630869187,71.39390345246247,0.0029189235558153,120.00310228026332,884.5152127863327,15.288,0,7.396066565540399,0.1118109621244451,4.118272368185425e-07,-0.0468894114547367,3.327724988521681e-05,0.0048958365578681,13.081148863086852,18.57987743403498,38.039588201549286,19.655687816947985
1.04,31.222183678013703,131.0104584568491,21.30053566527089,13.000329824868352,0.0003385406233158,31.013177460500497,0.0018888488722902,-1.3992866310920362,345.46563688072297,38.286459737220405,12.665674474640122,71.36668495563586,0.0029716401842658,120.0031582536011,896.0075957360658,15.288,0,7.415036177363824,0.1125371576122011,4.297580022015494e-07,-0.0482659593839285,3.333621592263365e-05,0.0050721196661304,13.000329829200384,18.46572525275339,38.28651291505716,31.04472874483201
1.05,31.22218311523136,131.01045961430367,21.62784843483813,12.911939442865886,0.0003629675485768,18.823374199472184,0.0018964452513,-1.4787641140923102,240.45625879819983,38.554565106856046,12.752813198609989,71.33867212722286,0.0030241897834623,120.00321405289388,908.5717625764684,15.288,0,7.433912022627909,0.113325630661826,4.481772362943527e-07,-0.0496647953821338,3.3399402198052095e-05,0.0052555012529166,12.911939447880924,18.34211649319409,38.55462212166525,18.88137079650169
1.06,31.22218254876441,131.01046077934296,21.95754397455373,12.817274353343604,0.0003869684304111,26.6946889538861,0.0019046403747085,-1.561752676663391,308.17968365593924,38.84092616523667,12.845932043242769,71.3098524332955,0.003076571954301,120.00326967736396,922.0893782100904,15.288,0,7.452685890353152,0.1141677727918112,4.670921057449238e-07,-0.0510849394829937,3.346689824149965e-05,0.0054457586779035,12.817274359087335,18.210791968450923,38.840986950095576,26.740334578973552
1.07,31.222181978486084,131.01046195222847,22.289708884921424,12.738533610856772,0.0004112176499098,31.386713176676583,0.0019101938128005,-1.6395327564333648,348.5093681440308,39.07920126943768,12.923219624152347,71.28021306688989,0.0031287863817616,120.0033251267308,933.4076723481736,15.288,0,7.471362775948242,0.1148685815529662,4.865083653773262e-07,-0.0525273865362984,3.353884817630242e-05,0.005633697809305,12.738533617384398,18.102221782896283,39.07926586335508,31.429505808129118
1.08,31.222181404284385,131.01046313319097,22.624418483771898,12.656845588954578,0.0004351830321608,21.22121794228872,0.0019158205959851,-1.71938341716372,261.00157857466235,39.325099091336966,13.002969374284932,71.24974147200372,0.003180832880107,120.00338040083284,945.1607927994828,15.288,0,7.489947735296114,0.1155918050286367,5.064319409407837e-07,-0.0539927292119094,3.361539211643137e-05,0.0058271100439204,12.65684559631402,17.990517283305756,39.32516744972781,21.29075794704601
1.09,31.222180826454327,131.01046432162232,22.96147621719753,12.55907270686057,0.0004583620657907,19.543310802111144,0.0019234892204252,-1.806887458479466,246.54375332474407,39.61970048222265,13.098773428709476,71.21842496922821,0.0032327113721134,120.003435499184,959.3439969991864,15.288,0,7.508429865269771,0.116458196381999,5.26870371433493e-07,-0.0554796462652973,3.36966076119955e-05,0.0060322443387491,12.559072715090457,17.857585137367163,39.61977248156757,19.626661537188014
1.1,31.222180245075904,131.01046551735757,23.30082967648653,12.470186547661804,0.000481600601643,38.92770580644872,0.0019295016725628,-1.8918091692702403,413.1890617385841,39.886541177112605,13.185451470841391,71.18625075883166,0.0032844218858379,120.00349042163928,972.2782819664308,15.288,0,7.526812662034518,0.1172429972308193,5.478300626448328e-07,-0.0569881147874888,3.378261092103136e-05,0.0062377873413157,12.470186556814228,17.737727308220897,39.88661682675821,38.97364782785072
1.11,31.22217965970989,131.01046672130207,23.64277123841452,12.398467967858243,0.0005053099535931,28.57805669373847,0.0019325445278546,-1.97019438070411,324.1593910376397,40.097895324861966,13.253767731958984,71.1532058180563,0.0033359645480852,120.00354516871516,982.5772880190324,15.288,0,7.54511335562765,0.1178647090603871,5.693154484438902e-07,-0.0585205817640437,3.387361787139572e-05,0.0064392582822333,12.398467977994176,17.642399307524137,40.09797469876386,28.645889653194864
1.12,31.222179070418967,131.0104679333265,23.987257876302568,12.295689421551964,0.0005275614480328,10.96180729924266,0.001939916492948,-2.063345166878064,172.73281794065943,40.40726397434429,13.35449924338255,71.11927736577312,0.0033873396244356,120.0035997405336,997.7645848550987,15.288,0,7.5633239995118675,0.118774536374908,5.913333735438533e-07,-0.0600766897043352,3.39697484597747e-05,0.0066612648485792,12.29568943269555,17.505177255003606,40.40734684350276,11.154309315537413
1.13,31.222178477843,131.01046915211202,24.33386641764696,12.210259850486151,0.000550275394539,33.635725335022535,0.0019442851215555,-2.1497865709653485,367.5328077900705,40.66032470661288,13.436660655938756,71.0844516150211,0.0034385474581709,120.00365413667782,1010.2675905007976,15.288,0,7.5814326268910595,0.119518859506518,6.13893207701249e-07,-0.0616535977333166,3.407100933895115e-05,0.0068786952603443,12.210259862697429,17.39269352640763,40.66041114366973,33.70435587418969
1.14,31.22217788125632,131.01047037915416,24.683075749701192,12.13692188221574,0.0005733549560875,18.757964827050348,0.0019463684139251,-2.2314436832690445,239.69531773195544,40.87194675004288,13.50505549406914,71.04871585703047,0.0034895885576128,120.00370835837144,1020.7768585511144,15.288,0,7.5994628218990945,0.1201413846930329,6.369976059443948e-07,-0.063255207224272,3.41776987506986e-05,0.0070938800646121,12.136921895555403,17.297796077929124,40.872036812428775,18.89022469831445
1.15,31.22217728118273,131.0104716133731,25.034538057044774,12.032525456477956,0.0005947549326608,18.493025208662736,0.0019528892663528,-2.328911907870717,237.41251153546767,41.18580150338632,13.60747314817654,71.01205736582111,0.0035404635673176,120.003762405638,1036.479102682399,15.288,0,7.617392976117139,0.1210644278419638,6.606556681482206e-07,-0.0648786524867107,3.428982036173384e-05,0.0073315688308733,12.032525470960264,17.160846803786495,41.18589492727268,18.63909375094814
1.16,31.22217667776933,131.01047285446583,25.38815683385541,11.962407493405536,0.0006175912289006,47.92277703359368,0.0019536392863163,-2.410642393742125,490.0437743845894,41.38316159280815,13.671209570399316,70.97446244315013,0.0035911732168435,120.00381627899591,1046.4008600100271,15.288,0,7.635230547813953,0.1216450473476578,6.848741011521695e-07,-0.0665237401615829,3.440748885414192e-05,0.0075532376009229,11.962407509115607,17.072123385307922,41.383258603811534,47.9833696105093
1.17,31.222176070057216,131.0104741044081,25.744559218679985,11.876088075626363,0.0006394572338441,8.743085353669262,0.0019564841079689,-2.5012273746102345,153.70937929486794,41.63351600570667,13.752570120276207,70.93591839260331,0.0036417183927716,120.00386998031684,1059.0636554608664,15.288,0,7.652998627248999,0.1223814518010894,7.096542937946163e-07,-0.0681955603759749,3.453110124455068e-05,0.007789635646409,11.876088092594568,16.961902045149877,41.63361645141407,9.093826681264364
1.18,31.222175459297564,131.0104753606215,26.102922472303025,11.768386389108256,0.0006599031403474,23.46213129607548,0.0019623467601536,-2.603981090441545,280.02501822196746,41.95764961006491,13.858711835929052,70.89641181257666,0.0036921001117581,120.00392350923458,1075.5812912855456,15.288,0,7.670659474062599,0.1233347392393981,7.350096783718657e-07,-0.0698872341344178,3.466043648801381e-05,0.0080447399073994,11.768386407349103,16.822835730128585,41.9577532674078,23.606192541883292
1.19,31.222174844919383,131.01047662428252,26.463619961275107,11.708190634168492,0.0006827754233993,40.76219649139952,0.0019601449774288,-2.6826712566938924,428.4078130529292,42.1134519325709,13.908635674072864,70.85592891183194,0.0037423194987509,120.00397686745607,1083.5465406709643,15.288,0,7.688243470754675,0.1237932249318023,7.609426503228772e-07,-0.0716026704697615,3.479583545161009e-05,0.0082725236188082,11.708190653799006,16.750531054507245,42.1135591826836,40.850378109842794
1.2,31.22217422642464,131.01047789641703,26.826971806816303,11.610041221551532,0.0007033125395901,4.477490566216489,0.0019635819308718,-2.7825037665075807,117.1843741360236,42.40165058223632,14.002902869014092,70.8144571962302,0.0037923778476013,120.00403005678685,1098.3892032924775,15.288,0,7.705752632155126,0.1246409009849054,7.87457161386449e-07,-0.0733442070377001,3.4937583656888155e-05,0.008531421063568,11.610041242561785,16.626427671558535,42.4017610583117,5.271646122117884
1.21,31.2221736050742,131.01047917442708,27.19215505216179,11.514014853836386,0.000723689476538,32.785983911850465,0.0019662621397152,-2.8823219449136768,359.92343213200894,42.68178644410341,14.09467170458216,70.77198264730235,0.0038422765743943,120.00408307727308,1112.9116063405831,15.288,0,7.723129419112824,0.1254648856858856,8.145671162483234e-07,-0.0751049445761787,3.508541177874856e-05,0.0087936399530416,11.514014876272398,16.506063762898442,42.68190012098056,32.91243723470559
1.22,31.22217297989594,131.01048046031525,27.55979901209041,11.45026210915921,0.0007459019385471,23.823245061292383,0.0019631650630146,-2.9646144469458293,283.0687504825761,42.84163189434604,14.146053250170684,70.7284920944736,0.0038920172316649,120.00413593150442,1121.2234373897454,15.288,0,7.740433677097941,0.1259352805550194,8.422719505876559e-07,-0.0768909554835003,3.523982811915411e-05,0.0090361511444466,11.450262133130009,16.431540281860155,42.84174906034856,24.00699789485243
