Time,Latitude,Longitude,Altitude,Angle of Attack,Angle of Sideslip,X-Acceleration,Y-Acceleration,Z-Acceleration,Thrust,True Velocity,Ground Velocity,Pitch,Roll,Yaw,Dynamic Pressure,cp,cg,parachute_deploy_gain,Wind Speed,Wind Direction,Mach,omega_x,omega_y,omega_z,Cmq,Angle of Attack(total),Angle of Attack(gust),True Velocity(gust),Acceleration
0.0,31.222216000000007,131.010392,3.000000004412624,0.0,0.0,0.0,0.0,0.0,2.2828121974499247,0.0,0.0,69.99999999623412,0.0,119.9999999935444,0.0,1.274,1.0271675151847728,0.0,0.0,0.0,0.0,0.0,0.0,0.0,-0.0,0.0,90.0,0.0,0.0
0.01,31.22221599999084,131.01039200000497,3.000002745347096,0.0,0.0,0.0,0.0,0.0,34.242186961749226,3.465174813755316e-14,2.8705476994166025e-14,69.9999999962611,-2.1713911667908447e-11,119.99999999352175,7.352495975525499e-28,1.274,1.0271659134330349,0.0,0.0,0.0,1.0183245502395064e-16,-3.3305335486039093e-18,7.169286865560398e-18,5.624298769768554e-18,-7.715917190115602e-34,0.0,89.99999999999979,3.465174813755316e-14,0.0
0.02,31.222215999994315,131.0103920000094,3.0000030495639742,0.0,0.0,0.0,0.0,0.0,25.871876237766216,3.8197434737535036e-11,2.4171837235633357e-11,69.99999999628672,-1.1921727947863515e-11,119.99999999353136,8.93414285188691e-22,1.274,1.027164492361118,0.0,0.0,0.0,1.1225230367947217e-13,-6.657678965418802e-18,1.4338573731120796e-17,1.1241821275959074e-17,-1.7010872994127372e-30,0.0,89.99999999975682,3.8197434737535036e-11,0.0
0.03,31.222215999994315,131.0103920000094,3.0000030495639742,0.0,0.0,9.81877837424427,-2.5122800045972096e-05,3.3498614629347925,180.34219359854663,1.2659015405517447e-10,1.1364406173918436e-10,69.99999999631459,-1.6431898037347223e-11,119.99999999352724,9.812605835254651e-21,1.274,1.0271551940870716,0.0,0.0,0.0,3.720154642239108e-13,-9.991600645811728e-18,2.150108433310316e-17,1.6859343782149594e-17,-8.453698244545225e-30,0.0,89.99999999919412,1.2659015405517447e-10,10.374487003414373
0.04,31.222215999994315,131.0103920000094,3.0000030495639742,18.83801224594347,-0.0001111777826462,48.68248476615645,-1.016330065874988e-05,3.3497854396877287,548.635972453808,0.1556173050466994,0.0975908358443652,69.99999999633813,-2.0932768807056278e-11,119.99999999352085,0.0148286043323172,1.274,1.027133720825283,0.0,0.0,0.0,0.0004573186944143,-1.3322134194415637e-17,-1.04744143520903e-11,1.336824254131964e-11,5.0626055458604615e-15,18.83801224625964,89.06236267790787,0.1555998412814392,48.79759610369246
0.05,31.22221599164764,131.01039201704114,3.002326315126219,5.772385609593056,-4.395076213712875e-06,71.20344550265034,4.905512691849684e-05,3.349217396035405,761.6984298824663,0.8326471944351852,0.3620326097059287,70.00000001316391,-1.0866255162484559e-10,120.00000000231074,0.4245281043148827,1.274,1.027093426565204,0.0,0.0,0.0,0.0024469331205246,-5.0245994431125096e-18,-7.32924164976824e-07,2.217344936947165e-11,1.895424184525467e-09,5.772385609594774,84.74112356985832,0.8326465040582279,71.28217104309611
0.06,31.22221596664444,131.01039206837547,3.015081730143309,4.056581213689704,3.169093567502233e-05,53.16249142470188,0.0001203825427859,3.3481235983850643,590.4875390737236,1.657216205300742,0.6755452977614796,69.99999964391398,-3.9285905645317736e-10,120.0000000287861,1.6816755551786196,1.274,1.027050317124926,0.0,0.0,0.0,0.0048701272653724,3.095757869075056e-13,-7.483541766772344e-06,3.074135420506017e-11,3.8518749565858254e-08,4.056581213813337,79.59316473687034,1.657221183301277,53.26781792157489
0.07,31.22221592883117,131.0103921460222,3.034593611434361,4.115662018628709,6.450869598349036e-05,81.18203554989698,0.0001593212642178,3.347059402768047,855.2937749779172,2.099899704220947,0.8579771146174259,69.99999543281565,-8.233801910783518e-10,120.00000006883089,2.700101932075157,1.274,1.027003201295312,0.0,0.0,0.0,0.006171060252819,3.4704292086287e-12,-2.6327204536316785e-05,1.9541142932033486e-10,1.7170712165327165e-07,4.115662019133419,76.90111966094352,2.099909837223217,81.2510043180746
0.08,31.22221588914193,131.01039222747755,3.0542761843835606,3.459696193892355,8.037433511260004e-05,16.298214211652088,0.0002413456836072,3.344878926597744,241.2171988638792,3.051964775152957,1.2149999716613011,69.99998042886442,-1.0128995578004475e-09,120.00000011111383,5.703497661025892,1.274,1.0269597189470347,0.0,0.0,0.0,0.0089689344021769,1.458982438104473e-11,-5.702803872814215e-05,7.043261397829576e-10,5.405702492731987e-07,3.459696194824858,71.30331929508368,3.051977400323993,16.63790856991177
0.09,31.2222158241468,131.01039236098703,3.0886872184095737,4.313676956300389,0.0001337561018991,50.35975918308536,0.0002293282821279,3.344215841840564,563.0937377043203,2.893161298572128,1.191209213966114,69.99994788602814,-7.098432023887522e-10,120.00000018106356,5.125380275808925,1.274,1.026918932011013,0.0,0.0,0.0,0.0085022553945842,3.8672912027154325e-11,-0.0001115933708951,2.016054215232918e-09,1.0027525988343615e-06,4.313676958370176,72.2316578138625,2.893182308931483,50.47067588835877
0.1,31.2222157788302,131.01039245392113,3.109877853389092,4.035124630954496,0.0001457499816535,47.804664812504015,0.0002878217657545,3.341734392237128,538.7437595981891,3.5677148583138303,1.4531247507621967,69.99988403958329,1.9248461973355822e-09,120.0000002323013,7.7939962029572305,1.274,1.0268846934974103,0.0,0.0,0.0,0.0104845969583028,8.579678749070606e-11,-0.0001726817043215,3.984565639703107e-09,1.913455350430327e-06,4.0351246335824245,68.43243098813296,3.567737752667411,47.92132267234452
0.11,31.222215703308,131.01039260899836,3.148841432727305,4.043401107254707,0.0001752764476999,37.67622367577205,0.0003286462930162,3.3392563999062723,442.86563930529127,4.034183355956686,1.6436552022667772,69.99978525353545,7.302513231814865e-09,120.00000031883242,9.96528118825134,1.274,1.026848594915519,0.0,0.0,0.0,0.0118554331868328,1.5870341853361987e-10,-0.0002596204409236,7.232030302688121e-09,3.252930323390323e-06,4.04340111104746,65.92012987243639,4.034210888316708,37.82391391539392
0.12,31.222215627491828,131.01039276462643,3.186995101203875,4.17874459224363,0.0002066711490009,41.15991989399172,0.0003576945202315,3.336766085769504,475.58594813540793,4.361857560629481,1.7865750500940407,69.99963665601238,1.781774420198147e-08,120.00000041104812,11.649831899889556,1.274,1.0268114448194128,0.0,0.0,0.0,0.0128183893919737,2.682972478760441e-10,-0.0003710216542429,1.2215991071490164e-08,5.026311388647148e-06,4.178744597345269,64.21681651392016,4.361890024457652,41.29495143136631
0.13,31.22221554594398,131.01039293200228,3.2277173449026786,4.202734874672792,0.0002327160860324,45.44886120763352,0.0003953741266062,3.333578629398489,515.9156326236897,4.792165672014363,1.9646716520715424,69.99942424225341,3.613383418913551e-08,120.00000051758742,14.061726603124043,1.274,1.026779572895131,0.0,0.0,0.0,0.0140829618979635,4.248908088871395e-10,-0.0005056103199642,1.908859219307828e-08,7.5253154423526356e-06,4.202734881104192,62.048594618540655,4.792202226971676,45.570952718869485
0.14,31.222215454191247,131.01039312033683,3.2737880595608355,4.184830647080848,0.000257138757548,42.32232525579263,0.0004369426767266,3.329727443445437,486.2390860568421,5.269261304374574,2.158791628597544,69.99913473613935,6.515851355725497e-08,120.00000064630268,17.000925061330125,1.274,1.0267449573927567,0.0,0.0,0.0,0.0154850332441425,6.382432869666793e-10,-0.0006690086306358,2.8426433029675884e-08,1.0948547100483978e-05,4.184830654966803,59.74181173116622,5.269301695636157,42.45310707234106
0.15,31.222215353826755,131.0103933263496,3.3242182719560263,4.21963947489699,0.0002846467688673,40.886944113003565,0.0004726792395108,3.325585650885676,472.5421858721398,5.6781946837482895,2.329510773545807,69.99875162806286,1.0876776246115984e-07,120.00000079954532,19.742017654108928,1.274,1.0267115958081523,0.0,0.0,0.0,0.0166867950518804,9.204756288136623e-10,-0.000865746478554,4.08948221429571e-08,1.526771148078443e-05,4.219639484480408,57.84996018384879,5.678239395958187,41.02196629910223
0.16,31.222215247130432,131.01039354534575,3.3775922280208457,4.253495568077899,0.0003118339050386,32.26872905470846,0.0005078415214353,3.32090791922544,391.1218908297597,6.081244877834229,2.4981889727471702,69.99825581174558,1.7187028096464329e-07,120.0000009800088,22.644030778355887,1.274,1.026675762255412,0.0,0.0,0.0,0.0178712695992133,1.2856146928958252e-09,-0.0010961187242953,5.6923362293832417e-08,2.0702404729358337e-05,4.253495579487569,56.06022383757386,6.081293860589489,32.43916312841722
0.17,31.22221513260033,131.01039378041813,3.4348437275053194,4.364838523348639,0.0003448792023946,40.840448242802736,0.0005326487904353,3.3162727284953744,471.78125980632416,6.362544479165355,2.6250789114832647,69.99762801982864,2.5997588617291615e-07,120.00000119506798,24.78723182122683,1.274,1.0266409836796937,0.0,0.0,0.0,0.0186979513961862,1.747791994374917e-09,-0.0013624931601664,7.706724512977917e-08,2.6923621797558364e-05,4.364838536947241,54.85936171416122,6.362598652663785,40.97486885600156
0.18,31.222215014088988,131.01039402363364,3.4935801365785646,4.353948305387995,0.0003681615230806,33.992183768165326,0.0005718025428208,3.310131992647221,407.1015672119096,6.81502088160835,2.810667639293692,69.99684761766231,3.794979223522764e-07,120.00000144728236,28.437950785509614,1.274,1.0266048342046536,0.0,0.0,0.0,0.020027681385988,2.3221419748804155e-09,-0.0016616990447559,1.0147209890543081e-07,3.517105786247627e-05,4.353948320923495,52.99157233768714,6.815078712285162,34.152972512863755
0.19,31.22221488419521,131.01039429023237,3.558399965607869,4.432620772533925,0.0003996774584738,38.45149959021069,0.0005986099513107,3.304145139297767,448.95313283182486,7.1223367465208405,2.946425726785696,69.99589577323147,5.440084577183829e-07,120.00000176148238,31.060341085698347,1.274,1.026566130444714,0.0,0.0,0.0,0.0209308229359413,3.022391489754689e-09,-0.0020041563310821,1.3135864879722746e-07,4.433199397898183e-05,4.432620790516937,51.77883352025967,7.122399527709208,38.59320142454953
0.2,31.222214751373183,131.01039456280608,3.624052454705669,4.443889400961181,0.0004246617145652,35.23432408779927,0.0006337972852267,3.2968110145188256,418.5156301991588,7.530482904611057,3.1167566004785483,69.99474776398331,7.478025600151903e-07,120.00000211715036,34.72195181863731,1.274,1.026529240027363,0.0,0.0,0.0,0.0221302820454282,3.866698391504749e-09,-0.0023849544920781,1.668144671071589e-07,5.57780533277244e-05,4.443889421210987,50.22448880200342,7.530549610317194,35.38822625098952
0.21,31.222214608673173,131.01039485566503,3.6948551453492566,4.493351735844891,0.0004538195602194,33.79371564104691,0.0006629296043866,3.2891790438445727,404.8187610144608,7.868284042829251,3.2629204975089228,69.99338155599101,1.0150082652278477e-06,120.00000255293388,37.906665490338085,1.274,1.0264923657015164,0.0,0.0,0.0,0.0231230169900677,4.871073773182836e-09,-0.0028117605859743,2.089322918608601e-07,6.870935089180403e-05,4.493351758715364,48.992529909481824,7.868355328639073,33.95340801819282
0.22,31.22221446109996,131.01039515850383,3.767700382407304,4.5412639153933885,0.000482649303782,41.008966751568416,0.0006914639179131,3.2808061382386606,472.5421858721387,8.20057841132235,3.4071691679735228,69.9917708347139,1.3454961520984431e-06,120.00000305929996,41.175744234065135,1.274,1.0264494137127138,0.0,0.0,0.0,0.0240995709751246,6.054779813287368e-09,-0.0032829112061357,2.580881224843564e-07,8.3609968899004e-05,4.54126394098788,47.82515604752711,8.2006542256977,41.13999323561041
0.23,31.22221430675399,131.0103954752338,3.843768625625224,4.52371495179584,0.0005047555656171,33.98493478127787,0.0007294889663961,3.2705214710765107,406.340642146096,8.647938096586296,3.5908865300848416,69.98989017772566,1.7539876018835507e-06,120.00000365514876,45.79040229326471,1.274,1.0264133390858623,0.0,0.0,0.0,0.0254142776666487,7.436335125872812e-09,-0.0038001790077148,3.1489825108822685e-07,0.0001020628978177,4.523714979897577,46.31461705147579,8.648017383405135,34.14194053232237
0.24,31.222214142622448,131.0103958120587,3.92493179063287,4.57837522350066,0.0005351929930195,35.051650311058864,0.0007555049947555,3.26053011385611,416.2328240017099,8.954297884844461,3.72617527247482,69.98771316795013,2.25257161141768e-06,120.0000043564586,49.09180568115741,1.274,1.0263750048312463,0.0,0.0,0.0,0.0263146218848643,9.034877387788232e-09,-0.0043732521010013,3.809642748985157e-07,0.00012161410144,4.578375254714954,45.32798984252032,8.954381952763216,35.20297212911011
0.25,31.22221397517227,131.0103961556623,4.0071748888306855,4.6034117733065,0.0005618935542827,36.03738579534623,0.000785606492708,3.249069743648399,425.3640807915084,9.311611941121669,3.8789349536029696,69.98520781816889,2.8559738498748624e-06,120.00000517181904,53.08749562138344,1.274,1.0263373768840591,0.0,0.0,0.0,0.0273647110956883,1.0873791100894836e-08,-0.0049950711786164,4.5609738277273444e-07,0.0001444478241125,4.603411807525074,44.2165428352526,9.311700203154778,36.183554686886296
0.26,31.22221379934012,131.01039651647062,4.09364247475714,4.621386912291471,0.0005881033207375,39.29107511182762,0.0008162761165496,3.236407051295005,455.80158342417656,9.67833954512075,4.034902068846398,69.98234620927953,3.5784678110229355e-06,120.00000612171208,57.350948423913096,1.274,1.0263006300381676,0.0,0.0,0.0,0.0284424679130479,1.2973286442992724e-08,-0.0056712051373577,5.414206381221602e-07,0.0001704578711045,4.621386949630312,43.12063533194282,9.678431924174348,39.42414126789902
0.27,31.222213616776543,131.01039689108487,4.183310605341074,4.617158109135719,0.0006115457810536,35.90419462403674,0.0008503454714941,3.221982799915672,423.8421996598744,10.088790784535757,4.205862468567124,69.97909721779352,4.436165972465058e-06,120.000007221354,62.31798301949865,1.274,1.026260090595354,0.0,0.0,0.0,0.0296487219805601,1.5355910600537293e-08,-0.0064045199323113,6.379142666348734e-07,0.0002006609239367,4.617158149547818,41.94410287616451,10.08888684592241,36.048472443180565
0.28,31.22221342607797,131.0103972823952,4.277051150896916,4.642105655370123,0.0006389739579882,41.51133203546672,0.0008785747638736,3.2071101123224945,476.3468732012228,10.432377224420517,4.35383399240675,69.97542808435722,5.446665372087172e-06,120.00000849080963,66.63429581008447,1.274,1.0262212716723291,0.0,0.0,0.0,0.0306584788590473,1.8045308789081613e-08,-0.0072006835403936,7.469524967369969e-07,0.0002332868227611,4.642105699250441,41.0023231023774,10.432477594215127,41.63503624837164
0.29,31.22221323001776,131.01039768469093,4.373143569786686,4.62134615173668,0.0006600657405645,33.17552944492765,0.0009148746278066,3.1894209319791806,397.9703104221098,10.876662296046485,4.536381530986506,69.9713027936179,6.629751536885327e-06,120.00000994797426,72.43000748232016,1.274,1.026183007522519,0.0,0.0,0.0,0.0319641703260467,2.1067646517035105e-08,-0.0080566154554079,8.688043379161898e-07,0.000272130659453,4.621346198772975,39.83162628795024,10.876765978930557,33.32848872465723
0.3,31.22221302403368,131.01039810736614,4.4744193758467325,4.664362353358112,0.0006905183788532,31.08096762732793,0.0009381960428197,3.172549142946348,378.1859457108735,11.168362145070317,4.66647911311536,69.96668711012893,8.005507138509574e-06,120.00001161892672,76.36634300732833,1.274,1.0261430389738484,0.0,0.0,0.0,0.0328214509167604,2.4447409007156216e-08,-0.0089829108229115,1.0056222251461646e-06,0.0003115527202986,4.664362404357781,39.09908960432563,11.168470611443622,31.242464973103964
0.31,31.22221281503337,131.01039853619727,4.576593712520673,4.700143580504286,0.0007196683316923,32.79732593144512,0.0009620705970519,3.154230688182399,394.1656220930229,11.470279728974068,4.800072153432283,69.96154070456518,9.597499105113692e-06,120.00001352112182,80.55022837857167,1.274,1.0261054058068628,0.0,0.0,0.0,0.0337087616009043,2.8214060606649844e-08,-0.0099686353219717,1.1565909895184251e-06,0.0003550834484269,4.700143635477137,38.36463422765983,11.47039277421126,32.94865339301887
0.32,31.222212598991007,131.01039897947376,4.68216432480395,4.718667719113184,0.0007464384342556,35.7316568886908,0.0009885845337584,3.133859770838664,421.5593934624264,11.808280530415894,4.946054328851105,69.95582953472353,1.14278227255889e-05,120.00001568218067,85.36654007972253,1.274,1.026068246703101,0.0,0.0,0.0,0.0347021168382987,3.2392058795580455e-08,-0.0110163301561155,1.3226102501723267e-06,0.0004039614423012,4.718667778018562,37.5686120062341,11.808397780690962,35.8688218659563
0.33,31.222212376029034,131.0103994369436,4.791055524254013,4.72141404831576,0.0007708346814671,35.42013590291081,0.0010176135371143,3.1111955852784385,418.5156301991632,12.181577273013426,5.104163223586657,69.94951809396906,1.351997394754887e-05,120.00001812674968,90.84831229869296,1.274,1.0260310883392356,0.0,0.0,0.0,0.0357992034445943,3.700677535501642e-08,-0.0121310534481307,1.5051409581878843e-06,0.0004588955105349,4.721414111097893,36.7208578211118,12.181698355442045,35.55651229220977
0.34,31.222212145785647,131.0103999093516,4.903491659547144,4.73024573449122,0.0007962944975467,27.63851074646407,0.0010446307681611,3.0871492806781062,345.4656368807584,12.53557620048282,5.2556261014174765,69.94256797855994,1.5899658158227497e-05,120.000020882338,96.20413272674828,1.274,1.0259901535019136,0.0,0.0,0.0,0.0368395817555172,4.208561016221623e-08,-0.0133180771902383,1.7057647550599631e-06,0.0005184333231541,4.730245801363397,35.94841996438923,12.535701282129995,27.810389570354005
0.35,31.222211909310875,131.01040039453565,5.018822212845608,4.780248518778662,0.0008286678570753,30.332092807652543,0.0010618579815451,3.063967690608957,370.5765700527057,12.774786382148209,5.367579971644358,69.93493776125636,1.8594985713558667e-05,120.00002397748868,99.9096898192772,1.274,1.025950003202184,0.0,0.0,0.0,0.0375426220587071,4.7658312175989686e-08,-0.0145774693288123,1.9252724355785177e-06,0.0005782798420984,4.780248590437683,35.44790728185619,12.774916548990808,30.486451961956565
0.36,31.22221166933814,131.0104008868675,5.135354490370708,4.798132156899578,0.0008554457330409,34.32674769697476,0.0010851169437774,3.0374319611165923,407.8625232777224,13.09301701329486,5.506730645516068,69.92658597246795,2.163521613217148e-05,120.0000274401514,104.94818266210537,1.274,1.0259105142325406,0.0,0.0,0.0,0.0384778908056978,5.3755109608570216e-08,-0.0158991451700967,2.162609490834569e-06,0.0006464142451675,4.798132232978766,34.796094028187134,13.09315138639638,34.46087058603792
0.37,31.222211421355144,131.01040139563804,5.255882891363927,4.797392186816851,0.0008791822061288,32.551601855236584,0.00111162791192,3.0078619428913056,391.1218908297639,13.457513730739372,5.661815946371007,69.91747693543164,2.5047738471809164e-05,120.0000313040604,110.87154396328836,1.274,1.025872170958032,0.0,0.0,0.0,0.0395491312153729,6.040098808671168e-08,-0.0172926678053148,2.420031948898497e-06,0.0007226353721561,4.797392267189059,34.07332166419882,13.457651832357364,32.69027405888565
0.38,31.22221116634284,131.01040191882743,5.379799334000849,4.811698494594017,0.0009057112478668,34.02947987649063,0.0011338447913587,2.9774881690446744,404.81876101445977,13.77554886562956,5.800899861213392,69.90756948297444,2.886339581486796e-05,120.00003560072224,116.17243393848278,1.274,1.02583050512925,0.0,0.0,0.0,0.0404838339452728,6.762496638941508e-08,-0.0187646375218858,2.69955777313946e-06,0.0008026686661094,4.8116985796350695,33.46655348088405,13.775691134419684,34.15949264475229
0.39,31.222210906095896,131.01040245274032,5.505993307722699,4.813508003664984,0.000929862892873,29.00025983045028,0.0011579891265804,2.9442136901860865,357.6406249338268,14.124492165837273,5.950648592462506,69.8968186645841,3.311602501056718e-05,120.00004036395212,122.13093644173792,1.274,1.02579027384009,0.0,0.0,0.0,0.0415093739609825,7.545934774906889e-08,-0.020311592409804,3.0013532510753577e-06,0.0008908380763632,4.813508093268025,32.821616487639595,14.124638228358922,29.149330452482886
0.4,31.222210638473225,131.0104030017851,5.635788650457906,4.841647069358873,0.0009592124397379,27.71178845184976,0.0011749448424961,2.91135549588368,345.4656368807565,14.390874239274588,6.07193451174791,69.8851815212744,3.783947407715338e-05,120.00004563180136,126.77947425345651,1.274,1.0257493418632293,0.0,0.0,0.0,0.0422922854866381,8.39343718693383e-08,-0.021938519432511,3.3271332720311508e-06,0.0009803271643914,4.841647164150728,32.348088166612904,14.391024912012275,27.864299944624147
0.41,31.22221036681104,131.01040355909262,5.767123077463226,4.86553909860892,0.0009876699832274,31.306062598221665,0.0011918093836199,2.876450850006428,378.9468707766882,14.663028799871563,6.195223154320929,69.87261222561014,4.307011032901644e-05,120.0000514391194,131.6183642808765,1.274,1.025708445186429,0.0,0.0,0.0,0.0430921644173401,9.308325447883581e-08,-0.0236371933433427,3.6760977501392174e-06,0.0010761942383903,4.865539198612839,31.87689439156756,14.663183942709727,31.437931330109585
0.42,31.22221008906472,131.01040412887247,5.901259531771367,4.867510642114694,0.0010118258958528,35.308283402190774,0.0012128114559048,2.8374461227958245,416.23282400171047,14.9952917972178,6.33928625560071,69.85906967380902,4.884273094936628e-05,120.00005782486392,137.64909586091787,1.274,1.0256701057426505,0.0,0.0,0.0,0.0440686959134695,1.0293499639582845e-07,-0.0254093547296826,4.049238334851429e-06,0.0011830797791891,4.867510747027452,31.315270489291198,14.995450734457847,35.422111438762386
0.43,31.222209804115888,131.01040471342728,6.038886819939341,4.854590670645608,0.0010330089741511,31.00586934514032,0.0012363751872706,2.794478603999558,375.90313951343126,15.369430568701889,6.497852263156962,69.8445117629242,5.519340856908871e-05,120.00006482835984,144.60167924299955,1.274,1.0256308158337524,0.0,0.0,0.0,0.0451682983415116,1.135186446762958e-07,-0.0272634397889413,4.449073329427772e-06,0.0013010625065656,4.854590780289497,30.70250814963406,15.369592833372094,31.13154422839874
0.44,31.22220951192321,131.01040531284193,6.180028459770617,4.866912332640401,0.0010595850174406,28.57707721036899,0.0012525768202179,2.752165534925872,353.07501253892326,15.659290812546615,6.627318538707029,69.82889155423543,6.216182865383864e-05,120.00007249162944,150.1053167542629,1.274,1.025586171750536,0.0,0.0,0.0,0.0460202245100907,1.2486676023179565e-07,-0.0292060158163984,4.8779154055816594e-06,0.001420032405556,4.866912447705031,30.24619499837236,15.659457251771938,28.709297424144207
0.45,31.222209215425703,131.01040592106523,6.322872201489905,4.881836476567178,0.0010866574689855,33.31904824532484,0.0012669045761511,2.7082028218433374,397.2093853562887,15.934249290371609,6.751662050993672,69.81215834018458,6.97909417564726e-05,120.00008085697964,155.42080512416243,1.274,1.0255397023523487,0.0,0.0,0.0,0.0468283602442113,1.3701614206272197e-07,-0.0312276295846745,5.334643585560923e-06,0.0015449645531859,4.8818365972149325,29.82567893138932,15.934419982127675,33.428929688274074
0.46,31.22220891307435,131.0104065412864,6.468371919199588,4.869610441729251,0.0011078049156487,38.95909776354321,0.0012868374716666,2.6582856015412624,449.7140588976424,16.292139278621757,6.904766425053949,69.79426683863348,7.812149592850748e-05,120.00008996920153,162.4785746623087,1.274,1.02549635315424,0.0,0.0,0.0,0.0478802236363867,1.499987870203256e-07,-0.0333272350234362,5.819761874615242e-06,0.0016858511402973,4.869610567434908,29.29014635640275,16.292313292210977,39.04968351401366
0.47,31.22220860266524,131.01040717804253,6.6178810515614845,4.838450928223533,0.0011247917292402,26.253747818137555,0.0013104398935566,2.6026193242279367,331.0078106302504,16.710658191447514,7.078951441335346,69.77517236812905,8.719457259907165e-05,120.0000998741591,170.9309671061642,1.274,1.025453319323251,0.0,0.0,0.0,0.0491102725711187,1.6384464803343264e-07,-0.0355167087264168,6.3368207228363735e-06,0.0018427306558807,4.838451058652396,28.68386015667837,16.710834873319172,26.382435512333956
0.48,31.222208284201663,131.0104078313267,6.771393590864176,4.869339340099417,0.0011561785713505,25.860860976019296,0.0013165328518772,2.5543454292827983,327.20312230115803,16.911139899671,7.177575416403102,69.75482343794755,9.70562828082882e-05,120.00011062072316,175.0543877818846,1.274,1.0254092882449153,0.0,0.0,0.0,0.0496995461609974,1.7858865391586845e-07,-0.0378054080201581,6.88909442277235e-06,0.0019849793891693,4.869339477030596,28.40887970825325,16.911321511776286,25.986704537635287
0.49,31.22220796480208,131.01040848648364,6.924537656029012,4.881367714530694,0.0011829003785372,32.565703383222065,0.0013261973190012,2.5011623511055703,389.6000096981238,17.169005224738054,7.296160258358563,69.73316318155707,0.0001077573203115,120.000122255028,180.4309832312717,1.274,1.025367445590036,0.0,0.0,0.0,0.05045746454003,1.942747077649401e-07,-0.0401641298712614,7.47069711110948e-06,0.002140948887153,4.881367857509675,28.058569663954906,17.169191034294997,32.66161128464712
0.5,31.222207637929923,131.01040915697027,7.081324512896956,4.862566137860805,0.001202418260511,33.47759680712428,0.0013425340759632,2.4399894027711366,397.970310422106,17.52898693231981,7.450304424940405,69.71015149227495,0.0001193385310595,120.0001348274002,188.0736471953394,1.274,1.0253278572281015,0.0,0.0,0.0,0.0515154948878309,2.109295159784217e-07,-0.0426011733481599,8.084173008518589e-06,0.0023184335011768,4.862566286171007,27.57768313050809,17.529175807738486,33.56639745442473
0.51,31.22220730314019,131.01040984370235,7.24202048914867,4.8479762258125,0.001223054804074,25.49162310288008,0.0013562860883156,2.3767006597692686,323.39843497208153,17.86914397471067,7.597652147346554,69.68574349602717,0.0001318441288964,120.00014838524436,195.4407439266201,1.274,1.025286455263166,0.0,0.0,0.0,0.0525152689856776,2.2858192086249162e-07,-0.0451315948093539,8.734206149830708e-06,0.002503767471626,4.847976379721193,27.13799345359824,17.86933609171003,25.602178740977283
0.52,31.222206962738102,131.01041054193402,7.405210501673173,4.865306299521403,0.0012516517170965,30.733671928447727,0.0013599291289974,2.317711624364424,372.098451184342,18.08534843773428,7.701914987606457,69.65988568649581,0.0001453248538387,120.00016298000436,200.19561780583155,1.274,1.0252426840672306,0.0,0.0,0.0,0.0531507657929359,2.4726951523704535e-07,-0.0477531686556663,9.421346966092632e-06,0.0026812161964639,4.865306460134566,26.8699055233151,18.085545046726228,30.820940596104087
0.53,31.222206619320115,131.01041124632013,7.569307468221277,4.848802699234936,0.0012715119568563,32.301199055744725,0.0013711327835325,2.2490252325653923,386.55624643486095,18.41963113311156,7.8474319110539055,69.6325258319474,0.0001598315062727,120.0001786629144,207.6614205945027,1.274,1.0251993415311351,0.0,0.0,0.0,0.0541332845214831,2.67031759303889e-07,-0.0504479325599339,1.0141887756417996e-05,0.0028848299490111,4.848802865552398,26.45837260670532,18.419830861742675,32.37940050117613
0.54,31.22220626697288,131.01041196903336,7.737918664599091,4.831496690588052,0.0012913635058467,28.31291960103712,0.0013809098107221,2.177242866245296,349.2703242098436,18.75116898748492,7.992112829440902,69.60362200959217,0.0001754082864028,120.00019548734956,215.20067397992847,1.274,1.0251561018460285,0.0,0.0,0.0,0.0551077428911958,2.878941684235108e-07,-0.0532336286085667,1.090122304443916e-05,0.003098869611663,4.831496862756785,26.061835558272342,18.751371834390056,28.396510432451375
0.55,31.222205908994248,131.01041270328463,7.909026079894722,12.755903477510111,14.794421726616704,30.4011232242592,-0.9138835564803836,1.6094188870041668,365.2500005919912,21.25288039252061,8.113323699629928,69.57312211246325,0.0001921068626005,120.00021350480982,276.4492350024227,1.274,1.025112921033824,0.0,6.26600891486463,0.0,0.0624601340772573,3.0989272306468813e-07,-0.0561100530405476,1.1700476995263424e-05,0.0037020324998483,19.440775871503323,39.111542026911415,23.551045040360247,30.457408057896902
0.56,31.222205546564343,131.01041344664463,8.081909946161325,15.520423534975071,11.597221582076704,28.397816803326016,-0.994608104135924,1.1789552266525851,346.22656194657776,22.05453478117369,8.245531141149062,69.54097415464405,0.0002099796112633,120.00023276987916,297.6928399520595,1.274,1.0250709539098009,0.0,6.288869463612746,345.0001478400497,0.0648162442257948,3.329899590246196e-07,-0.0650818414309746,0.0110861030447479,0.0044558675586063,19.288969841751555,36.69652114351063,23.86380855052531,28.439676156780155
0.57,31.22220517944269,131.01041420523154,8.25837496244494,15.38418424755064,11.469761740765064,28.10192990487712,-1.19287218476055,0.9162293380205278,343.1828296833045,22.32923208980104,8.362655881433598,69.50368479041882,0.0172040712215395,120.01837335924364,305.1495989801204,1.274,1.0250279191823897,0.0,6.311551412028188,345.0001478400497,0.065623684924402,3.657910544041413e-07,-0.0770132345817376,0.0205506964712418,0.0053383412642985,19.10610934695624,36.31437857981881,24.11888878916789,28.142154939301502
0.58,31.22220480757765,131.0104149725646,8.436757883384098,15.242746249884933,11.335399822908563,37.051828571412855,-1.3979869055192504,0.6433030151842469,426.12500585731766,22.60932570347736,8.482790739229078,69.45955346129395,0.0485986447716582,120.0518946819954,312.8477310422514,1.274,1.024981594484354,0.0,6.3342758069878045,345.0001478400497,0.0664469895817726,4.08683059608736e-07,-0.0891524169260893,0.0301475663819781,0.0062572063043787,18.91504797754949,35.92442558253295,24.378293461939982,37.08377282104282
0.59,31.22220443086411,131.01041575225463,8.617861254755915,15.00679349259698,11.135062908389372,30.04506751385438,-1.6198492005160443,0.3407649512428602,360.68438819710633,23.01787190273575,8.650595657729564,69.40845213270086,0.0944666755390758,120.10088508545132,324.250440285984,1.274,1.0249386802161349,0.0,6.3568474884998105,345.0001478400497,0.0676478122052079,4.618066907667892e-07,-0.1015008423521155,0.0398734318816064,0.0072524877769614,18.610160784246528,35.34753230217722,24.755973911645015,30.090631666624677
0.6,31.22220404541981,131.01041655148256,8.803897721863454,14.86697583110242,11.00336973000765,26.72118224570029,-1.839586249837636,0.0478597963946325,329.4859594986072,23.284523230957,8.765856517179174,69.35024765347143,0.1548443965485264,120.16539594160068,331.80060868416643,1.274,1.024891335813742,0.0,6.379365538057862,345.0001478400497,0.0684316242277214,5.252959250021635e-07,-0.1141299015258335,0.0497797020574136,0.0082491884407715,18.42186120824692,34.98078557712483,25.002323777302557,26.784472157177767
0.61,31.22220365849703,131.01041735543163,8.990500824734305,14.731925361663608,10.875799856673687,31.33858193864784,-2.0642162007193616,-0.2515475086636634,372.0984511843332,23.537202342594608,8.876029874062908,69.28476145211883,0.2298130996870679,120.24552912331312,339.03487833890284,1.274,1.0248423929069768,0.0,6.40209210069659,345.0001478400497,0.069174376505801,5.993563024765593e-07,-0.1269496261666159,0.0597986304193647,0.0092751921958956,18.239744551259847,34.63320117898956,25.235328409426508,31.40749882747386
0.62,31.222203266529657,131.01041817138824,9.17980200049574,14.537947201401687,10.70726384849756,38.98560889202287,-2.3034933050083,-0.5754108487371167,442.86563930529206,23.87131426751556,9.016738761792636,69.2118621176971,0.3193177631669772,120.3412432700386,348.72209360303043,1.274,1.0247996097896497,0.0,6.424491299923534,345.0001478400497,0.0701564605334379,6.841138471617078e-07,-0.1399462403103351,0.0699190332386608,0.0103697030983786,17.986682819221322,34.172233893823865,25.54343495636258,39.057840182642394
0.63,31.22220286757216,131.01041900328903,9.372938399527428,14.285928323119458,10.498641049649,22.1356114117404,-2.5614196871565564,-0.929314446626938,286.11251274707456,24.292776235488347,9.190253073497251,69.13142171698847,0.4232536147253044,120.45244620728651,361.13788319445,1.274,1.024756158874558,0.0,6.446811278968511,345.0001478400497,0.0713952692953008,7.796768750789261e-07,-0.1531612084216493,0.0801699082634942,0.0115490599551442,17.663819353944284,33.59871311032283,25.93268607549913,22.30268568415101
0.64,31.22220246070556,131.01041985293773,9.570419147370004,14.202891982539832,10.40934836613677,21.75443234369376,-2.793830401085853,-1.2362412656886423,282.3078244179702,24.43720961218961,9.260576550577072,69.0432840027187,0.5415259646647939,120.5790589738502,365.438030005824,1.274,1.024708534665538,0.0,6.469194227686108,345.0001478400497,0.0718199118571705,8.861848783137127e-07,-0.1666394246324584,0.0905827296165731,0.012639847606734,17.545463677720395,33.39021186212842,26.06332621145666,21.96791085591373
0.65,31.22220205616881,131.01042069957555,9.766221339697708,14.06711580834197,10.283514778708671,38.42217956384923,-3.038997336490989,-1.5648676678857036,436.7781447787504,24.65651609082776,9.35914064303198,68.94726227137048,0.6740522271739233,120.7210181080453,372.0195567993114,1.274,1.0246641738210605,0.0,6.491688987037818,345.0001478400497,0.072464604267581,1.0038463271292552e-06,-0.180208043594214,0.1010298506287925,0.0137914581060564,17.363653677255524,33.0797234130337,26.26318819736996,38.57393158683551
0.66,31.22220164473672,131.0104215618134,9.965731457829047,13.782826907432348,10.053999558674889,32.70513906917174,-3.3250875731442817,-1.960949696635504,383.5125151715984,25.11618584502161,9.548487550820017,68.84326528160896,0.8205289140310418,120.87802602082768,386.0125308949732,1.274,1.0246195561629028,0.0,6.513613888469304,345.0001478400497,0.0738157231017893,1.1326994093976888e-06,-0.1939041798550624,0.1115373798511797,0.0151159984815724,17.002585160479967,32.465149001591605,26.687372115389568,32.93216744485059
0.67,31.222201222136583,131.0104224480589,10.171340961815195,13.590401029768834,9.889416474435489,22.55664396325079,-3.596480846182962,-2.330620541349682,289.15624401033847,25.41460699360604,9.677594287512305,68.73117643886391,0.9806614786741892,121.04979688331684,395.2321357689893,1.274,1.024572383541697,0.0,6.535581803178889,345.0001478400497,0.0746929472359681,1.2727900178084798e-06,-0.2078613860680412,0.1222008364209844,0.0163962534658428,16.752756766562687,32.05431569409512,26.96033116851819,22.96015360291782
0.68,31.22220079851028,131.0104233379767,10.377192052406285,13.459199552370997,9.768201197196884,28.15684287727789,-3.853793656755092,-2.6768977554147044,340.89999248584934,25.594929793000176,9.762404520221784,68.61079772123122,1.154262314398643,121.23616192146588,400.8526446960447,1.274,1.0245245285832842,0.0,6.55783468610646,345.0001478400497,0.0752230864995852,1.424318785319765e-06,-0.2219739949457031,0.1329420617506726,0.0176333514033988,16.577178459322372,31.78294310699932,27.121892992292715,28.545145085592132
0.69,31.222200372361,131.0104242345763,10.584156547643175,13.25014510476765,9.59289693455916,34.6572897204593,-4.137515911905912,-3.0658888169771075,401.0140726853658,25.904315047747847,9.896686295622848,68.48198841697905,1.3410000797563024,121.43680054691312,410.5938721644508,1.274,1.024479631064582,0.0,6.579736234482957,345.0001478400497,0.0761325425410349,1.5874002708034408e-06,-0.2361629137871112,0.143702762880896,0.0189868973377259,16.307685403411885,31.355027361213786,27.40413363462978,35.03778593072333
0.7,31.222199937754368,131.01042514943117,10.7955160151073,13.001303213410624,9.390265907054072,29.08804639707688,-4.440722210427452,-3.485420267074679,349.270324209851,26.28063488579188,10.057159955983554,68.34465044132949,1.5404343261813536,121.65127703269354,422.6015910056017,1.274,1.0244351749185203,0.0,6.601412850036318,345.0001478400497,0.0772387272405967,1.7620477912201232e-06,-0.2504934117736325,0.1545287382713838,0.0204311840700853,15.990298181937211,30.85088401758463,27.749060028553213,29.630771359969955
0.71,31.22219949618717,131.01042607941443,11.010351416700434,12.806421421412276,9.225732813725504,23.92578924768681,-4.729276964272802,-3.881417761860797,301.3312640634036,26.545869464197885,10.175782133112818,68.19864462565995,1.7521646598858815,121.87920061499588,431.165866015597,1.274,1.0243880468141104,0.0,6.623199428216577,345.0001478400497,0.078018440166889,1.948333226105843e-06,-0.2649926407025725,0.1654380813257526,0.0218314802732908,15.738297409284431,30.471970184379703,27.988790112579213,24.69564446560599
0.72,31.222199052007124,131.01042701602552,11.226251545207113,12.629502143166906,9.07402575050768,29.27369064235516,-5.012062199816102,-4.268826640141309,350.7922053414578,26.7636165233942,10.27671344445911,68.04381290697403,1.975790898221398,122.1201827525624,438.2592146022012,1.274,1.024337302174265,0.0,6.6449458837816655,345.0001478400497,0.0786585914286161,2.146384342703672e-06,-0.2795837804596257,0.1763742886229592,0.0232220301182711,15.508132518100918,30.141458291645304,28.183010308977032,30.004876473712027
0.73,31.22219860367658,131.0104279621958,11.44403935314596,12.39618103309791,8.883417760799475,37.00033264372664,-5.320934868863417,-4.697446381776677,422.3203185282354,27.083705910331087,10.417898451276168,67.88003957846325,2.210813499655835,122.3737296859166,448.795563352202,1.274,1.024292465384646,0.0,6.666463363099457,345.0001478400497,0.0795995335714052,2.3562576614899656e-06,-0.2942274938509686,0.1873079736082295,0.0247300885631573,15.209973040586396,29.69766814994723,28.473525958029,37.674964713119195
0.74,31.22219814722189,131.01042892532487,11.665761303597252,12.118127834113414,8.66218706429563,23.1903905359683,-5.6561374832927775,-5.166982739209094,294.4828134710563,27.49029371169388,10.5936498737338,67.70723007038731,2.456676410871577,122.63928812478096,462.3617399389889,1.274,1.0242470321640116,0.0,6.687836566293385,345.0001478400497,0.0807947050559819,2.577942360292216e-06,-0.3089689746896716,0.1982701705820527,0.0263584176146163,14.85794884383077,29.16469656098706,28.84576949802212,24.42301814002361
0.75,31.22219768229741,131.0104299058128,11.891492031848466,11.94499075177846,8.513994528187041,27.05042322804014,-5.94027776942518,-5.558554864289025,330.24688556441737,27.659961383536768,10.677690353260344,67.52526158777,2.7128502228499265,122.91633479153168,468.0765178950683,1.274,1.0241984712898409,0.0,6.709250920312417,345.0001478400497,0.0812935698873174,2.8114615388240937e-06,-0.3238423968405657,0.2092838700020148,0.0277971930647888,14.632707042425489,28.872097639913918,28.992420153410396,28.247297728691354
0.76,31.22219721864788,131.01043088541607,12.116175789222575,11.710039677419164,8.323350244519649,29.09548986885258,-6.25676551018021,-6.000850349751925,349.2703242098581,27.9528132472022,10.810806672029765,67.33398959762025,2.9788209185633,123.20436432629296,478.03026225432393,1.274,1.0241522053390697,0.0,6.730679377283109,345.0001478400497,0.0821544797527981,3.056958617589632e-06,-0.3386991849822474,0.2202420378980636,0.029379606386355,14.332987979049522,28.45197620953572,29.25564837823968,30.359592393146546
0.77,31.22219674519048,131.01043188458254,12.345439232383832,11.464781592436836,8.125732907296694,27.18747061008549,-6.580091249009069,-6.454592792785033,331.76876669606884,28.257059083552,10.949488163431612,67.13335667510809,3.253927189723742,123.5027128197175,488.48215501038845,1.274,1.0241065975906936,0.0,6.751687189340717,345.0001478400497,0.0830488857184563,3.3143528169162926e-06,-0.3535938674468401,0.2311824240041873,0.0310047633514271,14.0208410764523,28.01838888327193,29.529171833055795,28.707454208623595
0.78,31.22219626629604,131.01043289501112,12.576965217973278,11.230377839412553,7.935963821257288,22.31193425486926,-6.896733378450644,-6.899364088723914,286.8734378128874,28.52431721530476,11.0744200975481,66.92327285507112,3.5375519199165915,123.81076462113,497.7550131251536,1.274,1.0240588105546735,0.0,6.772801788358838,345.0001478400497,0.0838345894882464,3.5836381843820147e-06,-0.3685158701887621,0.2420960724773717,0.0326180905603785,13.721926874990103,27.618188475367365,29.766913455633997,24.351356560073132
0.79,31.22219578257233,131.01043391549993,12.810413745744892,11.015076907838116,7.759528175708035,31.669222099089342,-7.19769606459024,-7.321933523921299,373.6203323159581,28.73037453702096,11.175730862930775,66.70365452407263,3.829064184366196,124.12788939411548,504.96115055973183,1.274,1.0240083170932772,0.0,6.793805457281777,345.0001478400497,0.0844404260658806,3.864816951313489e-06,-0.3834286520754229,0.2529561319728473,0.0341824506441312,13.446102540671651,27.27095615542591,29.945515904186,33.291998551129204
0.8,31.222195295193902,131.01043494386187,13.045182506431033,10.730498153268984,7.535742140746866,32.047012482231786,-7.547021143811095,-7.818929468473445,377.42502064505805,29.09721890169304,11.343037610214996,66.47444042590782,4.127801526228824,124.45342247682947,517.9270132876196,1.274,1.0239625010683884,0.0,6.814638435180149,345.0001478400497,0.0855188318561201,4.15787395813232e-06,-0.3982828935378103,0.2637267875452286,0.0359592552636668,13.086815738846036,26.77471588414609,30.27752073343049,33.83938822163329
0.81,31.222194796510333,131.0104359933707,13.284801707024922,10.457286959059507,7.320017132692354,20.8079885590157,-7.888323930383992,-8.305295457203812,273.9374926939922,29.424862943897462,11.495850963103695,66.23560004416136,4.433065021806476,124.78665898074136,529.6445454048193,1.274,1.0239149950770308,0.0,6.835267857434554,345.0001478400497,0.086482035202862,4.4626576951314485e-06,-0.4131458011296307,0.2744540904581593,0.0377203185844289,12.74129352576791,26.31350483965051,30.571563149133137,23.752388825847543
0.82,31.222194292679944,131.0104370529752,13.526279871465178,10.23998188440206,7.142820997936672,26.69478318685565,-8.17894361700143,-8.717466326666724,328.725004432774,29.587201603184848,11.58198513140316,65.98706393189858,4.744218310621275,125.12696153693416,535.4924074057743,1.274,1.0238644186635044,0.0,6.8560142660912256,345.0001478400497,0.0869593984730259,4.779152228561228e-06,-0.4279764406523049,0.2851080382537057,0.0392890241886408,12.463233360556416,25.99202739458648,30.70628931144408,29.24894506199989
0.83,31.22219378780071,131.0104381156355,13.767758821403758,9.965724567427385,6.926904165933472,33.89225465184489,-8.513693451022974,-9.19770024054937,395.6875032246518,29.89130780205613,11.727668406056091,65.7287889436044,5.060600058588936,125.47366465014,546.5442098094193,1.274,1.0238188483711983,0.0,6.876615644723811,345.0001478400497,0.0878534327997499,5.107376061260984e-06,-0.4426713874015531,0.2956155797818599,0.0410547853838749,12.1166145578467,25.546518229614048,30.976734720542492,36.13537866521527
0.84,31.22219327176696,131.0104391983898,14.013694880388332,9.660789082420685,6.690309487067496,20.809233106042576,-8.875646717170591,-9.720469915337,275.45937482564227,30.27310974019003,11.907330909440862,65.46079687670088,5.381483063170462,125.82602918369436,560.5821663723393,1.274,1.0237739661568126,0.0,6.896918110991988,345.0001478400497,0.0889758323565478,5.447107322384104e-06,-0.4572834082254908,0.306012484697933,0.042950640023397,11.733103413953344,25.03692193633219,31.321634572376748,24.62293285708693
0.85,31.22219274655584,131.01044029748147,14.263042779840372,9.426473199472625,6.501962775707129,22.640366847950816,-9.16063772647482,-10.130549622575316,292.9609323393965,30.42879299215075,11.993441427714965,65.18308041751878,5.706199899124267,126.18337961535627,566.3491577601674,1.274,1.0237227741398531,0.0,6.917297872393291,345.0001478400497,0.0894336532986153,5.7981882685234495e-06,-0.4718285515992166,0.3163085558289167,0.0445436400751075,11.43466070054038,24.706676726874456,31.44792824567655,26.441095480727817
0.86,31.222192222522487,131.01044139570237,14.511344695350276,9.156520817183306,6.289624055802637,28.338494698697414,-9.474084536595264,-10.585369950554549,346.2265619465616,30.67643135943148,12.119458052307738,64.89562533232038,6.034113346197266,126.54507169023935,575.591170967273,1.274,1.023674789281455,0.0,6.937640095843272,345.0001478400497,0.0901617429650288,6.160655626341881e-06,-0.4861762666661305,0.3264127477662175,0.0462705855444037,11.09340442782455,24.29993495289678,31.662420136295864,31.699820450355205
0.87,31.222191688369463,131.01044251151387,14.763339398941849,8.85837163434207,6.05834334084959,26.27627633603568,-9.81284969349843,-11.080224794252244,327.9640783669946,30.99994622381945,12.279478800128604,64.59850042941882,6.364515266894012,126.91038048652965,587.7813777014836,1.274,1.0236288969245204,0.0,6.9576008848396445,345.0001478400497,0.0911128513369556,6.534248811670088e-06,-0.500350861145122,0.3363410812349342,0.0481206502227882,10.71826196162054,23.833160808747785,31.94981625010085,30.158018812350107
0.88,31.22219114533825,131.01044364248327,15.018341344868212,8.573275601480118,5.8361457383015285,22.557098253995523,-10.128791869922775,-11.54356005651145,294.4828134710421,31.266434765722508,12.416574026015846,64.29176361325993,6.696744006857824,127.27862925199076,597.9158017323524,1.274,1.0235805388426191,0.0,6.9775731577373135,345.0001478400497,0.0918963600221013,6.918725399297139e-06,-0.5143647870578335,0.3461008891775673,0.0498924523874947,10.358904088891096,23.40811260825969,32.18158995220071,27.28862189929913
0.89,31.2221905972266,131.0104447823746,15.274748338510111,8.29572332839777,5.61921167219926,24.68957692745936,-10.42450750119111,-11.979398441838775,315.02813424808807,31.48948884859512,12.536184936679076,63.97546912355271,7.030174955457244,127.64917903011552,606.4623352724126,1.274,1.0235293752791452,0.0,6.997500005545048,345.0001478400497,0.0925522144563993,7.313941263554139e-06,-0.528169248124842,0.3556579749821818,0.0515956737269412,10.00866979156504,23.01220186139012,32.37073825683953,29.355605129645216
0.9,31.22219004339155,131.01044593211407,15.532780829245734,7.999455034747256,5.38992990068938,27.22613853726479,-10.735113177436148,-12.440014460369133,339.3781423542166,31.763610770643723,12.679703061199657,63.64970536015871,7.364181760923875,128.02138540733867,617.0517394516221,1.274,1.0234837388140003,0.0,7.017257202327256,345.0001478400497,0.0933581706828952,7.719705378761537e-06,-0.5417231484220003,0.3649836430128938,0.0533790773324229,9.636052293301905,22.577914004663736,32.60901079005372,31.800302425557078
0.91,31.222189480488733,131.01044709666007,15.793633988206524,7.691952479747995,5.1534084650442695,20.42535627671296,-11.052499297432783,-12.913439258329792,277.7421810230785,32.066152366934595,12.837612117051352,63.31459057201364,7.698145930845101,128.3946086774475,628.8465371297898,1.274,1.023436404813438,0.0,7.036864635496748,345.0001478400497,0.094247664669031,8.135716575022971e-06,-0.5550253139649016,0.3740762070073515,0.0552093414094297,9.250076987610592,22.12341763555157,32.87455685899348,26.572727244846035
0.92,31.22218890901992,131.01044827494735,16.056998650554764,7.408122645728115,4.932789892330747,24.354157027422744,-11.319428046776144,-13.314754087406856,315.0281342480675,32.25706369469271,12.947182661836484,62.97024840270442,8.031484174772537,128.76824406121975,636.3406232661014,1.274,1.0233859136578225,0.0,7.056414047118225,345.0001478400497,0.0948090660018711,8.561681810951242e-06,-0.5680632671007815,0.3829262822831747,0.056841231405529,8.892518583547096,21.742372932641292,33.030947676995794,29.97560828791677
0.93,31.22218833457868,131.01044945841542,16.32077161638372,7.097726540331943,4.6948712651260776,29.017905838454183,-11.61727155162222,-13.764878317103284,359.16250706547066,32.541259664978966,13.100443825166884,62.616814911117686,8.363641839774834,129.1417142942545,647.5863776175438,1.274,1.0233407575091376,0.0,7.075881797129172,345.0001478400497,0.0956446515586215,8.997421687842851e-06,-0.5807689841140385,0.3914876323062817,0.0586230908465259,8.50333003174197,21.298792328325614,33.27790332889358,34.153648892002515
0.94,31.222187748462968,131.01045065985835,16.58801498107311,6.772727059983088,4.447652514765515,20.619676846882943,-11.930274311118424,-14.240557452687346,283.06875048378083,32.876814681067245,13.279279856614602,62.25447329768935,8.694063082658818,129.51443582553827,660.9936762341667,1.274,1.0232914783978162,0.0,7.095115004857833,345.0001478400497,0.0966311998535982,9.44251180077528e-06,-0.5931553004056295,0.3997679927248524,0.0604892138150737,8.096862808395258,20.82341096977039,33.57474887320414,27.754206797739723
0.95,31.22218715214815,131.01045187670937,16.858048521324278,6.47580344309053,4.219038384743655,26.92693362412812,-12.173998173584463,-14.616348904373703,342.421873617488,33.06640619514844,13.39265314430352,61.88340373099828,9.022239116682528,129.88587282274744,668.6218535945889,1.274,1.0232418269359267,0.0,7.114339515147334,345.0001478400497,0.0971887414221667,9.896563080592488e-06,-0.605215287192595,0.4077615841875473,0.062073382788698,7.724016241227584,20.43821073748133,33.728532444166056,32.968221687301025
0.96,31.22218655364232,131.0104530972629,17.12808689096146,6.147502424387387,3.9704168700983855,26.198830397004286,-12.467516936033864,-15.069327784146324,337.09533515678265,33.39302638716464,13.571627941222228,61.50379554398426,9.347695677779502,130.25552315814835,681.8783043104874,1.274,1.0231951201821403,0.0,7.133504582222219,345.0001478400497,0.0981490421473678,1.0359384282222078e-05,-0.6168718302244017,0.4154170964983814,0.0638922207778425,7.314057536741786,19.970786629223213,34.01619897983808,32.69407182636221
0.97,31.222185940006728,131.01045433985018,17.402396916890964,5.824535250425305,3.7255388193193095,16.037315565336282,-12.734929484899842,-15.486773193434328,245.0218871929888,33.6793581209767,13.73393811861823,61.115891208391055,9.669958168193968,130.6228786617308,693.6038283015394,1.274,1.0231476260761452,0.0,7.152414716889328,345.0001478400497,0.0989909369869065,1.0830417126201587e-05,-0.6281472208860648,0.4227480488487917,0.0656161994044156,6.91064340320114,19.528612227575948,34.26415210401761,25.675164331945858
0.98,31.22218531956696,131.01045559233444,17.67809631885725,5.52462284758024,3.495651367502676,23.98546430323824,-12.927115303055452,-15.795408570742342,319.593746642963,33.81996245528588,13.828523139329624,60.71992414556526,9.988603569525994,130.98748392078315,699.3887022892606,1.274,1.0230935628253934,0.0,7.171369620812497,345.0001478400497,0.0994045128429682,1.1309307053899096e-05,-0.6390010799753829,0.429727106449399,0.0670268850808163,6.534763441940132,19.168982372762315,34.368717502007264,31.49456683012305
0.99,31.22218469702508,131.01045684818615,17.95369200119775,5.192346236379105,3.245605372616536,26.216822538213552,-13.183762351397563,-16.20343643529858,341.66094855170127,34.13123681427351,14.006911917461611,60.31615790759487,10.303228218406684,131.34889965827264,712.3032523168781,1.274,1.0230490803133316,0.0,7.190167598914726,345.0001478400497,0.1003197304895119,1.17957982339372e-05,-0.6493656493731474,0.4363104672463568,0.0687391513259274,6.120911253274289,18.715765664930164,34.64078270462876,33.52140698197305
1.0,31.22218405787656,131.01045812711013,18.233618730180776,4.859244060493173,2.995465999381405,23.06560311663067,-13.42743160173021,-16.59566531717836,314.2672081822764,34.43823529766952,14.18576505460328,59.90490343243564,10.613437947371072,131.70669111653368,725.1552193592602,1.274,1.022999484445133,0.0,7.208717850866996,345.0001478400497,0.1012223909328542,1.228919148337776e-05,-0.6592673817070624,0.4425136723705696,0.0704131268409263,5.706447425319363,18.26812041504796,34.90854767927441,31.42823688775529
1.01,31.22218341018792,131.01045941772426,18.515239222203828,4.53285665406818,2.749994879227853,24.048584331971245,-13.63315816563581,-16.93476265367867,324.92031610370094,34.68922180364197,14.33929606139456,59.48645975112951,10.9188899439588,132.06047615224605,735.7437254662593,1.274,1.0229507481225095,0.0,7.227318395584579,345.0001478400497,0.1019604256159147,1.2789011102381104e-05,-0.6686782225352175,0.4483176375896412,0.0719368045748564,5.300327788346904,17.85263183603861,35.12102415689138,32.418877156336016
1.02,31.222182754770447,131.01046071885372,18.798277759803128,4.200198636468197,2.5011614586140167,19.478922650371626,-13.840434035546396,-17.279789446069948,284.59063161543185,34.972582480006494,14.511062193716688,59.06114809222926,11.219266684628764,132.40989546462953,747.7924101062523,1.274,1.0229039803623294,0.0,7.24579404755825,345.0001478400497,0.1027936228396624,1.3294829071083328e-05,-0.6775581469446388,0.4536965652459524,0.0734855374484664,4.887357735458794,17.423917559127748,35.36533923406243,29.488593815439593
1.03,31.222182087360498,131.0104620359347,19.083892497823044,3.874966217941167,2.257216045622968,15.237583759032148,-14.00028838814446,-17.557400787600287,247.3046933904342,35.184818554717786,14.649219943561388,58.62931928702567,11.514271696439836,132.75460763079687,756.8753560283066,1.274,1.022853416101322,0.0,7.264129560707917,345.0001478400497,0.1034177738045205,1.3806061136534037e-05,-0.6858897988680435,0.4586383856513258,0.0748385468542054,4.483594114107953,17.033076132088638,35.53928951365733,27.13769253604956
1.04,31.22218141390795,131.010463360989,19.370310751814856,3.552281967336541,2.0151665205445632,25.73891870960193,-14.126421949376734,-17.78791362163021,345.4656368807608,35.35847118299535,14.769489235203611,58.19133938847481,11.803637860088232,133.0942987864271,764.3437945695432,1.274,1.0228049544826707,0.0,7.282399689745347,345.0001478400497,0.1039285221025704,1.4322255578887636e-05,-0.693633768336066,0.4631183143357598,0.0760549432222203,4.083429725350409,16.663228378207997,35.674947542497875,34.328670298191085
1.05,31.222180733259968,131.0104646954237,19.65782116877165,3.2094070270314816,1.76212170032121,14.11380710458806,-14.321986407057665,-18.12658716615211,240.4562587980608,35.71237816784196,14.984652574014008,57.7476033982081,12.08711902883216,133.42867291142375,779.6996464386506,1.274,1.022755494436122,0.0,7.30048899970634,345.0001478400497,0.1049690951161,1.4842887551916956e-05,-0.7007618456014613,0.4671188809527254,0.0776034388600219,3.6608903186184314,16.215356040077573,35.989127964722385,27.071978278684682
1.06,31.22218003338499,131.0104660542225,19.949539688350804,2.8879050511018685,1.5216014023528863,21.3042658790269,-14.394617159488936,-18.28394664003633,308.1796836557233,35.84202633071463,15.085709615728504,57.29852802804509,12.364494044721647,133.7574565935056,785.3490713566365,1.274,1.0227013895379469,0.0,7.318423737089443,345.0001478400497,0.1053505156624817,1.536705437757166e-05,-0.7072841662641834,0.4706432194370142,0.0786078773584931,3.2639401546116127,15.872508640704954,36.081010826263984,31.549634745084116
1.07,31.22217933617451,131.01046740963542,20.23960167943776,2.5509390361909614,1.2734274746204588,25.50776786903467,-14.529891637052442,-18.53952276884444,348.5093681440431,36.13944903275901,15.276695035511809,56.844527456438975,12.635575997538158,134.08041021898492,798.4148034733784,1.274,1.0226540159946436,0.0,7.33639948224645,345.0001478400497,0.1062250782848729,1.5894510911176315e-05,-0.7131420618298212,0.4736579687972587,0.0799144029627477,2.850935959911291,15.462291633608904,36.3394620849278,34.71999247035554
1.08,31.22217861874878,131.01046879007924,20.53389759510824,2.212559678359604,1.0254246879484497,15.781398316545696,-14.661572384712027,-18.7938975605572,261.0015785751465,36.46593058965036,15.486079664634198,56.386056221302255,12.900191990678564,134.3973042213831,812.8826465629821,1.274,1.0226061614050743,0.0,7.354056263261725,345.0001478400497,0.1071850650440482,1.6424318417964275e-05,-0.7183404288091301,0.4761630902060032,0.0812218382391814,2.438522787201056,15.047698962322306,36.62699532437442,28.587144368305474
1.09,31.22217788923155,131.01047018508095,20.83017976501757,1.8859033923889168,0.7840826096961301,14.02074011946316,-14.695700304655045,-18.90445295407793,246.54375332456465,36.62781481511082,15.609372062305953,55.92356925460665,13.158198612011752,134.70793763137976,820.0926339730959,1.274,1.0225512795791307,0.0,7.371757629657351,345.0001478400497,0.1076612546413944,1.6955759292663824e-05,-0.7228585578124059,0.4781443363767899,0.0820931994055035,2.042350387040416,14.706949619634122,36.75097437924301,27.747488218480388
1.1,31.222177157290343,131.01047158286923,21.126060287209054,1.5576093096546293,0.5427479066799247,32.00822672004678,-14.722257054063812,-19.007204215360595,413.1890617384087,36.81387851372765,15.747438992680127,55.45753779889748,13.409472821209649,135.012127517156,828.4221435553371,1.274,1.0224981043155532,0.0,7.3893668975872675,345.0001478400497,0.1082085186350275,1.748845192601163e-05,-0.7266594339466874,0.4795826582462194,0.0829417116996525,1.6494391408696183,14.3631021183718,36.899131880529765,40.03180288985583
1.11,31.222176413240746,131.010472995037,21.4238521272468,1.2174549274054276,0.2982088274854536,22.1129795474804,-14.864051097081264,-19.289921630689847,324.1593910379213,37.28031330202625,16.04246894521005,54.988458988137936,13.653909924351405,135.30970675119866,849.5231817617943,1.274,1.0224548851875197,0.0,7.406746108806525,345.0001478400497,0.1095798974566368,1.8021652618993232e-05,-0.7297297926628215,0.4804696683084118,0.0843450717250238,1.2534399151141618,13.92270906502736,37.32715562362216,32.89414774700943
1.12,31.22217564102548,131.01047444016612,21.72712188375491,0.8896418955376979,0.059675956098902,5.419797424951222,-14.87165810363628,-19.372622914767035,172.7328179403806,37.510438742244325,16.209738815695093,54.51684098693669,13.891426295999516,135.60052755371507,860.0184429142433,1.274,1.0223979224661404,0.0,7.424035789105752,345.0001478400497,0.1102566940410344,1.8554095941858264e-05,-0.732064971773053,0.4807942058907928,0.0851348158981676,0.8916409792243711,13.58041554603471,37.51981261781333,25.01677312278135
1.13,31.222174869577334,131.01047588396352,22.02911061937112,0.5684972729595521,-0.176302891383566,26.509155607364534,-14.763188584227327,-19.281247310855623,367.5328077894322,37.5416214349251,16.266570207757823,54.04319830693955,14.121953778974424,135.88445494049327,861.4239291275752,1.274,1.0223460397860296,0.0,7.441440960434328,345.0001478400497,0.1103487272508432,1.9085510097925248e-05,-0.7336317007673258,0.48054269719458,0.0853854650928067,0.5952065514126156,13.316865186887204,37.51392788520825,35.95071023013737
1.14,31.222174097458005,131.0104773283865,22.33026208771604,0.2402163685263082,-0.4101729968219177,12.388315301768523,-14.825737411977656,-19.456594675608105,239.6953177322812,37.9742333922632,16.55331078395258,53.568067980983045,14.345441846027404,136.16136968723808,881.3661113961523,1.274,1.0223022138470996,0.0,7.45857533331636,345.0001478400497,0.1116207133156919,1.961556901319992e-05,-0.7344153008429394,0.4797140257001506,0.086459158129234,0.4753365179125983,12.924937858426285,37.9098041189177,27.419553646911318
1.15,31.2221732893834,131.01047881367245,22.638157854441125,-0.0803501541041117,-0.6426458981933435,11.987467773108566,-14.715869248221756,-19.371123589465626,237.4125115347709,38.09124933657802,16.662132297253724,53.09199725957298,14.561861901012415,136.4311740344407,886.7800368467848,1.274,1.0222426194541194,0.0,7.475472284824003,345.0001478400497,0.1119650566943155,2.01426751997362e-05,-0.7344019097271357,0.4782858710778705,0.0867214321971929,0.6476493086444437,12.650544238444468,37.99030487153249,27.120040937661336
1.16,31.222172490946512,131.01048028746987,22.94285640850648,-0.3991212955633271,-0.8717708105487351,39.42770624168645,-14.616133290191854,-19.30506423877016,490.043774385954,38.27458078942852,16.810774199944735,52.61554582220664,14.771189608583322,136.69376999394004,895.310439332333,1.274,1.02219674531104,0.0,7.4925551678021725,345.0001478400497,0.1125043262615143,2.0666732292485912e-05,-0.7335827925920348,0.4762652965186073,0.0870390805868438,0.9587856182428324,12.3653872985742,38.13764863427054,46.26943782995875
