Time,Latitude,Longitude,Altitude,Angle of Attack,Angle of Sideslip,X-Acceleration,Y-Acceleration,Z-Acceleration,Thrust,True Velocity,Ground Velocity,Pitch,Roll,Yaw,Dynamic Pressure,cp,cg,parachute_deploy_gain,Wind Speed,Wind Direction,Mach,omega_x,omega_y,omega_z,Cmq,Angle of Attack(total),Angle of Attack(gust),True Velocity(gust),Acceleration
0.0,31.222216000000007,131.010392,3.000000004412624,0.0,0.0,0.0,0.0,0.0,2.2828121974499247,0.0,0.0,69.99999999623412,0.0,119.9999999935444,0.0,1.274,1.0271675151847728,0.0,0.0,0.0,0.0,0.0,0.0,0.0,-0.0,0.0,90.0,0.0,0.0
0.01,31.22221599999084,131.01039200000497,3.000002745347096,0.0,0.0,0.0,0.0,0.0,34.242186961749226,3.465174813755316e-14,2.8705476994166025e-14,69.9999999962611,-2.1713911667908447e-11,119.99999999352175,7.352495975525499e-28,1.274,1.0271659134330349,0.0,0.0,0.0,1.0183245502395064e-16,-3.3305335486039093e-18,7.169286865560398e-18,5.624298769768554e-18,-7.715917190115602e-34,0.0,89.99999999999979,3.465174813755316e-14,0.0
0.02,31.222215999994315,131.0103920000094,3.0000030495639742,0.0,0.0,0.0,0.0,0.0,25.871876237766216,3.8197434737535036e-11,2.4171837235633357e-11,69.99999999628672,-1.1921727947863515e-11,119.99999999353136,8.93414285188691e-22,1.274,1.027164492361118,0.0,0.0,0.0,1.1225230367947217e-13,-6.657678965418802e-18,1.4338573731120796e-17,1.1241821275959074e-17,-1.7010872994127372e-30,0.0,89.99999999975682,3.8197434737535036e-11,0.0
0.03,31.222215999994315,131.0103920000094,3.0000030495639742,0.0,0.0,9.81877837424427,-2.5122800045972096e-05,3.3498614629347925,180.34219359854663,1.2659015405517447e-10,1.1364406173918436e-10,69.99999999631459,-1.6431898037347223e-11,119.99999999352724,9.812605835254651e-21,1.274,1.0271551940870716,0.0,0.0,0.0,3.720154642239108e-13,-9.991600645811728e-18,2.150108433310316e-17,1.6859343782149594e-17,-8.453698244545225e-30,0.0,89.99999999919412,1.2659015405517447e-10,10.374487003414373
0.04,31.222215999994315,131.0103920000094,3.0000030495639742,18.83801224594347,-0.0001111777826462,48.68248476615645,-1.016330065874988e-05,3.3497854396877287,548.635972453808,0.1556173050466994,0.0975908358443652,69.99999999633813,-2.0932768807056278e-11,119.99999999352085,0.0148286043323172,1.274,1.027133720825283,0.0,0.0,0.0,0.0004573186944143,-1.3322134194415637e-17,-1.04744143520903e-11,1.336824254131964e-11,5.0626055458604615e-15,18.83801224625964,89.06236267790787,0.1555998412814392,48.79759610369246
0.05,31.22221599164764,131.01039201704114,3.002326315126219,5.772385609593056,-4.395076213712875e-06,71.20344550265034,4.905512691849684e-05,3.349217396035405,761.6984298824663,0.8326471944351852,0.3620326097059287,70.00000001316391,-1.0866255162484559e-10,120.00000000231074,0.4245281043148827,1.274,1.027093426565204,0.0,0.0,0.0,0.0024469331205246,-5.0245994431125096e-18,-7.32924164976824e-07,2.217344936947165e-11,1.895424184525467e-09,5.772385609594774,84.74112356985832,0.8326465040582279,71.28217104309611
0.06,31.22221596664444,131.01039206837547,3.015081730143309,4.056581213689704,3.169093567502233e-05,53.16249142470188,0.0001203825427859,3.3481235983850643,590.4875390737236,1.657216205300742,0.6755452977614796,69.99999964391398,-3.9285905645317736e-10,120.0000000287861,1.6816755551786196,1.274,1.027050317124926,0.0,0.0,0.0,0.0048701272653724,3.095757869075056e-13,-7.483541766772344e-06,3.074135420506017e-11,3.8518749565858254e-08,4.056581213813337,79.59316473687034,1.657221183301277,53.26781792157489
0.07,31.22221592883117,131.0103921460222,3.034593611434361,4.115662018628709,6.450869598349036e-05,81.18203554989698,0.0001593212642178,3.347059402768047,855.2937749779172,2.099899704220947,0.8579771146174259,69.99999543281565,-8.233801910783518e-10,120.00000006883089,2.700101932075157,1.274,1.027003201295312,0.0,0.0,0.0,0.006171060252819,3.4704292086287e-12,-2.6327204536316785e-05,1.9541142932033486e-10,1.7170712165327165e-07,4.115662019133419,76.90111966094352,2.099909837223217,81.2510043180746
0.08,31.22221588914193,131.01039222747755,3.0542761843835606,3.459696193892355,8.037433511260004e-05,16.298214211652088,0.0002413456836072,3.344878926597744,241.2171988638792,3.051964775152957,1.2149999716613011,69.99998042886442,-1.0128995578004475e-09,120.00000011111383,5.703497661025892,1.274,1.0269597189470347,0.0,0.0,0.0,0.0089689344021769,1.458982438104473e-11,-5.702803872814215e-05,7.043261397829576e-10,5.405702492731987e-07,3.459696194824858,71.30331929508368,3.051977400323993,16.63790856991177
0.09,31.2222158241468,131.01039236098703,3.0886872184095737,4.313676956300389,0.0001337561018991,50.35975918308536,0.0002293282821279,3.344215841840564,563.0937377043203,2.893161298572128,1.191209213966114,69.99994788602814,-7.098432023887522e-10,120.00000018106356,5.125380275808925,1.274,1.026918932011013,0.0,0.0,0.0,0.0085022553945842,3.8672912027154325e-11,-0.0001115933708951,2.016054215232918e-09,1.0027525988343615e-06,4.313676958370176,72.2316578138625,2.893182308931483,50.47067588835877
0.1,31.2222157788302,131.01039245392113,3.109877853389092,4.035124630954496,0.0001457499816535,47.804664812504015,0.0002878217657545,3.341734392237128,538.7437595981891,3.5677148583138303,1.4531247507621967,69.99988403958329,1.9248461973355822e-09,120.0000002323013,7.7939962029572305,1.274,1.0268846934974103,0.0,0.0,0.0,0.0104845969583028,8.579678749070606e-11,-0.0001726817043215,3.984565639703107e-09,1.913455350430327e-06,4.0351246335824245,68.43243098813296,3.567737752667411,47.92132267234452
0.11,31.222215703308,131.01039260899836,3.148841432727305,4.043401107254707,0.0001752764476999,37.67622367577205,0.0003286462930162,3.3392563999062723,442.86563930529127,4.034183355956686,1.6436552022667772,69.99978525353545,7.302513231814865e-09,120.00000031883242,9.96528118825134,1.274,1.026848594915519,0.0,0.0,0.0,0.0118554331868328,1.5870341853361987e-10,-0.0002596204409236,7.232030302688121e-09,3.252930323390323e-06,4.04340111104746,65.92012987243639,4.034210888316708,37.82391391539392
0.12,31.222215627491828,131.01039276462643,3.186995101203875,4.17874459224363,0.0002066711490009,41.15991989399172,0.0003576945202315,3.336766085769504,475.58594813540793,4.361857560629481,1.7865750500940407,69.99963665601238,1.781774420198147e-08,120.00000041104812,11.649831899889556,1.274,1.0268114448194128,0.0,0.0,0.0,0.0128183893919737,2.682972478760441e-10,-0.0003710216542429,1.2215991071490164e-08,5.026311388647148e-06,4.178744597345269,64.21681651392016,4.361890024457652,41.29495143136631
0.13,31.22221554594398,131.01039293200228,3.2277173449026786,4.202734874672792,0.0002327160860324,45.44886120763352,0.0003953741266062,3.333578629398489,515.9156326236897,4.792165672014363,1.9646716520715424,69.99942424225341,3.613383418913551e-08,120.00000051758742,14.061726603124043,1.274,1.026779572895131,0.0,0.0,0.0,0.0140829618979635,4.248908088871395e-10,-0.0005056103199642,1.908859219307828e-08,7.5253154423526356e-06,4.202734881104192,62.048594618540655,4.792202226971676,45.570952718869485
0.14,31.222215454191247,131.01039312033683,3.2737880595608355,4.184830647080848,0.000257138757548,42.32232525579263,0.0004369426767266,3.329727443445437,486.2390860568421,5.269261304374574,2.158791628597544,69.99913473613935,6.515851355725497e-08,120.00000064630268,17.000925061330125,1.274,1.0267449573927567,0.0,0.0,0.0,0.0154850332441425,6.382432869666793e-10,-0.0006690086306358,2.8426433029675884e-08,1.0948547100483978e-05,4.184830654966803,59.74181173116622,5.269301695636157,42.45310707234106
0.15,31.222215353826755,131.0103933263496,3.3242182719560263,4.21963947489699,0.0002846467688673,40.886944113003565,0.0004726792395108,3.325585650885676,472.5421858721398,5.6781946837482895,2.329510773545807,69.99875162806286,1.0876776246115984e-07,120.00000079954532,19.742017654108928,1.274,1.0267115958081523,0.0,0.0,0.0,0.0166867950518804,9.204756288136623e-10,-0.000865746478554,4.08948221429571e-08,1.526771148078443e-05,4.219639484480408,57.84996018384879,5.678239395958187,41.02196629910223
0.16,31.222215247130432,131.01039354534575,3.3775922280208457,4.253495568077899,0.0003118339050386,32.26872905470846,0.0005078415214353,3.32090791922544,391.1218908297597,6.081244877834229,2.4981889727471702,69.99825581174558,1.7187028096464329e-07,120.0000009800088,22.644030778355887,1.274,1.026675762255412,0.0,0.0,0.0,0.0178712695992133,1.2856146928958252e-09,-0.0010961187242953,5.6923362293832417e-08,2.0702404729358337e-05,4.253495579487569,56.06022383757386,6.081293860589489,32.43916312841722
0.17,31.22221513260033,131.01039378041813,3.4348437275053194,4.364838523348639,0.0003448792023946,40.840448242802736,0.0005326487904353,3.3162727284953744,471.78125980632416,6.362544479165355,2.6250789114832647,69.99762801982864,2.5997588617291615e-07,120.00000119506798,24.78723182122683,1.274,1.0266409836796937,0.0,0.0,0.0,0.0186979513961862,1.747791994374917e-09,-0.0013624931601664,7.706724512977917e-08,2.6923621797558364e-05,4.364838536947241,54.85936171416122,6.362598652663785,40.97486885600156
0.18,31.222215014088988,131.01039402363364,3.4935801365785646,4.353948305387995,0.0003681615230806,33.992183768165326,0.0005718025428208,3.310131992647221,407.1015672119096,6.81502088160835,2.810667639293692,69.99684761766231,3.794979223522764e-07,120.00000144728236,28.437950785509614,1.274,1.0266048342046536,0.0,0.0,0.0,0.020027681385988,2.3221419748804155e-09,-0.0016616990447559,1.0147209890543081e-07,3.517105786247627e-05,4.353948320923495,52.99157233768714,6.815078712285162,34.152972512863755
0.19,31.22221488419521,131.01039429023237,3.558399965607869,4.432620772533925,0.0003996774584738,38.45149959021069,0.0005986099513107,3.304145139297767,448.95313283182486,7.1223367465208405,2.946425726785696,69.99589577323147,5.440084577183829e-07,120.00000176148238,31.060341085698347,1.274,1.026566130444714,0.0,0.0,0.0,0.0209308229359413,3.022391489754689e-09,-0.0020041563310821,1.3135864879722746e-07,4.433199397898183e-05,4.432620790516937,51.77883352025967,7.122399527709208,38.59320142454953
0.2,31.222214751373183,131.01039456280608,3.624052454705669,4.443889400961181,0.0004246617145652,35.23432408779927,0.0006337972852267,3.2968110145188256,418.5156301991588,7.530482904611057,3.1167566004785483,69.99474776398331,7.478025600151903e-07,120.00000211715036,34.72195181863731,1.274,1.026529240027363,0.0,0.0,0.0,0.0221302820454282,3.866698391504749e-09,-0.0023849544920781,1.668144671071589e-07,5.57780533277244e-05,4.443889421210987,50.22448880200342,7.530549610317194,35.38822625098952
0.21,31.222214608673173,131.01039485566503,3.6948551453492566,4.493351735844891,0.0004538195602194,33.79371564104691,0.0006629296043866,3.2891790438445727,404.8187610144608,7.868284042829251,3.2629204975089228,69.99338155599101,1.0150082652278477e-06,120.00000255293388,37.906665490338085,1.274,1.0264923657015164,0.0,0.0,0.0,0.0231230169900677,4.871073773182836e-09,-0.0028117605859743,2.089322918608601e-07,6.870935089180403e-05,4.493351758715364,48.992529909481824,7.868355328639073,33.95340801819282
0.22,31.22221446109996,131.01039515850383,3.767700382407304,4.5412639153933885,0.000482649303782,41.008966751568416,0.0006914639179131,3.2808061382386606,472.5421858721387,8.20057841132235,3.4071691679735228,69.9917708347139,1.3454961520984431e-06,120.00000305929996,41.175744234065135,1.274,1.0264494137127138,0.0,0.0,0.0,0.0240995709751246,6.054779813287368e-09,-0.0032829112061357,2.580881224843564e-07,8.3609968899004e-05,4.54126394098788,47.82515604752711,8.2006542256977,41.13999323561041
0.23,31.22221430675399,131.0103954752338,3.843768625625224,4.52371495179584,0.0005047555656171,33.98493478127787,0.0007294889663961,3.2705214710765107,406.340642146096,8.647938096586296,3.5908865300848416,69.98989017772566,1.7539876018835507e-06,120.00000365514876,45.79040229326471,1.274,1.0264133390858623,0.0,0.0,0.0,0.0254142776666487,7.436335125872812e-09,-0.0038001790077148,3.1489825108822685e-07,0.0001020628978177,4.523714979897577,46.31461705147579,8.648017383405135,34.14194053232237
0.24,31.222214142622448,131.0103958120587,3.92493179063287,4.57837522350066,0.0005351929930195,35.051650311058864,0.0007555049947555,3.26053011385611,416.2328240017099,8.954297884844461,3.72617527247482,69.98771316795013,2.25257161141768e-06,120.0000043564586,49.09180568115741,1.274,1.0263750048312463,0.0,0.0,0.0,0.0263146218848643,9.034877387788232e-09,-0.0043732521010013,3.809642748985157e-07,0.00012161410144,4.578375254714954,45.32798984252032,8.954381952763216,35.20297212911011
0.25,31.22221397517227,131.0103961556623,4.0071748888306855,4.6034117733065,0.0005618935542827,36.03738579534623,0.000785606492708,3.249069743648399,425.3640807915084,9.311611941121669,3.8789349536029696,69.98520781816889,2.8559738498748624e-06,120.00000517181904,53.08749562138344,1.274,1.0263373768840591,0.0,0.0,0.0,0.0273647110956883,1.0873791100894836e-08,-0.0049950711786164,4.5609738277273444e-07,0.0001444478241125,4.603411807525074,44.2165428352526,9.311700203154778,36.183554686886296
0.26,31.22221379934012,131.01039651647062,4.09364247475714,4.621386912291471,0.0005881033207375,39.29107511182762,0.0008162761165496,3.236407051295005,455.80158342417656,9.67833954512075,4.034902068846398,69.98234620927953,3.5784678110229355e-06,120.00000612171208,57.350948423913096,1.274,1.0263006300381676,0.0,0.0,0.0,0.0284424679130479,1.2973286442992724e-08,-0.0056712051373577,5.414206381221602e-07,0.0001704578711045,4.621386949630312,43.12063533194282,9.678431924174348,39.42414126789902
0.27,31.222213616776543,131.01039689108487,4.183310605341074,4.617158109135719,0.0006115457810536,35.90419462403674,0.0008503454714941,3.221982799915672,423.8421996598744,10.088790784535757,4.205862468567124,69.97909721779352,4.436165972465058e-06,120.000007221354,62.31798301949865,1.274,1.026260090595354,0.0,0.0,0.0,0.0296487219805601,1.5355910600537293e-08,-0.0064045199323113,6.379142666348734e-07,0.0002006609239367,4.617158149547818,41.94410287616451,10.08888684592241,36.048472443180565
0.28,31.22221342607797,131.0103972823952,4.277051150896916,4.642105655370123,0.0006389739579882,41.51133203546672,0.0008785747638736,3.2071101123224945,476.3468732012228,10.432377224420517,4.35383399240675,69.97542808435722,5.446665372087172e-06,120.00000849080963,66.63429581008447,1.274,1.0262212716723291,0.0,0.0,0.0,0.0306584788590473,1.8045308789081613e-08,-0.0072006835403936,7.469524967369969e-07,0.0002332868227611,4.642105699250441,41.0023231023774,10.432477594215127,41.63503624837164
0.29,31.22221323001776,131.01039768469093,4.373143569786686,4.62134615173668,0.0006600657405645,33.17552944492765,0.0009148746278066,3.1894209319791806,397.9703104221098,10.876662296046485,4.536381530986506,69.9713027936179,6.629751536885327e-06,120.00000994797426,72.43000748232016,1.274,1.026183007522519,0.0,0.0,0.0,0.0319641703260467,2.1067646517035105e-08,-0.0080566154554079,8.688043379161898e-07,0.000272130659453,4.621346198772975,39.83162628795024,10.876765978930557,33.32848872465723
0.3,31.22221302403368,131.01039810736614,4.4744193758467325,4.664362353358112,0.0006905183788532,31.08096762732793,0.0009381960428197,3.172549142946348,378.1859457108735,11.168362145070317,4.66647911311536,69.96668711012893,8.005507138509574e-06,120.00001161892672,76.36634300732833,1.274,1.0261430389738484,0.0,0.0,0.0,0.0328214509167604,2.4447409007156216e-08,-0.0089829108229115,1.0056222251461646e-06,0.0003115527202986,4.664362404357781,39.09908960432563,11.168470611443622,31.242464973103964
0.31,31.22221281503337,131.01039853619727,4.576593712520673,4.700143580504286,0.0007196683316923,32.79732593144512,0.0009620705970519,3.154230688182399,394.1656220930229,11.470279728974068,4.800072153432283,69.96154070456518,9.597499105113692e-06,120.00001352112182,80.55022837857167,1.274,1.0261054058068628,0.0,0.0,0.0,0.0337087616009043,2.8214060606649844e-08,-0.0099686353219717,1.1565909895184251e-06,0.0003550834484269,4.700143635477137,38.36463422765983,11.47039277421126,32.94865339301887
0.32,31.222212598991007,131.01039897947376,4.68216432480395,4.718667719113184,0.0007464384342556,35.7316568886908,0.0009885845337584,3.133859770838664,421.5593934624264,11.808280530415894,4.946054328851105,69.95582953472353,1.14278227255889e-05,120.00001568218067,85.36654007972253,1.274,1.026068246703101,0.0,0.0,0.0,0.0347021168382987,3.2392058795580455e-08,-0.0110163301561155,1.3226102501723267e-06,0.0004039614423012,4.718667778018562,37.5686120062341,11.808397780690962,35.8688218659563
0.33,31.222212376029034,131.0103994369436,4.791055524254013,4.72141404831576,0.0007708346814671,35.42013590291081,0.0010176135371143,3.1111955852784385,418.5156301991632,12.181577273013426,5.104163223586657,69.94951809396906,1.351997394754887e-05,120.00001812674968,90.84831229869296,1.274,1.0260310883392356,0.0,0.0,0.0,0.0357992034445943,3.700677535501642e-08,-0.0121310534481307,1.5051409581878843e-06,0.0004588955105349,4.721414111097893,36.7208578211118,12.181698355442045,35.55651229220977
0.34,31.222212145785647,131.0103999093516,4.903491659547144,4.73024573449122,0.0007962944975467,27.63851074646407,0.0010446307681611,3.0871492806781062,345.4656368807584,12.53557620048282,5.2556261014174765,69.94256797855994,1.5899658158227497e-05,120.000020882338,96.20413272674828,1.274,1.0259901535019136,0.0,0.0,0.0,0.0368395817555172,4.208561016221623e-08,-0.0133180771902383,1.7057647550599631e-06,0.0005184333231541,4.730245801363397,35.94841996438923,12.535701282129995,27.810389570354005
0.35,31.222211909310875,131.01040039453565,5.018822212845608,4.780248518778662,0.0008286678570753,30.332092807652543,0.0010618579815451,3.063967690608957,370.5765700527057,12.774786382148209,5.367579971644358,69.93493776125636,1.8594985713558667e-05,120.00002397748868,99.9096898192772,1.274,1.025950003202184,0.0,0.0,0.0,0.0375426220587071,4.7658312175989686e-08,-0.0145774693288123,1.9252724355785177e-06,0.0005782798420984,4.780248590437683,35.44790728185619,12.774916548990808,30.486451961956565
0.36,31.22221166933814,131.0104008868675,5.135354490370708,4.798132156899578,0.0008554457330409,34.32674769697476,0.0010851169437774,3.0374319611165923,407.8625232777224,13.09301701329486,5.506730645516068,69.92658597246795,2.163521613217148e-05,120.0000274401514,104.94818266210537,1.274,1.0259105142325406,0.0,0.0,0.0,0.0384778908056978,5.3755109608570216e-08,-0.0158991451700967,2.162609490834569e-06,0.0006464142451675,4.798132232978766,34.796094028187134,13.09315138639638,34.46087058603792
0.37,31.222211421355144,131.01040139563804,5.255882891363927,4.797392186816851,0.0008791822061288,32.551601855236584,0.00111162791192,3.0078619428913056,391.1218908297639,13.457513730739372,5.661815946371007,69.91747693543164,2.5047738471809164e-05,120.0000313040604,110.87154396328836,1.274,1.025872170958032,0.0,0.0,0.0,0.0395491312153729,6.040098808671168e-08,-0.0172926678053148,2.420031948898497e-06,0.0007226353721561,4.797392267189059,34.07332166419882,13.457651832357364,32.69027405888565
0.38,31.22221116634284,131.01040191882743,5.379799334000849,4.811698494594017,0.0009057112478668,34.02947987649063,0.0011338447913587,2.9774881690446744,404.81876101445977,13.77554886562956,5.800899861213392,69.90756948297444,2.886339581486796e-05,120.00003560072224,116.17243393848278,1.274,1.02583050512925,0.0,0.0,0.0,0.0404838339452728,6.762496638941508e-08,-0.0187646375218858,2.69955777313946e-06,0.0008026686661094,4.8116985796350695,33.46655348088405,13.775691134419684,34.15949264475229
0.39,31.222210906095896,131.01040245274032,5.505993307722699,4.813508003664984,0.000929862892873,29.00025983045028,0.0011579891265804,2.9442136901860865,357.6406249338268,14.124492165837273,5.950648592462506,69.8968186645841,3.311602501056718e-05,120.00004036395212,122.13093644173792,1.274,1.02579027384009,0.0,0.0,0.0,0.0415093739609825,7.545934774906889e-08,-0.020311592409804,3.0013532510753577e-06,0.0008908380763632,4.813508093268025,32.821616487639595,14.124638228358922,29.149330452482886
0.4,31.222210638473225,131.0104030017851,5.635788650457906,4.841647069358873,0.0009592124397379,27.71178845184976,0.0011749448424961,2.91135549588368,345.4656368807565,14.390874239274588,6.07193451174791,69.8851815212744,3.783947407715338e-05,120.00004563180136,126.77947425345651,1.274,1.0257493418632293,0.0,0.0,0.0,0.0422922854866381,8.39343718693383e-08,-0.021938519432511,3.3271332720311508e-06,0.0009803271643914,4.841647164150728,32.348088166612904,14.391024912012275,27.864299944624147
0.41,31.22221036681104,131.01040355909262,5.767123077463226,4.86553909860892,0.0009876699832274,31.306062598221665,0.0011918093836199,2.876450850006428,378.9468707766882,14.663028799871563,6.195223154320929,69.87261222561014,4.307011032901644e-05,120.0000514391194,131.6183642808765,1.274,1.025708445186429,0.0,0.0,0.0,0.0430921644173401,9.308325447883581e-08,-0.0236371933433427,3.6760977501392174e-06,0.0010761942383903,4.865539198612839,31.87689439156756,14.663183942709727,31.437931330109585
0.42,31.22221008906472,131.01040412887247,5.901259531771367,4.867510642114694,0.0010118258958528,35.308283402190774,0.0012128114559048,2.8374461227958245,416.23282400171047,14.9952917972178,6.33928625560071,69.85906967380902,4.884273094936628e-05,120.00005782486392,137.64909586091787,1.274,1.0256701057426505,0.0,0.0,0.0,0.0440686959134695,1.0293499639582845e-07,-0.0254093547296826,4.049238334851429e-06,0.0011830797791891,4.867510747027452,31.315270489291198,14.995450734457847,35.422111438762386
0.43,31.222209804115888,131.01040471342728,6.038886819939341,4.854590670645608,0.0010330089741511,31.00586934514032,0.0012363751872706,2.794478603999558,375.90313951343126,15.369430568701889,6.497852263156962,69.8445117629242,5.519340856908871e-05,120.00006482835984,144.60167924299955,1.274,1.0256308158337524,0.0,0.0,0.0,0.0451682983415116,1.135186446762958e-07,-0.0272634397889413,4.449073329427772e-06,0.0013010625065656,4.854590780289497,30.70250814963406,15.369592833372094,31.13154422839874
0.44,31.22220951192321,131.01040531284193,6.180028459770617,4.866912332640401,0.0010595850174406,28.57707721036899,0.0012525768202179,2.752165534925872,353.07501253892326,15.659290812546615,6.627318538707029,69.82889155423543,6.216182865383864e-05,120.00007249162944,150.1053167542629,1.274,1.025586171750536,0.0,0.0,0.0,0.0460202245100907,1.2486676023179565e-07,-0.0292060158163984,4.8779154055816594e-06,0.001420032405556,4.866912447705031,30.24619499837236,15.659457251771938,28.709297424144207
0.45,31.222209215425703,131.01040592106523,6.322872201489905,4.881836476567178,0.0010866574689855,33.31904824532484,0.0012669045761511,2.7082028218433374,397.2093853562887,15.934249290371609,6.751662050993672,69.81215834018458,6.97909417564726e-05,120.00008085697964,155.42080512416243,1.274,1.0255397023523487,0.0,0.0,0.0,0.0468283602442113,1.3701614206272197e-07,-0.0312276295846745,5.334643585560923e-06,0.0015449645531859,4.8818365972149325,29.82567893138932,15.934419982127675,33.428929688274074
0.46,31.22220891307435,131.0104065412864,6.468371919199588,4.869610441729251,0.0011078049156487,38.95909776354321,0.0012868374716666,2.6582856015412624,449.7140588976424,16.292139278621757,6.904766425053949,69.79426683863348,7.812149592850748e-05,120.00008996920153,162.4785746623087,1.274,1.02549635315424,0.0,0.0,0.0,0.0478802236363867,1.499987870203256e-07,-0.0333272350234362,5.819761874615242e-06,0.0016858511402973,4.869610567434908,29.29014635640275,16.292313292210977,39.04968351401366
0.47,31.22220860266524,131.01040717804253,6.6178810515614845,4.838450928223533,0.0011247917292402,26.253747818137555,0.0013104398935566,2.6026193242279367,331.0078106302504,16.710658191447514,7.078951441335346,69.77517236812905,8.719457259907165e-05,120.0000998741591,170.9309671061642,1.274,1.025453319323251,0.0,0.0,0.0,0.0491102725711187,1.6384464803343264e-07,-0.0355167087264168,6.3368207228363735e-06,0.0018427306558807,4.838451058652396,28.68386015667837,16.710834873319172,26.382435512333956
0.48,31.222208284201663,131.0104078313267,6.771393590864176,4.869339340099417,0.0011561785713505,25.860860976019296,0.0013165328518772,2.5543454292827983,327.20312230115803,16.911139899671,7.177575416403102,69.75482343794755,9.70562828082882e-05,120.00011062072316,175.0543877818846,1.274,1.0254092882449153,0.0,0.0,0.0,0.0496995461609974,1.7858865391586845e-07,-0.0378054080201581,6.88909442277235e-06,0.0019849793891693,4.869339477030596,28.40887970825325,16.911321511776286,25.986704537635287
0.49,31.22220796480208,131.01040848648364,6.924537656029012,4.881367714530694,0.0011829003785372,32.565703383222065,0.0013261973190012,2.5011623511055703,389.6000096981238,17.169005224738054,7.296160258358563,69.73316318155707,0.0001077573203115,120.000122255028,180.4309832312717,1.274,1.025367445590036,0.0,0.0,0.0,0.05045746454003,1.942747077649401e-07,-0.0401641298712614,7.47069711110948e-06,0.002140948887153,4.881367857509675,28.058569663954906,17.169191034294997,32.66161128464712
0.5,31.222207637929923,131.01040915697027,7.081324512896956,4.862566137860805,0.001202418260511,33.47759680712428,0.0013425340759632,2.4399894027711366,397.970310422106,17.52898693231981,7.450304424940405,69.71015149227495,0.0001193385310595,120.0001348274002,188.0736471953394,1.274,1.0253278572281015,0.0,0.0,0.0,0.0515154948878309,2.109295159784217e-07,-0.0426011733481599,8.084173008518589e-06,0.0023184335011768,4.862566286171007,27.57768313050809,17.529175807738486,33.56639745442473
0.51,31.22220730314019,131.01040984370235,7.24202048914867,4.8479762258125,0.001223054804074,25.49162310288008,0.0013562860883156,2.3767006597692686,323.39843497208153,17.86914397471067,7.597652147346554,69.68574349602717,0.0001318441288964,120.00014838524436,195.4407439266201,1.274,1.025286455263166,0.0,0.0,0.0,0.0525152689856776,2.2858192086249162e-07,-0.0451315948093539,8.734206149830708e-06,0.002503767471626,4.847976379721193,27.13799345359824,17.86933609171003,25.602178740977283
0.52,31.222206962738102,131.01041054193402,7.405210501673173,4.865306299521403,0.0012516517170965,30.733671928447727,0.0013599291289974,2.317711624364424,372.098451184342,18.08534843773428,7.701914987606457,69.65988568649581,0.0001453248538387,120.00016298000436,200.19561780583155,1.274,1.0252426840672306,0.0,0.0,0.0,0.0531507657929359,2.4726951523704535e-07,-0.0477531686556663,9.421346966092632e-06,0.0026812161964639,4.865306460134566,26.8699055233151,18.085545046726228,30.820940596104087
0.53,31.222206619320115,131.01041124632013,7.569307468221277,4.848802699234936,0.0012715119568563,32.301199055744725,0.0013711327835325,2.2490252325653923,386.55624643486095,18.41963113311156,7.8474319110539055,69.6325258319474,0.0001598315062727,120.0001786629144,207.6614205945027,1.274,1.0251993415311351,0.0,0.0,0.0,0.0541332845214831,2.67031759303889e-07,-0.0504479325599339,1.0141887756417996e-05,0.0028848299490111,4.848802865552398,26.45837260670532,18.419830861742675,32.37940050117613
0.54,31.22220626697288,131.01041196903336,7.737918664599091,4.831496690588052,0.0012913635058467,28.31291960103712,0.0013809098107221,2.177242866245296,349.2703242098436,18.75116898748492,7.992112829440902,69.60362200959217,0.0001754082864028,120.00019548734956,215.20067397992847,1.274,1.0251561018460285,0.0,0.0,0.0,0.0551077428911958,2.878941684235108e-07,-0.0532336286085667,1.090122304443916e-05,0.003098869611663,4.831496862756785,26.061835558272342,18.751371834390056,28.396510432451375
0.55,31.222205908994248,131.01041270328463,7.909026079894722,16.926145910542473,21.867809829269504,30.9209585032238,-1.5629167197966192,1.284649892361431,365.2500005919912,23.311818853880887,8.113323699629928,69.57312211246325,0.0001921068626005,120.00021350480982,332.60755958266367,1.274,1.025112921033824,0.0,10.025614263783408,0.0,0.068511152573491,3.0989272306468813e-07,-0.0561100530405476,1.1700476995263424e-05,0.0040606783378885,27.39650053572576,44.75010101150643,26.664016837543148,30.987073252842908
0.56,31.222205546564343,131.01041344664463,8.081909946161325,4.774918728666985,27.43689129979232,28.831448851631155,-2.005570361187164,1.8410593176118253,346.22656194657776,21.7877641421216,8.24370876953435,69.54097415464405,0.0002099796112633,120.00023276987916,290.5346381985872,1.274,1.0250709539098009,0.0,10.062191141780394,30.0000128556565,0.0640322299146957,3.3292051977349045e-07,-0.0690085882480278,0.0189385669121715,0.0046675647184712,27.817478227023663,47.794559170590176,25.93470612263584,28.959700529681953
0.57,31.22220518105916,131.01041420589075,8.258547605517315,4.772176515392369,27.137297805004582,28.52147952875643,-2.422642411131909,1.7622432998569948,343.1828296833045,22.0443635911994,8.37411558547412,69.50143310747288,0.0292380856677736,120.03121933929825,297.41327670060065,1.274,1.0250279191823897,0.0,10.098482259245095,30.000012855656493,0.0647864811323275,3.716318293761149e-07,-0.0720067697175772,0.0387984205761549,0.0049276297467034,27.522297915634116,47.33094871516702,26.14948239970996,28.678380222902724
0.58,31.22220480998526,131.01041497670613,8.436966597529155,4.753536953112939,26.82718446587236,37.45522604055592,-2.8551675878791887,1.6804420538099178,426.12500585731766,22.306479109206,8.502905320383196,69.46015420229672,0.0885207775451376,120.0945181854028,304.5228126005366,1.274,1.024981594484354,0.0,10.134876624800247,30.000012855656493,0.0655569479560959,4.2223492321593803e-07,-0.0750917423295483,0.0589541817647581,0.0051997557166129,27.21428482581621,46.85556880907304,26.36818797236323,37.601460413130596
0.59,31.22220443477462,131.0104157601197,8.618181216375108,4.700809390803848,26.359058875537976,30.43037706762661,-3.3240249634877608,1.5831163169560962,360.68438819710633,22.68989294267753,8.679461734334744,69.41705203054414,0.1783035299991752,120.19040968459846,315.07585031600934,1.274,1.0249386802161349,0.0,10.17099785348266,30.000012855656493,0.0666839066951447,4.849021579861169e-07,-0.0782565226512758,0.0794057560730007,0.0055119487349557,26.745382794142834,46.15095214480549,26.685848196838386,30.65229596145838
0.6,31.22220405106778,131.01041656452435,8.804332721595738,4.681240024639769,26.05684180474133,27.08653558737463,-3.789299830363336,1.4956486445393995,329.4859594986072,22.940135163481248,8.803594311646258,69.37202607909414,0.2988118336891642,120.31915437530054,322.0582327445196,1.274,1.024891335813742,0.0,10.207047811732808,30.0000128556565,0.0674194915383526,5.597984680433987e-07,-0.0815229395824141,0.1002741178591047,0.0058052405166884,26.445043898266334,45.69851129647391,26.89349859497516,27.3911695295841
0.61,31.22220366618921,131.0104173749268,8.991063514161096,4.662622681503278,25.76542215798956,31.681973658801606,-4.265828753615108,1.406656908600887,372.0984511843332,23.17755191652069,8.92264486683214,69.32494299003534,0.4504332319698839,120.4811875914816,328.75305600814227,1.274,1.0248423929069768,0.0,10.243431330346512,30.000012855656493,0.0681173866629032,6.471777367690882e-07,-0.0848659957725982,0.12140846606432,0.0061057342924381,26.15551226442276,45.267592905487525,27.089741039202416,31.99880362655271
0.62,31.22220327655912,131.01041819858895,9.180505478550815,4.622602270046856,25.37612317059689,39.30469764024113,-4.774384141199443,1.3060243218805592,442.86563930529206,23.49227584778985,9.072153315513802,69.27566342295721,0.6333017959176926,120.67667566843916,337.7356899525521,1.274,1.0247996097896497,0.0,10.279292693333192,30.000012855656493,0.0690424883173966,7.471985013282234e-07,-0.088282572180388,0.1427869780590593,0.0064376712754528,25.766250821877133,44.69562710609695,27.34930369684897,39.61514483184249
0.63,31.222202880216816,131.0104190394231,9.3737960971726,4.561220814752788,24.89085214746139,22.427876358181173,-5.323645718087318,1.1918958813294496,286.11251274707456,23.89035809702064,9.25430146627714,69.22402904206092,0.8474936948754356,120.9057248989622,349.2722096212812,1.274,1.024756158874558,0.0,10.315030120314098,30.000012855656493,0.0702125829451313,8.600014328186586e-07,-0.0917861189204833,0.1644801051838445,0.006806444885091,25.27910498795429,43.98233444247101,27.67837700001602,23.08184259242536
0.64,31.22220247622477,131.01041989919432,9.571445142742109,4.5595624222298605,24.69472642423989,22.017392726834583,-5.820081633780517,1.1048381075384257,282.3078244179702,24.026029694529527,9.333601661873823,69.16985182094051,1.0931638969098831,121.168527889953,353.2437521400667,1.274,1.024708534665538,0.0,10.350868916302154,30.000012855656493,0.0706114725165106,9.857697591055425e-07,-0.0953911584165618,0.1865640458002951,0.0071138148214508,25.08615243320365,43.71614866946989,27.786080760670856,22.80042981953206
0.65,31.222202074902064,131.01042075729202,9.767426686697489,4.538652059706656,24.411352085323337,38.653194503513134,-6.3445654977666965,1.0072163883105032,436.7781447787504,24.23302280125568,9.440864229062964,69.11291200787393,1.3705501126763346,121.4653681444132,359.34985925123624,1.274,1.0246641738210605,0.0,10.38688825649496,30.0000128556565,0.0712199738564032,1.124769780633162e-06,-0.0990474530773259,0.2087511091651765,0.0074499808101544,24.804257336479104,43.32284456237836,27.95258651084883,39.18338221152879
0.66,31.222201666931426,131.01042163214112,9.967130895670802,4.4641715349216256,23.87800432725881,32.90109957868576,-6.957120162428144,0.8775587146840608,383.5125151715984,24.669095731253936,9.63801730601958,69.05299969958897,1.6794256295638,121.79603471822163,372.39207458824416,1.274,1.0246195561629028,0.0,10.421996852044016,30.000012855656493,0.0725017397010318,1.2770632029974602e-06,-0.1027669831605705,0.2311050918295199,0.0078686958758637,24.267676743389444,42.55029905929257,28.312210930242458,33.64006515657748
0.67,31.222201247953,131.01042253195249,10.1729532351398,4.422147469528031,23.502780654212327,22.71434576329684,-7.540111307586175,0.7629781119204254,289.15624401033847,24.95216192583132,9.77522049187566,68.98987624517136,2.019625988313281,122.16038572687935,380.9796212148845,1.274,1.024572383541697,0.0,10.457175895160908,30.0000128556565,0.0733338331187943,1.4427285058270245e-06,-0.1065913728323889,0.2538494776584374,0.0082550094491645,23.89197215436074,42.02761989237583,28.54130409923008,23.945290091887795
0.68,31.22220082824185,131.0104234366651,10.379030022424883,4.401693529806472,23.233758583037584,28.273077503921776,-8.094600901514683,0.6603823409452367,340.89999248584934,25.12283661983965,9.86841317484702,68.92325253300486,2.3912793345521712,122.55859557881628,386.2016629267254,1.274,1.0245245285832842,0.0,10.492811229900836,30.000012855656493,0.0738356137968964,1.6220333604649395e-06,-0.1104900174970298,0.2768098093307834,0.0086153011161172,23.62431465618928,41.67698298202045,28.67318716830826,29.41641684729468
0.69,31.2222004062844,131.01042434925088,10.586233685956977,4.352950475614272,22.834553037842166,34.728548640315,-8.706517068857178,0.538415710446349,401.0140726853658,25.4171302779722,10.01009053398586,68.85283717735115,2.794211045546412,122.99051770649628,395.2948717389602,1.274,1.024479631064582,0.0,10.527888297105868,30.000012855656493,0.0747007127552716,1.8151408170183465e-06,-0.1144398401156268,0.29985667750219,0.0090276322854575,23.22392374001077,41.12884397705744,28.9097734061483,35.80733753869843
0.7,31.22219997599925,131.01042528093652,10.797853064536124,4.28948856929456,22.369904634449952,29.11051391803253,-9.361481334225711,0.4036395495029894,349.270324209851,25.77601800423449,10.177086249942493,68.77833404346629,3.228012122317939,123.45575762698526,406.5284814997111,1.274,1.0244351749185203,0.0,10.5626067899656,30.000012855656493,0.075755661349936,2.022095986716112e-06,-0.1184620522810633,0.3230999247772146,0.0094766830777895,22.756701194212724,40.48247913058484,29.20128024824064,30.58140412454839
0.71,31.222199538878183,131.01042622856326,11.012969646935264,4.245187476186795,21.998887645630727,23.895507942451,-9.98702395937516,0.2803803808324848,301.3312640634036,26.028887076310216,10.302626802178631,68.69941121921052,3.6923878268258754,123.9540468747076,414.5353316862119,1.274,1.0243880468141104,0.0,10.597498766416676,30.000012855656493,0.0764990286604268,2.243019793728649e-06,-0.1225663885427488,0.346586054196273,0.0099010053708553,22.38477049831349,39.99090859906983,29.400184411237493,25.90008804137214
0.72,31.222199099376606,131.01042718387467,11.229166717305668,4.207191692254788,21.660212684755976,29.18661178317827,-10.601849751165393,0.1611736882219077,350.7922053414578,26.236455957432028,10.410507640484772,68.6157082114147,4.187058265355134,124.4851369341797,421.1644221127984,1.274,1.024337302174265,0.0,10.632333352146988,30.000012855656493,0.0771092627096437,2.4781014833514827e-06,-0.1267303291608946,0.3701897603838478,0.0103187959259717,22.045716381746924,39.55828624897554,29.55836909976969,31.05291455702703
0.73,31.22219865590496,131.0104281496706,11.44726982287848,4.148476524882689,21.227768655283484,36.8521453822568,-11.273838964284511,0.0242700772677491,422.3203185282354,26.54278493899543,10.557088785600172,68.52686170792512,4.711506829011741,125.04852944280482,431.0475867857893,1.274,1.024292465384646,0.0,10.666802982706496,30.000012855656493,0.0780097592562406,2.727445145440968e-06,-0.1309427940261981,0.3938479078047117,0.0107860464638677,21.610946454072977,38.98046327257957,29.801472381361748,38.53804163815621
0.74,31.222198204314093,131.01042913290493,11.669334841325163,4.073137003850385,20.721517172337297,22.976435278616226,-12.003861902246497,-0.1295279123899312,294.4828134710563,26.93301158844924,10.736506574736175,68.43249960255388,5.265071205798198,125.6435737648599,443.8056392672893,1.274,1.0242470321640116,0.0,10.701043509452903,30.000012855656493,0.0791568412512804,2.9910781776142124e-06,-0.1352191848781671,0.4176369199259359,0.0113018142560833,21.10075277511996,38.28692906826879,30.11744667424551,25.92346535787091
0.75,31.2221977441924,131.0104301337912,11.895440160812136,4.035975460277155,20.39477861455268,26.76591732792519,-12.6267978450558,-0.2500830016721165,330.24688556441737,27.09509212010751,10.826802659880896,68.33222042867615,5.8471403905868895,126.26967887323391,449.1535272260008,1.274,1.0241984712898409,0.0,10.735345948877228,30.000012855656493,0.079633403403512,3.269074034898111e-06,-0.1395716259736059,0.4416150089100797,0.0117355452963365,20.77358948168197,37.8958179142483,30.23147179930832,29.595825647090116
0.76,31.22219728570552,131.0104311351269,12.12050706772125,3.975942975939637,19.96527257544513,28.735651989888417,-13.320398260987352,-0.3921472884653387,349.2703242098581,27.37647158805204,10.963766880556673,68.2255952805228,6.457122437468569,126.9262792075619,458.5208736449487,1.274,1.0241522053390697,0.0,10.769680882331226,30.000012855656493,0.0804605915975753,3.561648127690005e-06,-0.1439543962905052,0.4655391302043613,0.0122294949985166,20.341459177148995,37.34061536785014,30.44952631680347,31.67529770359142
0.77,31.22219681723012,131.01043215598807,12.35019161076472,3.9121060123455376,19.51968419585351,26.747112730983023,-14.030453028261656,-0.5390037528091516,331.76876669606884,27.669262878280342,11.105355094283947,68.11222135617872,7.094022137033203,127.6123801505188,468.37074889513,1.274,1.0241065975906936,0.0,10.803342706193332,30.000012855656493,0.0813213281361916,3.868749510001509e-06,-0.1483858634778473,0.4895013215705755,0.0127405054072889,19.892856124067524,36.7654568100548,30.67643906856454,30.20847855599009
0.78,31.222196343303256,131.0104331884693,12.582167643500238,3.852049952163626,19.09433814268004,21.78578173753665,-14.728020867252647,-0.6823589516797349,286.8734378128874,27.926646201723656,11.233129973534016,67.99166844952701,7.756913491440184,128.32706630352538,477.1143476775901,1.274,1.0240588105546735,0.0,10.837179598729495,30.000012855656493,0.0820780052279196,4.1904202665681365e-06,-0.1528641181344419,0.5134856854230968,0.0132468068016571,19.46480012260316,36.23047054408551,30.870766876061428,26.30590234758641
0.79,31.22219586454772,131.0104342313929,12.81609416949526,3.7990141295877615,18.70282092286209,31.051910360505683,-15.393650245629845,-0.8171777035762723,373.6203323159581,28.12495863700916,11.337875924480956,67.863498234359,8.44478686950127,129.06933712024284,483.9036962430612,1.274,1.0240083170932772,0.0,10.870841722384936,30.000012855656493,0.0826610749377377,4.526713049362188e-06,-0.1573785152804678,0.5374342712059577,0.0137345503024434,19.07122387330356,35.760768851065045,31.010895266680933,34.66775712850316
0.8,31.22219538219484,131.01043528270444,13.05136556394794,3.720165445443479,18.19564802523608,31.33293715063116,-16.1647797625807,-0.9824071484715868,377.42502064505805,28.47984695077009,11.50405448207392,67.72727517942009,9.156493872014474,129.838047252744,496.1815878942888,1.274,1.0239625010683884,0.0,10.904222835206337,30.000012855656493,0.0837043368577777,4.877659076391262e-06,-0.1619142331068191,0.561267878768957,0.0143083638094652,18.559436793729237,35.097490781729626,31.29021180211021,35.27064188618501
0.81,31.222194888033428,131.01043635419845,13.29154311785658,3.64543551409776,17.709226965274123,19.991181296571,-16.920690202343867,-1.1436517180620849,273.9374926939922,28.79712591517971,11.655645712639387,67.58257475770787,9.890724478326147,130.6318813920605,507.28686363056033,1.274,1.0239149950770308,0.0,10.93728969383678,30.000012855656493,0.084637072101376,5.243130748921988e-06,-0.1664944152255145,0.5850987492292998,0.0148766825142619,18.068754840009863,34.47604044134887,31.534804185388147,26.215740039302574
0.82,31.22219438859948,131.010437435783,13.533614189651974,3.5914588653631854,17.31900057060476,25.7694104475298,-17.56923991823816,-1.2761013035565527,328.725004432774,28.95370681287945,11.744281441984755,67.42894648467274,10.64626512226998,131.449632969806,512.8065626801712,1.274,1.0238644186635044,0.0,10.970549736706484,30.000012855656493,0.0850975083795635,5.623164388385473e-06,-0.1711070401929193,0.608861453107989,0.0153716056534407,17.676283482996634,34.03161450665953,31.632930113975757,31.214886523176887
0.83,31.22219388831336,131.0104385212563,13.775702334456572,3.516119281173798,16.833861677441483,32.8524351303204,-18.31431092380828,-1.4362548887701097,395.6875032246518,29.248844294582327,11.88741247252712,67.26595178371123,11.421763351320587,132.28994969353647,523.3021922402875,1.274,1.0238188483711983,0.0,11.003580603479978,30.000012855656493,0.0859651783726993,6.017833381247462e-06,-0.1757189251735103,0.6323884101688849,0.0159464617374117,17.186742142056115,33.424761967468875,31.855221975621305,37.63986326637425
0.84,31.222193376213703,131.01043962537895,14.022311205143197,3.429183297342317,16.298158164696435,19.648647832394435,-19.1199312331895,-1.6137011454897796,275.45937482564227,29.620352708101752,12.060774660106611,67.09319255901208,12.21560746543014,133.15120210918911,536.6675041503937,1.274,1.0237739661568126,0.0,11.036133491699976,30.000012855656493,0.0870573197045372,6.4269252359654486e-06,-0.1803487008895086,0.6557679618437433,0.0165741034466391,16.64542847067795,32.73192565582715,32.14607540119523,27.46352423470646
0.85,31.22219285435592,131.01044074456712,14.272390818780751,3.368807698623367,15.883302135605812,21.352835658298485,-19.7609435928338,-1.7479635233152269,292.9609323393965,29.771097866299623,12.147422829855072,66.91025747922711,13.026266152369216,134.03185089135445,542.1308461732912,1.274,1.0237227741398531,0.0,11.068816548042482,30.000012855656493,0.0875006224005017,6.8503077960267775e-06,-0.1850031735579688,0.679027949993192,0.0170879671289159,16.227626769785598,32.26756578068932,32.234208183959964,29.14607793182992
0.86,31.222192334038343,131.0104418641102,14.521430789363029,3.294914493311177,15.409519596458468,26.918011658169416,-20.464686090195023,-1.900708294632884,346.2265619465616,30.012104609739698,12.269717533032658,66.71673558815417,13.852211458307972,134.93036330547653,550.9306498065304,1.274,1.023674789281455,0.0,11.101429568761628,30.000012855656493,0.0882092163161187,7.2880764501618626e-06,-0.1896392712976006,0.7019564177572373,0.0176575609408084,15.749497445610244,31.70135456931845,32.40355127945247,33.86732083322879
0.87,31.22219180287137,131.01044299953747,14.77422977323684,3.210331776343251,14.88911985941846,24.71653816919525,-21.224744945609206,-2.0699310855045367,327.9640783669946,30.3278557933329,12.421762417798504,66.51227970340524,14.69163283751844,135.8449012223978,562.5704289919069,1.274,1.0236288969245204,0.0,11.133445415936825,30.000012855656493,0.0891375015892723,7.73996914522419e-06,-0.1942661508170585,0.7245948976771571,0.0182782360806467,15.223633931120906,31.05396204859085,32.64039930643503,32.64478016121701
0.88,31.22219126213089,131.01044414847345,15.03009965865082,3.130624097997428,14.392128142548335,20.85180693991042,-21.936761435969583,-2.2279854974401685,294.4828134710421,30.588038598504607,12.552062819538053,66.29654866158312,15.542766555194044,136.77367799663512,572.2503602052999,1.274,1.0235805388426191,0.0,11.165485760083282,30.000012855656493,0.0899024721364209,8.205747453952966e-06,-0.1988894187964042,0.7469649837039166,0.0188733101682,14.72165462441316,30.45712470403904,32.82504990057846,30.347706245031805
0.89,31.22219071598145,131.01044530564695,15.287417635299931,3.0537811390823424,13.90908594252498,22.832618500877025,-22.60598868185824,-2.3766083273613656,315.02813424808807,30.80583711507961,12.665773352684772,66.06921268738823,16.40387600925498,137.71493664026065,580.4143121741943,1.274,1.0235293752791452,0.0,11.197458953179776,30.0000128556565,0.0905428749398854,8.685288762698644e-06,-0.2034932558932515,0.7689885376336375,0.0194471996227413,14.233913759629866,29.894483173192885,32.96927489277736,32.21812314571689
0.9,31.22219016369396,131.010446471734,15.546408358703852,2.96969197987812,13.395521477764484,25.21143415556355,-23.30868606714868,-2.535941128817299,339.3781423542166,31.074164292644543,12.79975797548878,65.82998284803364,17.273143994262593,138.666831224152,590.5547901657292,1.274,1.0234837388140003,0.0,11.22916345331624,30.000012855656493,0.0913317947654289,9.178410506150192e-06,-0.208064268903245,0.7905998831035591,0.0200567331881627,13.714873821952992,29.278359512528493,33.15921108484448,34.42879980141676
0.91,31.22218960148816,131.01044765048667,15.808289751864384,2.881159052603648,12.864101697585893,18.24680523898024,-24.027334313422887,-2.701378084983995,277.7421810230785,31.370835243098178,12.94531847156713,65.5786119429487,18.148703810455764,139.6274593018205,601.8697587028341,1.274,1.023436404813438,0.0,11.260631436665133,30.000012855656493,0.0922040292034812,9.684796327157336e-06,-0.2126031046066768,0.8117983844354375,0.0206894047674261,13.177488791995316,28.63210192300721,33.37458931993085,30.29118913473516
0.92,31.222189029863763,131.0104488408043,16.072751788885817,2.801863820750349,12.37365491246692,22.00600201376277,-24.636700367987498,-2.84055166629073,315.0281342480675,31.557732720434,13.04741272071496,65.314878461551,19.028726381413023,140.594956098678,609.047150391,1.274,1.0233859136578225,0.0,11.292012240042876,30.000012855656493,0.0927536283052611,1.02041384073387e-05,-0.2171064727056084,0.8325648897081264,0.0212529806548976,12.68208698576526,28.076972470107503,33.486308720672994,33.15569126742185
0.93,31.222188455096752,131.0104500359651,16.337654441746597,2.712022343944324,11.839485354045728,26.49452386595064,-25.314403646268268,-2.999695051859264,359.16250706547066,31.83695900067921,13.186641363083451,65.03859325949149,19.911409013745946,141.5674812333762,619.8568942349325,1.274,1.0233407575091376,0.0,11.32326767079434,30.00001285565649,0.0935746022649684,1.0736260262662808e-05,-0.221550843090439,0.8527895396228135,0.0218793904331327,12.141807057712352,27.43666437032495,33.68349430289767,36.76652005906702
0.94,31.22218786731554,131.01045124554471,16.606120449371492,2.616265147119848,11.281666436634683,17.91539666350987,-26.02632982983168,-3.1699296206573777,283.06875048378083,32.16728151040614,13.346798607124,64.74963027369854,20.794891409805807,142.543124768492,632.7698847328612,1.274,1.0232914783978162,0.0,11.354148579626411,30.000012855656493,0.0945457664778465,1.1280688084380764e-05,-0.2259418452733054,0.8724944753298808,0.0225439528104418,11.577225052309691,26.750704004879765,33.92797271543281,31.754995446732597
0.95,31.222187268109,131.0104524672499,16.87746209743447,2.5316604636721136,10.77213047623574,24.036637862046785,-26.58688294225955,-3.303544855169548,342.421873617488,32.35353729638642,13.449448713766085,64.4478875514133,21.6774106714394,143.52007661855876,640.1021780253452,1.274,1.0232418269359267,0.0,11.385023200490735,30.000012855656493,0.0950934988399333,1.1836989591883547e-05,-0.2302782530069458,0.8916692560324598,0.0231090671354806,11.062205651555423,26.17682744655616,34.03566873548177,35.993550990513704
0.96,31.222186666588275,131.01045369238346,17.148836481873374,2.4341929073395243,10.21085356765052,23.11751625423601,-27.25748418113243,-3.468002205418357,337.09533515678265,32.67569560407091,13.607240404602903,64.13329726196055,22.55727303077424,144.4965946804775,652.8961821505337,1.274,1.0231951201821403,0.0,11.415801181359411,30.000012855656493,0.0960406804314282,1.2404964349379092e-05,-0.234532282898855,0.9101892297660528,0.0237697093740263,10.493996192212729,25.49199263885915,34.27113616825802,35.908453613965854
0.97,31.22218604791093,131.01045493401082,17.42460637193153,2.3387751964820134,9.659338448155223,12.760272132175936,-27.87133021432607,-3.6204600227304873,245.0218871929888,32.958242013747274,13.74960799528504,63.805865904070565,23.43275129157612,145.47088970740083,664.2185807376992,1.274,1.0231476260761452,0.0,11.446165664029444,30.000012855656493,0.0968714446471024,1.2983966186982249e-05,-0.2387134406059281,0.9280917668162368,0.0244020216249473,9.935832303527247,24.8346529178514,34.4683502602656,30.86654051848669
0.98,31.22218542155857,131.0104561831461,17.70182926815607,2.2527950412270847,9.147437012309604,20.50889436550662,-28.31931468133421,-3.7330502538936767,319.593746642963,33.09646973169053,13.833729604406084,63.46562056703532,24.30225712138938,146.44131530240108,669.7839308963919,1.274,1.0230935628253934,0.0,11.476615154107847,30.000012855656493,0.0972780302714173,1.357359163812213e-05,-0.2428076627079413,0.9453116445433094,0.0249239799966833,9.418465470647178,24.278388043597808,34.5272494521363,35.164385339630726
0.99,31.22218479296328,131.01045743526458,17.978975459661633,2.1531124111068807,8.582070038993889,22.53697901110568,-28.909999188342542,-3.885065599834221,341.66094855170127,33.40428376336079,13.987372404867008,63.11264402614185,25.16424663057065,147.40626217907123,682.2823695415601,1.274,1.0230490803133316,0.0,11.50682515076644,30.000012855656493,0.0981830725498551,1.4173548232000568e-05,-0.2467893283664801,0.9617394665225604,0.0255676206672737,8.846077900327822,23.596486839233883,34.74731702369792,36.86186662028932
1.0,31.22218414528733,131.01045870357262,18.260592762972284,2.052838626472833,8.016047703709832,19.179071227519305,-29.472549600454613,-4.032746868864562,314.2672081822764,33.70813069101109,14.1401501999487,62.74709303634534,26.017192601199145,148.3641254866981,694.7321741616008,1.274,1.022999484445133,0.0,11.53663786604946,30.000012855656493,0.0990764651967286,1.47830040140175e-05,-0.2506701323457437,0.9774189657846316,0.0262051884319135,8.273066740482523,22.916138441091807,34.96318478595786,35.39394016508834
1.01,31.2221834878063,131.0104599800021,18.54398248041861,1.9551338023444265,7.462229338441895,19.95271908099461,-29.951276001389136,-4.161871745424459,324.92031610370094,33.95653667615451,14.270762916790288,62.36914188894338,26.85973050193836,149.3134675230164,704.9901212369421,1.274,1.0229507481225095,0.0,11.566541967324593,30.000012855656493,0.099806910470064,1.5401395353930546e-05,-0.2544404207955521,0.9923049427441484,0.0267946260976317,7.712702205076359,22.271160961803005,35.125389907314045,36.22859518752884
1.02,31.222182821450808,131.01046126368803,18.828862206820805,1.854388251212824,6.898735885583443,15.171615424975585,-30.433763972821183,-4.295012242457795,284.59063161543185,34.237345144558496,14.415428970373773,61.97901390258372,27.690579012393112,150.25292842868927,716.6787587864392,1.274,1.0229039803623294,0.0,11.59625030377376,30.000012855656493,0.1006326015639074,1.6028210328160934e-05,-0.2580849904954222,1.0063331813067125,0.0274024348118627,7.142455988814406,21.603294873759346,35.31837956532915,34.27592499582773
1.03,31.222182141191887,131.0104625578997,19.116424425356254,1.7567162052564165,6.348274308810795,10.717609503125225,-30.81075721292952,-4.40416470800347,247.3046933904342,34.44752509842066,14.531435546362,61.57698912760442,28.50852950669278,151.18121352277848,725.4849821683526,1.274,1.022853416101322,0.0,11.62573756578,30.0000128556565,0.1012507045029256,1.666274240000266e-05,-0.2615980822311799,1.0194758888873676,0.0279451799698095,6.585893940566392,20.97698536710566,35.44267066396531,32.91757251485583
1.04,31.222181453970165,131.01046385739934,19.40484873190456,1.6599878326678,5.802670640634519,21.00593785633269,-31.112305608355136,-4.497032713795488,345.4656368807608,34.61939644740204,14.6319537955253,61.16338944012501,29.31247967605996,152.09713078921172,732.7221661725139,1.274,1.0228049544826707,0.0,11.655128929583066,30.000012855656493,0.1017562126039232,1.730444019867083e-05,-0.2649641238439416,1.0316694245532358,0.028445191746513,6.034659737521384,20.37039425875419,35.529320476751,37.80804529092643
1.05,31.222180758414776,131.01046516296097,19.694432792119315,1.5532991274471983,5.224307112911491,9.16754403898843,-31.56967290569732,-4.633317241881221,240.4562587980608,34.971083538776675,14.808745705412871,60.738592464278334,30.101406585828563,152.99955993507578,747.6639550840067,1.274,1.022755494436122,0.0,11.684242833093531,30.000012855656493,0.1027902564639256,1.7952656799798854e-05,-0.2681717536690819,1.0428684482251822,0.0290812011668536,5.44971856327116,19.65950067723752,35.79057912541334,33.19873099597974
1.06,31.22218004023934,131.01046648318666,19.988390393062573,1.4566094089631667,4.681753025052817,16.146095651008466,-31.751604586495368,-4.7018180040399855,308.1796836557233,35.09928996893327,14.892043636554122,60.303023738915634,30.87438310218569,153.88747073135707,753.1347162049949,1.274,1.0227013895379469,0.0,11.713115642917169,30.000012855656493,0.1031674349138355,1.860628357712993e-05,-0.2712280048059699,1.0530895030545686,0.029519623812475,4.902631735592979,19.07221086228416,35.833879919149155,35.93004162440927
1.07,31.22217932534185,131.01046780158055,20.28067841376429,1.3516008740421344,4.114563662724907,20.13912679615665,-32.074625266225034,-4.81010934816769,348.5093681440431,35.394988548877414,15.047095105240228,59.857127995882365,31.6306198748304,154.7599714973819,765.8564338345229,1.274,1.0226540159946436,0.0,11.742065280609214,30.00001285565649,0.1040369256544986,1.9265007202220275e-05,-0.2741064005273202,1.0622378999260482,0.0300833862017043,4.330510075183288,18.394641846598727,36.04074732724578,38.177259802423826
1.08,31.22217858652869,131.0104691343597,20.57737309660809,1.245131207077011,3.5456004830376364,10.204504351651586,-32.39063803627692,-4.920171404066357,261.0015785751465,35.719828269394874,15.215902027762464,59.40141681327397,32.36938335436097,155.6162151324496,779.9561042394959,1.274,1.0226061614050743,0.0,11.770483764699108,30.000012855656493,0.1049920825482877,1.9927663764090845e-05,-0.2768117505523873,1.070322005624312,0.0306582438623507,3.757612932672472,17.704662801892415,36.27641449730081,34.31462411429532
1.09,31.22217783337488,131.01047047509584,20.87615992948992,1.1443867220781605,2.996457403284236,8.239346160714854,-32.487131999226165,-4.976628685366122,246.54375332456465,35.88042664971829,15.314938864229868,58.93642128351252,33.09006496163368,156.4554791171266,786.9627402703454,1.274,1.0225512795791307,0.0,11.798985267844188,30.000012855656493,0.1054644885026575,2.0593358490369654e-05,-0.2793369229875192,1.0773081103557065,0.0310761257694591,3.2073639822494178,17.096828490915694,36.35089454783645,33.88314335718043
1.1,31.222177077432743,131.0104718173479,21.174572030561247,1.0420993765410735,2.4451925016771363,26.02679557878608,-32.56696090802847,-5.032091976323272,413.1890617384087,36.06522786307129,15.425096873782069,58.46270854858283,33.79214591793366,157.277125660408,795.0672904035888,1.274,1.0224981043155532,0.0,11.82734422516184,30.000012855656493,0.1060080375984311,2.1261601075525448e-05,-0.2816633785121832,1.0831373616431907,0.0314954301369525,2.657870970186166,16.477215441161796,36.4492012233532,41.99193947108362
1.11,31.22217630709265,131.01047316721537,21.4750001340808,0.9309317269895666,1.875843709791416,15.93572850052535,-32.91015742104216,-5.16033388968502,324.1593910379213,36.530257032818334,15.659112188008724,57.980893846033126,34.47517959615768,158.08058153997547,815.679316381711,1.274,1.0224548851875197,0.0,11.855332235081088,30.000012855656493,0.1073752813632995,2.1931453125869133e-05,-0.2837858752167324,1.0877886175491471,0.0321410048931061,2.0940663390780903,15.736183641273875,36.82486123684849,36.92769895584159
1.12,31.222175502955835,131.0104745336824,21.781137591813184,0.826707324501009,1.3268355075138312,-0.9468428506647272,-32.950490324958935,-5.212994358381418,172.7328179403806,36.7592139491358,15.791005047420697,57.49162078055604,35.13880984760542,158.8653601548132,825.9117705743587,1.274,1.0223979224661404,0.0,11.883181331632926,30.000012855656493,0.1080486395756415,2.260133956891605e-05,-0.2857099168066833,1.0912537325231206,0.0325607730880795,1.563270701590053,15.10299740926714,36.96761415542188,33.373741687434205
1.13,31.22217469980643,131.01047589912875,22.08599307756865,0.7269378734288812,0.7886904022915092,19.961043623948463,-32.7270512126874,-5.1993465056547725,367.5328077894322,36.78933125921519,15.835153929419208,56.99555007975039,35.78276805345067,159.63105916729984,827.2414626203,1.274,1.0223460397860296,0.0,11.911230845187392,30.000012855656493,0.1081375372595557,2.327090085298464e-05,-0.2874155898281787,1.093480379352726,0.0327810360158375,1.0725846564175583,14.551906221823623,36.91321454554404,38.68509206039068
1.14,31.22217389597617,131.01047726487766,22.39002299723493,0.6180309579481252,0.2409891373053555,5.665661318649691,-32.89671987978488,-5.293587220933915,239.6953177322812,37.22080326357011,16.059817846828064,56.49338455610895,36.40684751670474,160.37733114971772,846.7346011404331,1.274,1.0223022138470996,0.0,11.938841094334752,30.000012855656493,0.1094061694229676,2.3939702195396046e-05,-0.2888897256117773,1.0944466733148563,0.0333346282072849,0.663351925333809,13.847639383641011,37.25865763712463,33.79816507877776
1.15,31.22217304869249,131.01047864959645,22.701082114232047,0.5157169407876722,-0.2950919241748937,5.100346821442916,-32.67400472351746,-5.287271093218502,237.4125115347709,37.33673371700587,16.14388928774345,55.98585436957811,37.01091676115139,161.1039002935308,851.9919541590403,1.274,1.0222426194541194,0.0,11.966066727805911,30.000012855656493,0.1097473185736168,2.4605750459989208e-05,-0.2901389438282059,1.09412861721508,0.0335820458540848,0.5941724119069053,13.26714552490245,37.29038099087471,33.489690323809036
1.16,31.22217221315636,131.01048002852843,23.008873237705345,0.4121395218464904,-0.8271359606267096,32.38608086373998,-32.47675614819371,-5.291146024977653,490.043774385954,37.5189998691948,16.258748034799023,55.4737069032483,37.59490122964567,161.81054161387075,860.3051350696445,1.274,1.02219674531104,0.0,11.993609156504704,30.000012855656493,0.1102834533995924,2.526889669067364e-05,-0.2911484310760018,1.0925139160992776,0.0338623948705139,0.9241217900220824,12.66723270870718,37.38907816915949,46.169190483260365
