Time,Latitude,Longitude,Altitude,Angle of Attack,Angle of Sideslip,X-Acceleration,Y-Acceleration,Z-Acceleration,Thrust,True Velocity,Ground Velocity,Pitch,Roll,Yaw,Dynamic Pressure,cp,parachute_deploy_gain,Wind Speed,Mach,omega_x,omega_y,omega_z,Cmq,Angle of Attack(total),Angle of Attack(gust),True Velocity(gust),Acceleration
0.0,31.222186000000004,131.010384,3.000000003643237,0.0,0.0,0.0,0.0,0.0,2.2828121974499247,0.0,0.0,69.99999999623421,0.0,113.69999999388332,0.0,15.288,0.0,0.0,0.0,0.0,0.0,0.0,-0.0,0.0,90.0,0.0,0.0
0.01,31.22218600000153,131.01038399999584,2.99999882256592,0.0,0.0,0.0,0.0,0.0,34.24218696174923,7.502283530665459e-11,7.190531319924593e-11,69.99999999623329,-4.83564628150269e-13,113.69999999388072,3.446445726795683e-21,15.288,0.0,0.0,2.204725565824978e-13,-3.659182332138578e-19,7.589415207398531e-19,4.811147140404426e-19,-1.5108918610345807e-31,0.0,89.9999999995224,7.502283530665459e-11,0.0
0.02,31.22218600000288,131.01038399999217,2.999997775701936,0.0,0.0,0.0,0.0,0.0,25.871876237766408,1.5320717031631675e-10,1.4674636035870463e-10,69.99999999623222,-9.67129256300373e-13,113.69999999387804,1.4372842949972735e-20,15.288,0.0,0.0,4.5023593667086093e-13,-7.284483346386986e-19,1.5178830414797062e-18,9.757819552369542e-19,-6.170906918166791e-31,0.0,89.99999999902465,1.5320717031631675e-10,0.0
0.03,31.22218599928065,131.01038400193067,3.000201659671132,18.81500467334555,-0.00012974450181,11.96616230539064,-1.8916256735984712e-05,3.349833086198469,180.34219359854663,0.0882870268161719,0.0553390044312322,69.99999999799445,-4.212591857125379e-12,113.69999999488518,0.0047728553458352,15.288,0.0,0.0,0.0002594525584132,3.2187251995663407e-17,-7.20264389268894e-10,1.2365134327422308e-11,1.6874092354518158e-13,18.815004673776716,89.46786891739345,0.0882666465974854,12.426199017587786
0.04,31.22218599548236,131.0103840121632,3.001799604587872,9.46752327608497,-4.6177622759613696e-05,55.21900012092241,3.931876292165237e-06,3.349616504302861,548.6359724538078,0.3767519978512604,0.1853356633749705,70.00000000507204,-2.4624598767003407e-11,113.70000000019972,0.086915163246288,15.288,0.0,0.0,0.0011071759353184,1.6174128009138757e-15,-1.3693172015529268e-08,2.7753303060112748e-11,1.3689612277852356e-11,9.467523276196548,87.63554493451223,0.3767447442872393,55.32050167054111
0.05,31.222185984749512,131.01038404118162,3.00777936418888,5.376730308971262,-2.257790939128127e-06,80.28807156553681,5.266841443842784e-05,3.348887800834877,761.6984298824644,1.018787885905993,0.4366201147110198,70.00000000894464,-1.1355399380652658e-10,113.70000001523856,0.635552918586145,15.288,0.0,0.0,0.0029939522895272,1.6418815498809788e-14,-9.32122351075408e-08,4.303264669380585e-11,2.5199270302492604e-10,5.3767303089717045,83.57022052969386,1.0187875312530217,80.35788377762394
0.06,31.22218596447235,131.01038409608267,3.0201664202003013,4.296730121134882,2.4863835723705905e-05,60.21296515808257,0.0001057204249726,3.347700952379021,590.4875390737208,1.721098934225416,0.7081674028809783,69.99999995523842,-3.0560354507026086e-10,113.70000004366592,1.8138247671743823,15.288,0.0,0.0,0.0050578622752421,8.328976953118383e-14,-3.2824985336199985e-07,5.923438275930214e-11,1.4991363363716091e-09,4.296730121206683,79.20467073327266,1.7211028398275985,60.305955550063224
0.07,31.22218593493329,131.01038417609837,3.038741944736831,3.8204913578752526,4.8016684030909405e-05,91.4060317508128,0.0001597686613101,3.346072557365335,855.2937749779139,2.4375792548422868,0.9844712334613328,69.99999973536046,-5.939103491363046e-10,113.7000000850886,3.6383156301599167,15.288,0.0,0.0,0.007163413150771,2.709313825263564e-13,-7.906546256197275e-07,7.920022733617308e-11,5.114174483651565e-09,3.820491358176508,74.87999294483174,2.437586797285377,91.46725557277466
0.08,31.222185894468456,131.01038428575305,3.0647976109320942,3.588632851766762,7.220043782492885e-05,19.18449428359557,0.0002119618497595,3.3440615022685813,241.2171988638848,3.1292508166901074,1.2522236515868983,69.99999919480445,-9.914748373602156e-10,113.7000001418522,5.996012698481753,15.288,0.0,0.0,0.0091960591623389,6.80386533246681e-13,-1.5973238302190878e-06,1.0839624626357699e-10,1.3263625118823921e-08,3.58863285249208,70.86684630658345,3.1292621579083604,19.473766155861934
0.09,31.22218584634549,131.01038441616095,3.0957981580345013,3.551302481506045,9.685468678862004e-05,57.102946699906326,0.0002554087225869,3.341892818148368,563.0937377043176,3.701810007254615,1.479132491047967,69.99999812344194,-1.4359264356978275e-09,113.7000002093888,8.390904013834115,15.288,0.0,0.0,0.010878666406854,1.440096519545733e-12,-2.748643691533636e-06,1.5214952332699618e-10,2.6999776649034504e-08,3.5513024828250237,67.68737872952666,3.701825221153239,57.20065357568538
0.1,31.222185790329306,131.01038456796124,3.1319266121977414,3.608446747536112,0.0001234669721807,54.26147302645416,0.0002914860332524,3.3396271157106168,538.7437595981919,4.174070299823608,1.6716491241860567,69.9999963052332,-1.902380107712657e-09,113.70000028805804,10.668380938744466,15.288,0.0,0.0,0.0122665227999911,2.687800116751415e-12,-4.315796035622946e-06,2.1749089204950437e-10,4.7802076800548326e-08,3.608446749645647,65.17160335282355,4.174089693970246,54.36414778470795
0.11,31.222185727066616,131.0103847393952,3.172681775073216,3.633547373470009,0.0001485939126744,42.987553988990406,0.0003293995000288,3.337005588796181,442.8656393052949,4.672024955140527,1.8729475711242067,69.99999349387662,-2.3433348587116544e-09,113.70000037699285,13.365573690709628,15.288,0.0,0.0,0.0137298902182575,4.5789425819531184e-12,-6.340230783164189e-06,3.1157625832417107e-10,7.860218435507205e-08,3.6335473765043056,62.62546922225161,4.672048296217748,43.116880735560244
0.12,31.22218565692512,131.0103849294629,3.2177790417108385,3.650108937861461,0.0001727442530266,46.86777100765684,0.000367618259785,3.334068179146888,475.58594813540446,5.17479364099247,2.0758708919414386,69.99998941286465,-2.702771525550512e-09,113.70000047573096,16.396890189902592,15.288,0.0,0.0,0.0152074069417046,7.288473386564583e-12,-8.86736416607888e-06,4.42271554299792e-10,1.217615295152289e-07,3.6501089419435786,60.16906436414164,5.174820775596283,46.986210423745625
0.13,31.222185580265183,131.0103851371844,3.2669395832841857,3.7280113734654137,0.0001995014041665,51.64515456841877,0.0003986198234033,3.3311573548369657,515.9156326236895,5.579364582999854,2.2451120211463422,69.99998375846928,-2.9114380666036422e-09,113.70000058383452,19.060875702782603,15.288,0.0,0.0,0.0163963474924215,1.100846422415094e-11,-1.1941028436408576e-05,6.179653149059831e-10,1.7678562106638216e-07,3.728011378795934,58.279338776943774,5.579395920607139,51.75247433579817
0.14,31.22218549718016,131.01038536230575,3.320091807147376,3.768719651034081,0.0002242721760019,48.1660778383537,0.0004326225136175,3.32784677779744,486.2390860568404,6.025734265159953,2.428648685938864,69.99997621008868,-2.890941335368725e-09,113.70000070125378,22.232643351545065,15.288,0.0,0.0,0.0177081261985351,1.5941871344608664e-11,-1.560901486259027e-05,8.477542742712431e-10,2.495765160917323e-07,3.7687196576976176,56.27980129251342,6.025769493750979,48.280903250602165
0.15,31.22218540777004,131.01038560455507,3.377159065217065,3.821894709649632,0.000249725644238,46.56959330999435,0.0004643042952466,3.324387732286376,472.54218587214,6.441023336496372,2.6014999612196745,69.99996641132823,-2.546763407193136e-09,113.70000082794672,25.402620271850456,15.288,0.0,0.0,0.0189285691155931,2.2314099732464315e-11,-1.992367942778425e-05,1.1417519574710292e-09,3.4051816697623295e-07,3.821894717796148,54.501255563441134,6.441062563308839,46.68809885900716
0.16,31.22218531193176,131.01038586421257,3.4382223512025254,3.8463320955387794,0.0002733212404609,36.974247749122085,0.0004987816203583,3.3205066466509234,391.1218908297564,6.895451966878468,2.7877331692857847,69.99995397923414,-1.77088415515292e-09,113.70000096417354,29.113317717489338,15.288,0.0,0.0,0.0202640360420561,3.0367358387834494e-11,-2.4945905791363795e-05,1.5114297685186711e-09,4.5643121540033697e-07,3.846332105235269,52.641145594326446,6.895494900078523,37.12304892183151
0.17,31.222185210004127,131.010386140357,3.503019838429153,3.8860314262554336,0.000297865039677,46.520531453299206,0.0005306403365217,3.31650761597812,471.78125980632376,7.314788342774694,2.9619016331667103,69.99993849340957,-4.3039914767238207e-10,113.70000110959404,32.761746921137856,15.288,0.0,0.0,0.0214963781445172,4.0366633128431416e-11,-3.0713078585132897e-05,1.96747427715988e-09,5.961228045584824e-07,3.886031437653654,51.00464968745696,7.314835131305714,46.63860064094784
0.18,31.22218510147516,131.01038643438045,3.571950002194137,3.9107265153396016,0.0003214293682635,38.895647526122765,0.0005639254295027,3.312149448254175,407.10156721191447,7.754626295791602,3.1430587898572058,69.9999195084231,1.6149322372810674e-09,113.70000126508234,36.81988229018681,15.288,0.0,0.0,0.0227889722876034,5.2593391349219385e-11,-3.731786027786564e-05,2.525509173087448e-09,7.6786585232224e-07,3.9107265285284982,49.36615848311875,7.754676785798701,39.036415444581515
0.19,31.222184986476247,131.0103867459258,3.644912152926752,3.920599115663931,0.0003437679584038,43.86258669386953,0.0005989384366483,3.307389681300437,448.9531328318269,8.219206165926856,3.332657190859447,69.99989653019398,4.538529095696477e-09,113.70000143063515,41.36350714675367,15.288,0.0,0.0,0.02415428010977,6.735860419174937e-11,-4.481243905342629e-05,3.199401151670645e-09,9.773118416308382e-07,3.92059913071168,47.71893898797248,8.21926016487149,43.987104227715655
0.2,31.222184864792144,131.01038707557822,3.722074668489528,3.943376465171875,0.000367328732016,40.28070981710589,0.0006315894240138,3.30251450988504,418.51563019916136,8.65238089736321,3.511445117640573,69.99986902534273,8.534090245934178e-09,113.7000016067622,45.83799876721736,15.288,0.0,0.0,0.025427299120469,8.499785987217288e-11,-5.328041996372527e-05,4.006766070954748e-09,1.2232205148646746e-06,3.9433764822533854,46.2587826635041,8.652438597225508,40.41586552155969
0.21,31.22218473678744,131.01038742234647,3.803156063113743,3.9664546506877016,0.000390962054969,38.67679184347145,0.0006636984664108,3.297405915846789,404.8187610144644,9.079179692250786,3.688002035198235,69.99983642883521,1.3827831253856693e-08,113.70000179318536,50.47126980736161,15.288,0.0,0.0,0.0266815841422463,1.0586558589671407e-10,-6.275155280099118e-05,4.961340042512481e-09,1.5117124669161171e-06,3.9664546699249135,44.88773728276958,9.079241104426773,38.817098210937615
0.22,31.2221846022986,131.01038778667507,3.8882846911135607,3.956175711337521,0.0004112685792646,46.713636108302936,0.0007011135033803,3.291572407481395,472.5421858721365,9.580256326712124,3.889976788904857,69.99979815126248,2.0662823443484168e-08,113.70000199039316,56.195522894218605,15.288,0.0,0.0,0.0281541581291438,1.3033127211465288e-10,-7.330053770532661e-05,6.0817207473359025e-09,1.8632831045819008e-06,3.956175732680424,43.35679625546934,9.580320928629488,46.8294591882524
0.23,31.222184460898035,131.01038816972698,3.977794004014759,3.9879066397329104,0.0004360962274406,38.89105719050748,0.0007308686121188,3.286096544282012,406.3406421461021,9.977039034039262,4.056142701351626,69.99975353557706,2.9316661139418326e-08,113.70000219928508,60.9462612310605,15.288,0.0,0.0,0.0293202403623685,1.5880617816859538e-10,-8.505067486192354e-05,7.393319440773217e-09,2.2514912291167663e-06,3.987906663538912,42.20670487756048,9.97710753587448,39.0296395118868
0.24,31.222184313516166,131.01038856897196,4.070963590490852,4.003523997322975,0.000459165577055,40.0792299321398,0.0007630441688766,3.280134925833028,416.2328240017114,10.408422364424831,4.234121060914368,69.99970190737699,4.010976417051318e-08,113.70000241888,66.32994780718496,15.288,0.0,0.0,0.030588009649109,1.91711512587616e-10,-9.795845222523724e-05,8.904557280909524e-09,2.7052895870113487e-06,4.003524023611085,41.011349410369874,10.408494489985014,40.21323112692186
0.25,31.22218416001652,131.01038898478134,4.167901030441617,4.0261356185860135,0.0004830526730531,41.17760020658354,0.0007934613160587,3.2740610008587527,425.36408079150686,10.816813039390448,4.4041629376391525,69.99964258149416,5.3372865854010094e-08,113.70000264972064,71.63651430352668,15.288,0.0,0.0,0.0317882126436337,2.2947426169209347e-10,-0.0001121037688082,1.0637152702866709e-08,3.217380562698304e-06,4.026135647516394,39.93186687113378,10.816888917126896,41.30755663120434
0.26,31.222184000702686,131.0103894163294,4.26837241014618,4.053359329950934,0.000507503069958,44.80261175215926,0.0008224724146494,3.2678597736729302,455.8015834241788,11.207047269494833,4.567925492611352,69.99957484039399,6.947299261165984e-08,113.70000289176392,76.89781807056055,15.288,0.0,0.0,0.0329350617559806,2.7254099134167665e-10,-0.0001275114371842,1.260720913253598e-08,3.7915697709142366e-06,4.053359361668992,38.945390435244384,11.207126987890645,44.921630958721536
0.27,31.22218383516388,131.01038986473338,4.372698316214008,4.0614460923241,0.0005296455772492,41.029837477288126,0.0008548809954683,3.2610328932384265,423.84219965987256,11.645685385842508,4.748226940060522,69.99949794024376,8.879821051920497e-08,113.70000314600205,83.0342688744587,15.288,0.0,0.0,0.0342241635563461,3.2137296827284217e-10,-0.0001442952656441,1.4842505534226832e-08,4.458527942364847e-06,4.061446126801262,37.8838346421185,11.645768582375233,41.15922617924542
0.28,31.222183663504484,131.01039032970942,4.48079961904222,4.081133040992532,0.0005533279247169,47.27661484082626,0.0008845140695959,3.254218495915602,476.3468732012221,12.047344998676092,4.915789434712848,69.99941106884992,1.1178948978424788e-07,113.70000341275257,88.85982357848233,15.288,0.0,0.0,0.0354045979054623,3.764736350660473e-10,-0.0001625146963723,1.7365685655384934e-08,5.194620655212288e-06,4.081133078439725,36.956255322213885,12.047431915223257,47.38848224631549
0.29,31.22218348566054,131.0103908114315,4.592727908358551,4.1001100265020245,0.0005770279952742,37.989969791857405,0.0009138463939581,3.247164755122801,397.97031042211177,12.446314684600782,5.082367374004485,69.99931338876085,1.3891902435864665e-07,113.70000369260468,94.8417675268915,15.288,0.0,0.0,0.0365771315767517,4.3836067907166327e-10,-0.0001822432988888,2.0202163500922312e-08,6.018074062137429e-06,4.100110067036654,36.07377590258778,12.446405323946324,38.12849176886316
0.3,31.222183301933686,131.01039130907952,4.708251093558373,4.112858061667493,0.0005998635114143,35.655053282557844,0.000944131403186,3.2397207148238625,378.1859457108711,12.860033399289696,5.253940723820665,69.99920403105713,1.707002607527005e-07,113.7000039856728,101.2505662360602,15.288,0.0,0.0,0.03779301412572,5.075709863465428e-10,-0.0002035013069687,2.3370674033523645e-08,6.94335970778e-06,4.112858105337573,35.19685285507256,12.860127625629724,35.80193592228613
0.31,31.222183112488807,131.0103918222051,4.827243246502713,4.136140889545823,0.0006242383343011,37.56633644061071,0.0009716215464757,3.232339252743767,394.1656220930212,13.2364445751808,5.4126574282679245,69.99908210036875,2.0768081583188525e-07,113.7000042923011,107.26326115439352,15.288,0.0,0.0,0.0388992619788015,5.846561731689753e-10,-0.0002263323252403,2.6893437641668458e-08,7.948283231812338e-06,4.1361409365698805,34.43286455705216,13.236542630309057,37.70514091683033
0.32,31.22218291741533,131.01039235056504,4.949637017503345,4.1622282001352975,0.0006491019906456,40.83513712643371,0.0009979686925508,3.224840963348891,421.55939346242695,13.59846554462374,5.566374262777002,69.99894668612772,2.504388718903276e-07,113.70000461297312,113.2095365840355,15.288,0.0,0.0,0.0399632243410653,6.701756367872645e-10,-0.00025078340164,3.0793566854276295e-08,9.047716714467492e-06,4.16222825066026,33.72644865222576,13.598567505326,40.96227562489027
0.33,31.222182716732533,131.01039289410716,5.075419569102976,4.187801887681037,0.0006739743721461,40.48743503284469,0.0010239291638211,3.217136801802925,418.5156301991682,13.956637761217308,5.718704299733134,69.99879684673242,2.995902922462564e-07,113.70000494831164,119.25032483364384,15.288,0.0,0.0,0.0410158804634189,7.647061680070125e-10,-0.0002769136723495,3.509664608790402e-08,1.0253455741189656e-05,4.187801941818244,33.053267359159875,13.956743628864118,40.61505097607
0.34,31.222182510255863,131.01039345333336,5.204736257784645,4.19642921746386,0.0006961879027693,31.814592723444047,0.0010535137542081,3.208669900766693,345.46563688075645,14.367047160772364,5.88887983533068,69.99863160305904,3.557915789971256e-07,113.70000529927128,126.36523219087664,15.288,0.0,0.0,0.042222056531773,8.688448410811866e-10,-0.0003048202762282,3.9835373705550826e-08,1.1618525957862828e-05,4.196429275109305,32.30947868183619,14.367156517712404,31.97598901989736
0.35,31.222182298183583,131.0103940277045,5.337435501771672,4.210915783240843,0.0007193441544952,34.813487415034444,0.0010813034848195,3.200164272309822,370.5765700527033,14.754132934586384,6.050986755458457,69.99844991734221,4.1975736284587617e-07,113.70000566632532,133.26448209504355,15.288,0.0,0.0,0.0433596939127697,9.832256819293898e-10,-0.0003345386312107,4.503361101379695e-08,1.309465610343774e-05,4.210915844572415,31.63649055965014,14.75424592890194,34.96026256388454
0.36,31.222182080444604,131.0103946174141,5.4735747500461605,4.22903876037745,0.0007431682866607,39.2632255716727,0.0011077666085529,3.1915717453569297,407.8625232777193,15.124417129017054,6.2072589919251575,69.99825073022951,4.922382611919288e-07,113.70000605036684,140.03566173682628,15.288,0.0,0.0,0.0444479595865755,1.1084921261805627e-09,-0.0003661511460057,5.0723697896912267e-08,1.4691545926915382e-05,4.229038825557203,31.017264542603208,15.124533865618538,39.39272792946638
0.37,31.22218185710795,131.01039522227452,5.613102797925907,4.249164960780052,0.0007674149135003,37.28328237034959,0.001133274451316,3.1828514669894137,391.1218908297666,15.483077353331511,6.359470679857624,69.99803294268581,5.740349991123437e-07,113.70000645214331,146.75405277514704,15.288,0.0,0.0,0.0455020695186381,1.245311285088233e-09,-0.0003997125883071,5.6934243389647934e-08,1.641828325195534e-05,4.2491650299519,30.439178816713017,15.483197898584232,37.418894813348615
0.38,31.2221816281124,131.0103958424523,5.756069531572451,4.260095806433531,0.0007900626414612,38.9278000801764,0.0011607546399008,3.1735466295306622,404.8187610144602,15.87126705947922,6.521735074464384,69.99779542676283,6.659911329739736e-07,113.70000687263192,154.20298254405043,15.288,0.0,0.0,0.0466429667223463,1.3943646956867835e-09,-0.0004353006984059,6.369875435270817e-08,1.8328108041903096e-05,4.260095879559656,29.83470194713067,15.87139116222873,39.05694584372078
0.39,31.22218139339905,131.0103964781077,5.9025231349944285,4.274091258047817,0.0008133283308351,33.320076729592266,0.0011870382950339,3.164143363712209,357.64062493382744,16.24457853509073,6.678818328235205,69.9975369905506,7.690136753559805e-07,113.70000731287368,161.54010621938565,15.288,0.0,0.0,0.0477401448128051,1.5563705124515804e-09,-0.0004730068442167,7.105463478762673e-08,2.0383860516746246e-05,4.274091335289374,29.274934656826048,16.244706292406182,33.46997636540994
0.4,31.22218115316572,131.01039712870306,6.0523126585892895,4.286421841403391,0.0008363022448449,31.88018820767003,0.0012133780841982,3.1544430614236454,345.465636880754,16.62063299903514,6.836764518435374,69.99725641601981,8.840594270905819e-07,113.70000777359816,169.10340080049767,15.288,0.0,0.0,0.0488453895716005,1.7320643186450851e-09,-0.0005128553637434,7.9027539265021e-08,2.2612406375611563e-05,4.286421922834417,28.730746964325096,16.620764365084565,32.03586915718869
0.41,31.22218090752676,131.01039779392735,6.205351877049411,4.30025870409831,0.0008595777771371,35.882550741685804,0.0012389121673015,3.1445895889870297,378.94687077668647,16.987310563534386,6.99141560549392,69.9969524610574,1.0121301778427253e-06,113.70000825570062,176.64448930727934,15.288,0.0,0.0,0.0499230826371405,1.922193031274436e-09,-0.0005548883906878,8.764667734700782e-08,2.5005077415911235e-05,4.300258789847355,28.21875643368965,16.987445585695873,36.020076248499606
0.42,31.222180656535848,131.0103984736348,6.36160173428776,4.322008670726048,0.0008844838439129,40.34064925656127,0.001261804338223,3.134918999355981,416.2328240017114,17.318628721060172,7.133856886815013,69.99662385300175,1.154276942054023e-06,113.70000876021427,183.59942989625057,15.288,0.0,0.0,0.0508968652507098,2.1275184665783874e-09,-0.0005991661829955,9.694534598491077e-08,2.752657757470936e-05,4.322008761057615,27.772396468009568,17.318767655457478,40.462275036947325
0.43,31.222180400205527,131.0103991677914,6.521055075967404,4.339436441324956,0.0009085827200945,35.541853595187746,0.0012854696362701,3.124839917627212,375.9031395134336,17.662848429084132,7.280642039343927,69.99626930133451,1.3115939750280808e-06,113.70000928827632,190.96736675963504,15.288,0.0,0.0,0.0519085689713619,2.3488101247838237e-09,-0.0006457514522491,1.0695800287133593e-07,3.0255957891170616e-05,4.339436536261635,27.322335771349252,17.662991148924057,35.67895714766603
0.44,31.22218013836212,131.0103998768696,6.683849332059896,4.342209064313268,0.0009296474314902,32.82948243168077,0.0013129688908547,3.113754688841357,353.0750125389216,18.063580761318697,7.446730341918701,69.99588746395321,1.4852372182848018e-06,113.7000098413532,199.7278270846888,15.288,0.0,0.0,0.0530863610987301,2.586862292117705e-09,-0.0006947575786514,1.1773083546077225e-07,3.329010177793299e-05,4.342209163639375,26.81344244367223,18.06372678999575,32.9768158972058
0.45,31.22217987077456,131.0104006014978,6.850166573233225,4.3420317510315165,0.0009500780330031,38.11022602597878,0.001341042003417,3.1022288449712887,397.2093853562869,18.47486275310604,7.616350301328129,69.99547690348253,1.6764536248320808e-06,113.70001042108892,208.92306716049887,15.288,0.0,0.0,0.0542951637545535,2.842521175226318e-09,-0.0007463379956615,1.2932090054593452e-07,3.657529369088674e-05,4.342031854775571,26.30944884471334,18.47501199101448,38.23628058998621
0.46,31.22217959739673,131.01040134180155,7.020045503401754,4.351169003849846,0.0009725797783515,44.3937050866137,0.0013660055515545,3.09098240974522,449.7140588976434,18.844323061800488,7.771531995684422,69.99503610583268,1.8865779683531e-06,113.70001102895836,217.3591612614144,15.288,0.0,0.0,0.0553810645782081,3.1166808800591503e-09,-0.000800596194505,1.417768495237597e-07,4.001824400409673e-05,4.351169112337076,25.873596578896564,18.844475834274814,44.50118229261506
0.47,31.22217931813738,131.01040209802923,7.193559875579052,4.358630093683735,0.0009947969928181,30.22514089990685,0.0013910994973101,3.079396422776949,331.0078106302534,19.2180591098146,7.9280875671397615,69.99456352718363,2.1170044481277104e-06,113.70001166656292,226.0625808853568,15.288,0.0,0.0,0.0564795377574197,3.4102493884459798e-09,-0.0008576351980594,1.551487523304888e-07,4.3718862242359527e-05,4.35863020698899,25.44665981168229,19.218215372160817,30.381603425148434
0.48,31.22217903348153,131.01040286886197,7.370336324605091,4.365514409145237,0.001016880998596,29.779838936311712,0.001416009414045,3.067527859335786,327.2031223011574,19.5915905767454,8.084483592791102,69.99405758812365,2.369198154608765e-06,113.70001233476164,234.93171707892955,15.288,0.0,0.0,0.057577416115756,3.7241711041759195e-09,-0.0009173883913609,1.6944871263079066e-07,4.767297940601472e-05,4.365514527349481,25.03354780044292,19.59175030803913,29.937410312943754
0.49,31.22217874361868,131.01040365378466,7.5502307795521535,4.3786401372577615,0.0010404145545081,37.2489281064929,0.0014385799934191,3.0558405437943126,389.60000969812296,19.93403005898306,8.23012235628909,69.99351671352461,2.644660619562788e-06,113.700013034871,243.21198709852868,15.288,0.0,0.0,0.0585839249886784,4.059374595909599e-09,-0.0009798792959512,1.8470833984680338e-07,5.180951737438081e-05,4.378640260624215,24.667474291142685,19.934193486919103,37.37406598941686
0.5,31.22217844858332,131.0104044527036,7.733219389747018,-0.3287439945071581,5.167486858334343,38.27618319808744,-0.3123190236934269,3.3473760624094786,397.97031042210494,19.66467237169332,8.366361539570502,69.99293932307316,2.9449363413826395e-06,113.70001376847225,236.67945354558765,15.288,0.0,2.5051569778986185,0.0577924316278409,4.416751211901175e-09,-0.0010494275467989,1.0298120881856823e-05,5.473604333804671e-05,5.177904968048462,29.67334718327831,20.475279329067824,38.423543171983816
0.51,31.22217814858743,131.01040526562383,7.919237059688965,-0.2452438294418671,5.091367372994903,29.36512778017759,-0.3200406529377782,3.342636382205978,323.3984349720841,20.002112676466176,8.514887235791356,69.99233994419517,7.19085442770384e-05,113.700087582522,244.86747860705825,15.288,0.0,2.51509804043148,0.0587842570247395,4.812222634071938e-09,-0.0010451966312358,8.51624793328764e-05,5.544984534255105e-05,5.097254935027756,29.233177037063754,20.800810697663792,29.55649460861923
0.52,31.222177843644143,131.0104060927644,8.108289237646051,-0.1652130501244071,5.015142451387834,35.201464208413384,-0.327993341714977,3.33775192303613,372.0984511843415,20.348410593339075,8.666165473695443,69.9917427309945,0.0002600082274553,113.70028819228484,253.4150896033945,15.288,0.0,2.525003356709631,0.0598021203437498,5.2481906169000994e-09,-0.0010420261578287,0.0001619435007435,5.623771910184333e-05,5.017856057620035,28.793965319175896,21.13518177016864,35.36087173625884
0.53,31.22217753362017,131.0104069345129,8.3004874299326,-0.0879697390730798,4.942062002449768,36.94203638319989,-0.3359818204228175,3.332682712359465,386.5562464348624,20.69106756233636,8.816128524897666,69.99114706405409,0.0005703370902945,113.70061889068585,262.0168791098937,15.288,0.0,2.534874565403676,0.0608092897266212,5.7260188406928455e-09,-0.001039964458671,0.0002407298811678,5.707053790687239e-05,4.942842937995026,28.37184433232001,21.46640259978836,37.09358044166913
0.54,31.22217721842324,131.010407791137,8.495908518971897,-0.0133532358961111,4.87155386506818,32.4868395069596,-0.3440359184642102,3.327428814899511,349.2703242098436,21.031751763823976,8.965349601088953,69.99055229360123,0.0010060709296634,113.7010830586268,270.711195526271,15.288,0.0,2.5447188802235954,0.0618106679158446,6.2471120776702194e-09,-0.0010390651979548,0.0003215891175711,5.7958971020636487e-05,4.871572121942364,27.963917731524667,21.796051999415457,32.65861118269373
0.55,31.222176898334467,131.01040866188868,8.6943397314004,0.0588168762036643,4.804822399149204,34.40969683026604,-0.3520531500718635,3.321996641394898,365.2500005919907,21.364421540095435,9.111753114807348,69.98995773753526,0.0015704046061232,113.70168409680528,279.3375529632333,15.288,0.0,2.5545248255553648,0.062788498834001,6.812916366884203e-09,-0.0010393839988905,0.0004044351737065,5.8892678992732046e-05,4.805181536531674,27.57660745987323,22.11827697144335,34.571474354686345
0.56,31.22217657336076,131.01040954676506,8.895780902226523,0.1287578702436342,4.742634741761016,32.13881087791633,-0.3599513862855466,3.3163977618894096,346.2265619465787,21.684428531721625,9.25374300054088,69.98936268259288,0.0022664791199079,113.70242534902604,287.7627728281827,15.288,0.0,2.564292277529409,0.0637291211972862,7.424852016762009e-09,-0.0010409747233214,0.0004892978392892,5.986512732130383e-05,4.74437825242882,27.214054092293992,22.428549434598462,32.311472014781785
0.57,31.22217624357964,131.01041044557098,9.100177107099908,0.1965051235479474,4.680239667974406,31.782049751232872,-0.3680814323588887,3.310600607856503,343.1828296833023,22.012574765646647,9.398461586127755,69.9887663842288,0.0030974335958591,113.70331015703948,296.5321670124883,15.288,0.0,2.5740169989985286,0.064693670749283,8.084355766164249e-09,-0.0010438913175789,0.0005761689342013,6.094012640049727e-05,4.684353924496382,26.851524917103035,22.74692779119336,31.956130033460383
0.58,31.222175908975466,131.0104113583643,9.307545625493798,0.2619065431741361,4.614727127100409,41.73652518454134,-0.3766975285238619,3.304566673320103,426.1250058573153,22.36328270852542,9.550859391749762,69.98816806655485,0.0040664355968356,113.70434189303752,306.0501407241774,15.288,0.0,2.583699018591188,0.065724534650564,8.792877701442509e-09,-0.0010481890050398,0.0006650809197519,6.216468356952777e-05,4.622137287472001,26.473701849569192,23.08737888380889,41.86883801117804
0.59,31.22217556915808,131.01041228622222,9.518194459581528,0.325600643689709,4.556919165102347,33.897581721353184,-0.3849074083253559,3.29840165090532,360.68438819711065,22.68438706813821,9.693025872750304,69.98756691885544,0.0051768582589312,113.705524148575,314.8957426986984,15.288,0.0,2.5933504234504112,0.0666684022343436,9.551914142252972e-09,-0.0010539349874148,0.0007562453308206,6.34016645452714e-05,4.568512277106768,26.13739004473241,23.399431859699163,34.05985398852285
0.6,31.22217522434197,131.01041322857745,9.73196267645644,0.3867192663607562,4.492397747560501,30.16282750255993,-0.3939338213177936,3.2919399511325502,329.4859594986058,23.04662543658308,9.849245354365108,69.98696209502357,0.0064321195539309,113.70686056212014,325.02626948933494,15.288,0.0,2.6029626290954626,0.0677331679934105,1.0363047028463096e-08,-0.0010611845107381,0.0008495929956666,6.485584468578257e-05,4.508978012944676,25.766794267903556,23.751566814094403,30.344492341224402
0.61,31.22217487448552,131.01041418555934,9.94888805468388,0.4457125219910735,4.428381430967535,35.285686842014854,-0.40318730240322,3.2852476849170804,372.0984511843297,23.415304084303862,10.007605551832151,69.98635271317913,0.0078357188528817,113.70835485919368,335.5013978807661,15.288,0.0,2.612538691077247,0.0688168691244496,1.1227872460156032e-08,-0.0010699998076374,0.000945176769038,6.643934304131324e-05,4.450710731131284,25.39980291659168,24.11022025804673,35.4405856083786
0.62,31.222174519706943,131.0104151568627,10.16888449474436,0.5041922196300291,4.37849606345576,43.79165009640721,-0.4113671737210682,3.278548207623464,442.86563930529206,23.71672625280544,10.14280857946702,69.98573785368707,0.0093912347404055,113.71001084945856,344.18745482794924,15.288,0.0,2.622082533782349,0.0697029127369327,1.2148039478298903e-08,-0.0010804392032556,0.0010429959004169,6.794972883736905e-05,4.407373653811012,25.10858594502165,24.4038295822454,43.916132792716255
0.63,31.22217415983209,131.0104161429762,10.392092350206028,0.5606522042474286,4.3260434155511,24.974630190278937,-0.4199884164795608,3.271595812360929,286.11251274707894,24.03766514348338,10.284639754659992,69.98511656777555,0.011102114277428,113.71183220308389,353.5581139863051,15.288,0.0,2.631576603059296,0.0706463226471983,1.3125131910649918e-08,-0.0010925739603586,0.0011431424911456,6.964123612627781e-05,4.362153709231766,24.805052622694827,24.716552989907832,25.191504174436005
0.64,31.222173795437907,131.01041714234643,10.61806973380332,0.6146709279205987,4.268865362675639,24.522830158744792,-0.4293102083015384,3.264324092698732,282.30782441796754,24.391913618494403,10.437833671386551,69.98448786995147,0.012971838334962,113.71382262523043,364.0479327788573,15.288,0.0,2.641030277246135,0.0716876361439355,1.4160855527523433e-08,-0.0011064324341403,0.0012453721910566,7.15623662258576e-05,4.312810274394207,24.4774615003224,25.061845209581147,24.742863982000316
0.65,31.22217342651098,131.01041815502455,10.8468323192455,0.6684695168016693,4.221949407892688,43.09395853831165,-0.4378036107802935,3.257034904339969,436.7781447787475,24.694051251421328,10.57306846607212,69.98385074557096,0.0150038041917866,113.7159857330092,373.1143674400817,15.288,0.0,2.6504291133851967,0.0725758034986286,1.5256809621290207e-08,-0.0011220761142875,0.0013497376583347,7.347152310014708e-05,4.274447242827624,24.205614673859447,25.35663352288941,43.219083873578626
0.66,31.222173052562376,131.0104191823532,11.078764223015437,0.7205195777502805,4.173973653138626,36.70067923540192,-0.4466055083063842,3.2495047783273074,383.51251517160017,25.007645977501475,10.712162484920125,69.98320414544943,0.0172014444794347,113.71832518191448,382.6425261493874,15.288,0.0,2.659786777422404,0.0734976505437023,1.6414546663040026e-08,-0.0011396038423384,0.0014564933230008,7.556512850795459e-05,4.235597454897529,23.92931845885088,25.66271245376029,36.846961803170196
0.67,31.22217267377816,131.01042022384183,11.3137267089665,0.7702240994510737,4.122002997115303,25.36147310197358,-0.4560674727908754,3.241640753901039,289.1562440103425,25.351465252583832,10.86155700392702,69.98254697062782,0.0195684306728678,113.72084488077464,393.2275541419848,15.288,0.0,2.669112753095492,0.0745083353592244,1.7635824964988198e-08,-0.0011590679181837,0.0015655794283459,7.791065573326195e-05,4.193224298118579,23.632731410614483,25.998389581525466,25.571870291772157
0.68,31.22217229032773,131.01042127904455,11.551593926408026,0.8188012300330189,4.072579137776412,31.591930767632736,-0.4654754717213966,3.23359534111856,340.8999924858462,25.686150779673827,11.007740702072727,69.98187808660678,0.0221084242707174,113.7235487279249,403.6695085398941,15.288,0.0,2.678377490446913,0.0754921837143592,1.8922405094155133e-08,-0.0011805209870176,0.0016769548032491,8.039845972118019e-05,4.153938709155637,23.35093171955841,26.3253314693849,31.76039823226053
0.69,31.22217190229351,131.0104223477516,11.79230738572186,0.8670512659181357,4.028982475915601,38.83332506648095,-0.4744164965964692,3.2254853290881367,401.0140726853634,25.98976658305724,11.14318584022028,69.98119632670645,0.0248250338693639,113.7264405656283,413.25927555921743,15.288,0.0,2.6875986394322053,0.0763847249307358,2.0276027748140164e-08,-0.001204020282965,0.0017906071262505,8.296618719834197e-05,4.121072450247144,23.10142244715851,26.6221162331126,38.9699366478749
0.7,31.2221715095466,131.01042343032654,12.035972103729202,0.9140135216874684,3.9859631252280536,32.613215387509655,-0.4834841009788857,3.2171661522275747,349.27032420985284,26.29452803798169,11.27894848342084,69.98050049207534,0.0277218277094868,113.72952419361152,422.9981324685328,15.288,0.0,2.6967841265373047,0.0772806406828691,2.1698384053575896e-08,-0.0012296462444282,0.0019066283816902,8.572359101471017e-05,4.089251099924105,22.856087890294404,26.92013674677012,32.77507792269966
0.71,31.222171112143464,131.0104245266293,12.282549574149549,0.9590700287373822,3.940636754015265,26.847588904512754,-0.4930389424377623,3.208524474689568,301.33126406340574,26.6194983745216,11.421568547992672,69.97978934076708,0.0308024644686053,113.73280350771532,433.5080243938993,15.288,0.0,2.705907108515013,0.078235958784709,2.319124985747259e-08,-0.0012574606773273,0.0020250158764851,8.874395596315412e-05,4.055487952411947,22.599573523314348,27.238004260681397,27.04312753157738
0.72,31.222170710090143,131.01042563665695,12.53204044540595,1.0019710955737224,3.8925084305326063,32.811283445646104,-0.5031894562882074,3.199515442595391,350.79220534145287,26.96958534745876,11.572730710084045,69.97906158766446,0.0340706810100805,113.73628248720048,444.97492635444087,15.288,0.0,2.714988342919689,0.0792651039897398,2.47564270234846e-08,-0.001287534187875,0.0021458044086936,9.205918763693012e-05,4.019206749793046,22.3289813507296,27.580548910314683,32.97075097790246
0.73,31.22217030338769,131.0104267604206,12.78444935340562,1.0459205981570945,3.853770357857901,41.43724907259208,-0.512322369080281,3.1906284639078795,422.320318528234,27.260156663707363,11.703388932596852,69.97831589757908,0.0375303511741407,113.7399652572674,454.6039125492535,15.288,0.0,2.7240337002525887,0.0801193373253495,2.6395773008908345e-08,-0.0013199409464545,0.0022690411040038,9.539078467312078e-05,3.9929745357913697,22.109992717571465,27.865049162170443,41.56306286726945
0.74,31.22216989197769,131.0104278980913,13.039826656977196,1.0880632030710222,3.812929105422068,26.03775035294104,-0.5219261133574205,3.181411615723156,294.48281347105944,27.569796630190275,11.840510957214072,69.9775508737088,0.0411852207662155,113.74385580989352,464.9785819797178,15.288,0.0,2.733027736806968,0.0810296223780953,2.8111107663539724e-08,-0.0013547579330005,0.0023947684982068,9.901664043474675e-05,3.964916350900919,21.88079261775441,28.1682881527214,26.236581907301566
0.75,31.222169476217594,131.01042904871147,13.297900901358556,1.1286432645285656,3.771015607722631,30.35484722577024,-0.5318888273730011,3.171886016206196,330.24688556441487,27.89203162455072,11.981875263688869,69.97676518775069,0.045039045717173,113.74795813898956,475.8996202994184,15.288,0.0,2.7419642933544472,0.0819769329740515,2.990436918132476e-08,-0.0013920033038921,0.0025228237219248,0.0001029254023499,3.936058232152989,21.646873080952844,28.483953803934146,30.52475252519404
0.76,31.22216905600184,131.01043021257985,13.558758919948584,1.169065446697612,3.732697271984912,32.655294257552576,-0.5415402875111633,3.1622786012767734,349.27032420986166,28.19244004164264,12.115668233394164,69.97595736706849,0.0490955772287639,113.75227624268706,486.1939069696045,15.288,0.0,2.7508587686502097,0.0828601014299285,3.1777369136862554e-08,-0.0014317674547327,0.0026533043695241,0.0001070031174637,3.9112413357380977,21.433408544819773,28.77835609099914,32.81252070296394
0.77,31.22216863127699,131.01043138985315,13.822447121803023,1.2087391079895116,3.6956885371454855,30.55037224339548,-0.5511896934262708,3.152489969117541,331.7687666960708,28.48702602299033,12.247381332414289,69.97512593279495,0.0533586033077062,113.75681415559951,496.3950110953536,15.288,0.0,2.7597121329899146,0.0837261650489714,3.373196038406262e-08,-0.0014741335464673,0.002786270566358,0.0001113176996487,3.888076277493546,21.22805460103333,29.067140964254683,30.717539733734455
0.78,31.22216820210978,131.010432580362,14.088918933099126,1.2466547373669057,3.6567459431162335,25.138233615388025,-0.5613259719444713,3.1423339581707466,286.8734378128899,28.80057190098877,12.38551801904898,69.9742693654752,0.0578319297391541,113.76157593129604,507.36942613962646,15.288,0.0,2.768505290248662,0.0846479616429888,3.5770058769685446e-08,-0.0015191620309029,0.0029217058724897,0.0001159776692952,3.863137083594427,21.01329272701508,29.37458234102232,25.340089558904026
0.79,31.22216776859012,131.01043378387408,14.358109909266949,1.2831303755091104,3.617012000177231,35.614989482999306,-0.5718043331425884,3.1318530503305504,373.6203323159534,29.12512092611928,12.52734801588501,69.9733861005885,0.0625194123376512,113.76656567677936,518.8553713383865,15.288,0.0,2.7772482737103847,0.085602105930288,3.78936149782858e-08,-0.001566911639587,0.0030595922887331,0.0001209679120043,3.837578870045125,20.795195784022333,29.692902542620256,35.756998470207435
0.8,31.22216733050289,131.01043500098424,14.630191463337974,1.320383960928336,3.582609586564676,36.081715321173206,-0.5816257627970266,3.121436258818969,377.42502064505743,29.411027481835543,12.655831351786034,69.97247451991484,0.0674250203386255,113.77178762043684,529.0782260870728,15.288,0.0,2.785953183388296,0.0864426837921819,4.01045037321581e-08,-0.0016175086790139,0.0032001021762702,0.0001260966095087,3.817883242383416,20.607085864426704,29.973415842202243,36.22115173988818
0.81,31.222166887952127,131.01043623142132,14.90508816719084,1.3556617297856803,3.5457336964350548,23.588267447670056,-0.5920496434098864,3.1105917656568094,273.9374926939919,29.72103487294756,12.792501519873216,69.97153296728511,0.0725526998341438,113.77724596582144,540.2762591252671,15.288,0.0,2.7946155838299167,0.087354105173581,4.240475412851597e-08,-0.0016710056581133,0.0033431881729753,0.0001316366966183,3.795747538346277,20.40643829955294,30.277641985910662,23.799845904871834
0.82,31.222166441126785,131.010437474684,15.182658993101333,1.3895992414775684,3.5081866487027047,30.21213028691774,-0.6028051026256603,3.0994121492170774,328.72500443277005,30.04108766237944,12.93253453985033,69.9705597082924,0.077906410400467,113.78294493377564,551.9601931069417,15.288,0.0,2.803228351386696,0.0882950597371309,4.4796439115607593e-08,-0.0017274399372443,0.0034887708999041,0.0001375441612321,3.773055234322896,20.20304934408704,30.59180806978454,30.376677667845083
0.83,31.22216599001312,131.01043873082023,15.462919567127496,1.4249579166098167,3.4766960286900086,38.31131896103705,-0.6126847284357527,3.088405154097092,395.68750322465047,30.31287140204228,13.055913758853467,69.96955307224896,0.0834901219280962,113.78888874831348,561.9774867382217,15.288,0.0,2.81178284563308,0.0890941528033759,4.728153726008634e-08,-0.0017868989996563,0.0036369048102477,0.000143561816328,3.757050371448491,20.03381963497448,30.85865446097488,38.44048373143383
0.84,31.222165534508605,131.01044000011728,15.745953771247343,1.459114613465864,3.444542975652869,23.782963151928648,-0.6228515436558603,3.0770909017080226,275.4593748256452,30.59325327294964,13.182156890891878,69.96851125066688,0.0893077395499639,113.79508157332292,572.4061390833772,15.288,0.0,2.8202946547928445,0.0899185250372589,4.98619994235233e-08,-0.0018494835961574,0.003787665962738,0.0001499602661462,3.7404981095214818,19.861911860337585,31.133994951824597,23.98928445679038
0.85,31.222165074908208,131.01044128178583,16.031538607741624,1.4906036287628692,3.4084001509982724,25.90319137628253,-0.6339577392518868,3.065163275369186,292.96093233939376,30.912735920040166,13.321734851173415,69.96743243133103,0.0953631510851377,113.80152755122656,584.4077075059096,15.288,0.0,2.8287569713589344,0.0908578290313786,5.253997603353413e-08,-0.0019151952769466,0.0039408928264717,0.0001569056748881,3.719740458579943,19.668990646569583,31.44781044658183,26.0916165040832
0.86,31.22216461104175,131.01044257629633,16.319810264528225,1.5227696621752604,3.3760335993914814,32.35122083759329,-0.6445508826227959,3.053267846097472,346.2265619465587,31.20185595339941,13.450803352072915,69.96631473803988,0.1016603887165845,113.80823097910115,595.3740190808513,15.288,0.0,2.837175623028937,0.0917079006467151,5.5317415498489366e-08,-0.0019841688423898,0.0040967430246403,0.0001640722655546,3.703207525259776,19.497700077576,31.7318552619956,32.501375048804206
0.87,31.22216414293562,131.01044388358633,16.610753054887947,1.554930458491578,3.3456268147410544,30.147073875808104,-0.6549395014765783,3.0412756302544723,327.964078366998,31.475792275423483,13.574571326506936,69.96515621975442,0.1082034618129722,113.81519613261707,605.8571393803331,15.288,0.0,2.8455502053710804,0.092513352760792,5.819639476505286e-08,-0.0020564804055967,0.0042552276594401,0.0001715399318737,3.688940063828702,19.33810196977805,32.00102351206091,30.30716691614717
0.88,31.22216367062756,131.01044520356223,16.904342442238413,1.5853953284045812,3.313459755941041,26.0994944342074,-0.6658629638338621,3.028833748255341,294.4828134710418,31.76918528770859,13.70492916654556,69.96395499479576,0.1149963393550778,113.82242723643223,617.1870410399977,15.288,0.0,2.8538776865227367,0.0933760000612416,6.117900442401708e-08,-0.0021321955729055,0.0044163336809968,0.0001795084332232,3.672831483819425,19.169681763201048,32.28937226372911,26.283089945483944
0.89,31.22216319420089,131.0104465360072,17.200518758036985,1.6141588165544312,3.279614450614189,28.59120750733597,-0.6773323691500255,3.015916711534992,315.028134248087,32.08214797631667,13.841915447445636,69.96270902237075,0.1220430477143469,113.8299285850159,629.389024603952,15.288,0.0,2.862147426983255,0.0942961752200925,6.426738044163811e-08,-0.0022113780496614,0.0045800457868383,0.0001880034505005,3.654932731574847,18.99287701638004,32.597027341378656,28.757810755980003
0.9,31.222162713583177,131.01044788112554,17.499342490721588,1.6448638394460169,3.2514504781081857,31.5451153561048,-0.6877901473807964,3.0033026898686974,339.37814235421445,32.34262747314769,13.960794486290204,69.96141619599011,0.1293477334287147,113.8377046013921,639.6323540060063,15.288,0.0,2.870374444800436,0.0950620997238647,6.746360765430883e-08,-0.0022941426379404,0.0047464535340099,0.0001966177125625,3.643432740867182,18.848369197749207,32.85309003518031,31.69522338087816
0.91,31.22216222884659,131.0104492387295,17.800762350351388,1.6738942190781687,3.221554184853177,24.08316079394179,-0.6987911010473787,2.990218033557471,277.7421810230789,32.622663485767966,14.086296758073704,69.96007450273,0.1369143583122255,113.8457595038201,650.7378773270538,15.288,0.0,2.878556322623039,0.0958855132999238,7.076983063983541e-08,-0.0023805477576181,0.0049155245735336,0.0002057835554937,3.630066077221528,18.69511485087973,33.12843743937552,24.278145454667047
0.92,31.22216174019352,131.01045060827968,18.10462685070556,1.701247896761794,3.1900297334050096,28.605055278642727,-0.7103450166150937,2.97663940269627,315.02813424806214,32.92218587990013,14.218399913586524,69.95868176962857,0.1447469367801059,113.85409757522504,662.7227888162879,15.288,0.0,2.8866892186281614,0.0967662103003656,7.418832951889363e-08,-0.0024706048523277,0.0050871415587994,0.000215523003245,3.6149056299730296,18.53361810017523,33.42301573338504,28.768283919457552
0.93,31.22216124753613,131.01045199002047,18.4110079734976,1.7305169635464557,3.163552994392813,33.95965921585347,-0.7209228412564446,2.9633760968420204,359.1625070654728,33.172162327480216,14.333401113276224,69.95723577308365,0.1528495054707093,113.86272312317772,672.8052380950752,15.288,0.0,2.894777327143213,0.0975012881755164,7.772114046031766e-08,-0.0025644435674271,0.0052614155516572,0.00022540099381,3.60551140217258,18.401040913550467,33.66883961565795,34.09633091244983
0.94,31.222160750767085,131.01045338424765,18.71999235579569,1.7569112792519594,3.133219637530725,24.738692599598213,-0.7325730981811717,2.949332241022067,283.0687504837787,33.46481800239104,14.46296431889837,69.95573437178099,0.1612259995117173,113.87164033911968,684.7087013291913,15.288,0.0,2.9028205707981067,0.0983618193890668,8.137032081046958e-08,-0.0026621780991808,0.0054384170866653,0.0002360486841498,3.5917579015832124,18.247779197145466,33.956737729775135,24.92464915599669
0.95,31.22216025017568,131.0104547901872,19.03136176811392,1.7830566741028224,3.1038456179805207,31.941123199310496,-0.7441861765237305,2.935095415989671,342.4218736174873,33.750132008129725,14.589916644841765,69.95417519779349,0.169880533805447,113.8808536173,696.4130105352356,15.288,0.0,2.910815743611508,0.0992007801200781,8.513828617874217e-08,-0.0027637960600369,0.0056179910290263,0.0002471408247292,3.579111326592454,18.100638965307624,34.23744450820475,32.084325603007834
0.96,31.222159745472315,131.01045620862604,19.345342907590634,1.8099684189956795,3.0770951654760434,31.30022865239153,-0.7553311002669045,2.9209152053116725,337.09533515678345,34.009199566254686,14.707762948721712,69.95255599149995,0.1788171556055154,113.89036727003004,707.1241161549816,15.288,0.0,2.9187691215779665,0.0999626040032583,8.902694234980856e-08,-0.0028695066122288,0.005800373293106,0.0002585553723652,3.5695027533168866,17.9689816872139,34.49231622621773,31.445295107529887
0.97,31.222159236678333,131.01045763951214,19.661923395798045,1.8357058669297937,3.049560053187611,20.131385420652688,-0.7668357311195844,2.906324897033054,245.02188719299323,34.27886594943641,14.829155222799413,69.95087427961633,0.1880400258050575,113.90018574205192,718.3606155870748,15.288,0.0,2.9266799471941103,0.100755589279575,9.30385585409128e-08,-0.0029793937594942,0.0059855705316865,0.0002705771200822,3.558995592495681,17.833721740541172,34.75766358449304,20.354543482979505
0.98,31.222158724081243,131.01045908207604,19.980886351631177,1.8585698819710168,3.018514602128755,29.186132437691008,-0.7794456229935083,2.890870299347664,319.5937466429581,34.59081767814982,14.964979096828552,69.9491276942333,0.19755323889805,113.91031339639844,731.4724513281615,15.288,0.0,2.93454289916529,0.1016728723689441,9.7175659278731e-08,-0.0030934181313579,0.0061733866174048,0.0002834802916154,3.544363949542016,17.679448518558797,35.06474554091652,29.339307988384686
0.99,31.222158207535514,131.0104605367154,20.30234762856469,1.88493838657442,2.9943070899446247,31.87026870115409,-0.7904219275555819,2.876168580769411,341.6609485517054,34.82680729909094,15.074620289888944,69.94731364853055,0.2073610122222928,113.92075473953652,741.4642817489784,15.288,0.0,2.942363960693584,0.1023668885413425,1.0144031953788522e-07,-0.0032117588618904,0.0063639915385441,0.0002963238454382,3.537743948970495,17.564444389647917,35.2969378882586,32.009547632110134
1.0,31.222157687040774,131.01046200343475,20.626311012932444,1.9085007033892207,2.9666947048785994,28.548230801905103,-0.8024826269784348,2.860604756776039,314.2672081822764,35.10397472848982,15.198311136739084,69.94542966910436,0.2174673124097209,113.93151400294286,753.289618121568,15.288,0.0,2.950140793213737,0.1031819475712578,1.0583479664280941e-07,-0.0033344901600812,0.0065573728274005,0.0003100860486173,3.5270946241718635,17.430994636003728,35.5697738415718,28.702413136528
1.01,31.222157162777023,131.0104634817542,20.952642265506373,1.9319893861338144,2.9400305024119087,29.84685919016932,-0.8144563144205677,2.84487448669081,324.9203161036979,35.372067137232335,15.318792621617332,69.94347319078334,0.2278762766736026,113.9425956002609,764.8154711225993,15.288,0.0,2.957872320858208,0.1039703408181667,1.103615317981517e-07,-0.0034616326778743,0.0067534393323493,0.0003243577684111,3.517539694048317,17.303630426373825,35.833683410242585,29.99319345203039
1.02,31.2221566346696,131.0104649718782,21.28140223902541,1.955655281116477,2.9146265512713287,24.95013656364768,-0.8262355422279964,2.829048955652593,284.59063161540416,35.626735607857285,15.4345690389948,69.94144150841426,0.2385919618056311,113.9540038693074,775.843509228449,15.288,0.0,2.965560457024777,0.1047192851516724,1.1502270191127853e-07,-0.0035933174648363,0.0069522700986992,0.0003391101481126,3.5094637303023704,17.184150110126165,36.084366644667504,25.123604393267073
1.03,31.2221561027868,131.0104664736259,21.61254196324016,1.977207343910016,2.887057257305368,20.42060875781368,-0.8388209196494983,2.8124900794431578,247.30469339049705,35.909795535866465,15.560006885178687,69.93933199317425,0.2496183500188164,113.9657430602059,788.195808642719,15.288,0.0,2.9732038333039497,0.1055516904901734,1.1982064808431836e-07,-0.0037296002379684,0.0071538260233389,0.0003547566708072,3.498733918319091,17.053070920572722,36.36310154728809,20.63043826538604
1.04,31.2221555671904,131.01046798683504,21.94601777169704,1.999929389691064,2.862137470569788,32.358944786673085,-0.8507924582227853,2.7961005797445755,345.46563688072297,36.161839527106025,15.67469575843642,69.93714192206336,0.2609595631811512,113.97781757311704,799.273428067067,15.288,0.0,2.980803561211684,0.106292937617395,1.2475772025481377e-07,-0.0038705580628055,0.0073581030782835,0.0003707366703645,3.491163231579568,16.937780814941544,36.61123607312928,32.490665335846444
1.05,31.22215502760035,131.01046951225916,22.282047113421942,2.02084457335618,2.8355474276467607,19.591556158148222,-0.8634438200138829,2.7790426934028094,240.45625879819983,36.43664646457943,15.79711084609442,69.93486842964991,0.2726196607032064,113.9902317515279,811.4413334163613,15.288,0.0,2.9883638415478484,0.1071011023282566,1.2983588788261456e-07,-0.0040164381648671,0.0075653349005499,0.0003876206544689,3.4814949555151573,16.81366215878322,36.88187141838215,19.80650615883456
1.06,31.22215448425079,131.01047104927255,22.620454295140537,2.040133934324348,2.807617678111185,27.832927124081937,-0.8767184637550574,2.7613321205463657,308.17968365593924,36.731053574094126,15.926169585983889,69.9325086607995,0.2846028657948234,114.0029901047026,824.5803537760986,15.288,0.0,2.995881489397247,0.1079668886132725,1.3505785973564677e-07,-0.004167212786781,0.0077753598314455,0.0004054080542835,3.4700909615683297,16.682512914090815,37.171896651890286,27.98330614203951
1.07,31.222153937028445,131.01047259818156,22.96132932597216,2.0617629270001943,2.7837718852893905,32.745107667100626,-0.8888602697517036,2.7441510255752184,348.5093681440308,36.97394135295255,16.037427991278665,69.93005964149476,0.2969134923370232,114.01609724292132,835.4942944355968,15.288,0.0,3.003360840497789,0.1086812485594924,1.4042585829717214e-07,-0.0043230727955504,0.0079883246507524,0.0004233381299551,3.4636550924111256,16.57547476332981,37.411043200497495,32.871910707476694
1.08,31.222153385834407,131.01047415925197,23.304750655995708,2.0824119299646218,2.759387859521019,22.097758571357268,-0.9013359963205356,2.726516520935595,261.00157857466235,37.22504164701143,16.15141230223895,69.92751837597284,0.3095557154585638,114.029557629775,846.853040445669,15.288,0.0,3.0108023879447186,0.1094197571173147,1.4594219092248293e-07,-0.0044841702469529,0.0082043109750426,0.0004420812031473,3.456487713039727,16.466057774463223,37.658317741208826,22.28356418518347
1.09,31.222152830939752,131.01047573175873,23.65051436695245,2.0996214037642726,2.731286057475298,20.3392582490586,-0.9152549566169584,2.707636968842364,246.54375332474407,37.528346965142894,16.283250300982143,69.92488179920717,0.3225337305704854,114.04337575133783,860.6807965436883,15.288,0.0,3.0182017654047666,0.1103117270179044,1.5160974227588494e-07,-0.0046504357693019,0.0084231051567626,0.0004621930665895,3.444559987154604,16.335813712842054,37.957213904896086,20.53909481239502
1.1,31.22215227241977,131.01047731550184,23.998566207971766,2.1179904613035663,2.705528793289988,40.63937970435137,-0.9285735483608568,2.6889256866024662,413.1890617385841,37.80193272347182,16.404781189636182,69.9221467883065,0.33585174767907,114.05755611005668,873.2462576933702,15.288,0.0,3.0255604355195653,0.1111163480192569,1.574310084830157e-07,-0.0048219475178357,0.0086446971830165,0.0004827166795376,3.435467172161804,16.219716025015163,38.22675827460249,40.7388236567679
1.11,31.222151709879224,131.01047891153863,24.349210252150897,2.1391879324985656,2.6840917805115354,29.799403011915828,-0.9405148847840988,2.670964114462316,324.1593910376397,38.01614706722113,16.505800916237266,69.91931009707513,0.3495140441436008,114.07210328538235,883.1415013351899,15.288,0.0,3.0328854254415782,0.1117464594748824,1.634078143355358e-07,-0.0049990842614139,0.0088694556065429,0.0005032685017615,3.4317816587750984,16.129387134875937,38.43760902406872,29.933643904740766
1.12,31.22215114337913,131.01048051970412,24.70240224000491,2.153967826581419,2.655359855508917,11.348965296881758,-0.9552858432447316,2.6507092171441653,172.73281794065943,38.3352997281594,16.64280971406245,69.91636857208043,0.3635247378518064,114.08702167861613,898.0015540746168,15.288,0.0,3.0401735634979654,0.1126850410289981,1.6954283313161248e-07,-0.0051818953302615,0.0090973136840612,0.0005260341743119,3.418653373015609,15.997252216093948,38.75225338333962,11.693495786375573
1.13,31.222150573501526,131.01048213844558,25.057702540821428,2.171660491002362,2.6309778194862528,35.09555705361163,-0.9686522521472116,2.6312182077523825,367.5328077900705,38.59420889800384,16.759014257852023,69.91331876417092,0.377888354228093,114.10231613445144,910.1413088957036,15.288,0.0,3.0474200423049025,0.113446548789397,1.758396238587385e-07,-0.0053701158269011,0.0093278316963192,0.0005488042097194,3.4109878384763084,15.891036702643769,39.00733670657296,35.20738163149465
1.14,31.222149999594137,131.01048376950203,25.415609455239515,2.191356928191985,2.609658987637748,19.5132687674614,-0.9810005410411906,2.6122444296824208,239.69531773195544,38.8088287134812,16.85988690570627,69.91015731164843,0.3926089297015761,114.11799097950416,920.2602852513834,15.288,0.0,3.054634466435379,0.1140778782296778,1.822994479950589e-07,-0.005564323583992,0.0095615982851022,0.0005717940346683,3.4072046832756104,15.803449490996506,39.21861126918347,19.711769099020884
1.15,31.2221494221348,131.0104854115963,25.775761862898268,2.2043948152895494,2.5811031133550832,19.23574585317054,-0.996352208917014,2.590749935036301,237.41251153546767,39.13279412316752,16.998284246015153,69.90688089736061,0.407690452420504,114.13405048095817,935.656201589152,15.288,0.0,3.0618081199826563,0.1150306364608201,1.8892580980694285e-07,-0.0057642478157004,0.0097981658248621,0.0005972624122999,3.393841752110092,15.673953187200205,39.53809573384084,19.434984473311832
1.16,31.22214884125931,131.01048706436708,26.13805968514696,2.22400329134072,2.560876995742372,50.059811742697214,-1.008563748523131,2.571386619040568,490.0437743845894,39.332239014807,17.09375346547854,69.90348587928915,0.4231373033990854,114.15049933723247,945.1849747818414,15.288,0.0,3.0689440660367304,0.1156173763616948,1.957213960608828e-07,-0.0059699498164628,0.010037502789901,0.0006217072301379,3.391310539442953,15.594091781197053,39.734366712420304,50.135954979372855
1.17,31.222148256108657,131.0104887300969,26.503156015904256,2.2399086297309423,2.53697067712732,9.024401763643173,-1.0224086839352668,2.55051982134999,153.70937929486794,39.588360347329136,17.20862186331449,69.89996884151864,0.4389533789276851,114.16734172193884,957.5010705338484,15.288,0.0,3.07605171397737,0.116370726191265,2.0268706598754445e-07,-0.0061821943621205,0.0102803715434906,0.000647979857793,3.383804256688441,15.493206680318842,39.98673656457012,9.433466916660674
1.18,31.22214766781419,131.010490405773,26.870195359873044,2.2508983653418166,2.5081808469796485,24.44164805854238,-1.0385191579262023,2.5275943872500486,280.02501822196746,39.92330575099039,17.350536746948325,69.89632605528705,0.45514286303204,114.18458212612931,973.7375456623016,15.288,0.0,3.0831157929453195,0.1173557905913695,2.0982787970373964e-07,-0.0064001650186156,0.0105257220880221,0.0006764780212231,3.3696108766693165,15.363830302791245,40.317164054633366,24.593930455408834
1.19,31.22214707586585,131.01049209275052,27.23956670350507,2.271599501866135,2.4907707859451995,42.562840251749634,-1.0499229329116115,2.508129774294167,428.4078130529292,40.07847979411964,17.430483866736413,69.89255379733336,0.4717100314035799,114.20222513340988,981.2868901130306,15.288,0.0,3.090148497450812,0.1178124205980437,2.171450648005393e-07,-0.0066244779372969,0.0107741451790034,0.0007028837657483,3.370586306162928,15.302750396016831,40.46960593358094,42.649600507222964
1.2,31.22214647982285,131.01049379219288,27.611604187402545,2.283814598765209,2.464571894174244,4.558933766137449,-1.065295351762508,2.485227077447964,117.1843741360236,40.37506505368498,17.559010588319055,69.8886484415418,0.4886585930209322,114.22027472715324,995.8283035027856,15.288,0.0,3.097138887982984,0.1186847440898895,2.2464043400171889e-07,-0.0068555586301494,0.0110259809212029,0.000732759028042,3.3595693326893383,15.18997658021707,40.76207972810815,5.30047968555635
1.21,31.222145880821007,131.01049550108348,27.985451498414093,2.296084337731109,2.439050726752328,34.21153355810997,-1.080586445033166,2.462090962595039,359.92343213200894,40.663050917321655,17.68450104684976,69.88460605814068,0.5059928467702791,114.2387355207673,1010.0487123411637,15.288,0.0,3.104086583490427,0.1195317988430063,2.3231923731885506e-07,-0.0070925484473577,0.0112801870440413,0.0007634696336101,3.349296409371464,15.08168553213005,41.04606040606309,34.31703057333146
1.22,31.22214527799396,131.01049722171567,28.36176468993032,2.3151615295196866,2.4212479338488846,24.825412804060942,-1.0924665695032063,2.44149022179246,283.0687504825761,40.82269897886448,17.765701083851006,69.88042278889526,0.5237166964584264,114.25761171052396,1017.958628801434,15.288,0.0,3.111005749354288,0.1200016048116421,2.401817512399816e-07,-0.0073363971494437,0.0115376743810057,0.0007927903312465,3.349510877923118,15.020449756742195,41.20291452642162,24.96909046402418
