Time,Latitude,Longitude,Altitude,Angle of Attack,Angle of Sideslip,X-Acceleration,Y-Acceleration,Z-Acceleration,Thrust,True Velocity,Ground Velocity,Pitch,Roll,Yaw,Dynamic Pressure,cp,parachute_deploy_gain,Wind Speed,Mach,omega_x,omega_y,omega_z,Cmq
0,31.2221860000000042,131.010383999999988,3.00000000364323682,0,0,0,0,0,2.2828121974499247,0,0,69.9999999962342088,0,113.699999993883324,0,15.2880000000000003,0,0,0,0,0,0,-0
0.01,31.2221859999997946,131.010384000000556,3.00000016469923247,0,0,0,0,0,34.2421869617492334,9.11367326775851009e-12,8.66229497295429822e-12,69.9999999962370651,-4.92863947922479589e-13,113.699999993882884,5.08594204168408172e-23,15.2880000000000003,0,0,2.67827100510624443e-14,-3.65918233213857746e-19,7.58941520739853104e-19,4.81114714040442593e-19,-1.83541113936281872e-32
0.02,31.2221859999996028,131.010384000001039,3.00000030885429547,0,0,0,0,0,25.8718762377664078,1.96992978605390895e-11,1.88456988716431921e-11,69.9999999962400494,-1.04152381447771591e-12,113.699999993882386,2.37621641206600858e-22,15.2880000000000003,0,0,5.78911013494094702e-14,-7.28448334638698292e-19,1.51788304147970621e-18,9.75781955236953991e-19,-7.93451985123442364e-32
0.03,31.222185999409362,131.010384001586402,3.00018176030779937,18.6493779029494604,-0.000129237623237530007,10.7928899806483045,-1.97644583900689674e-05,3.34983967390763571,180.342193598546658,0.0785672533977095078,0.0490694047558625918,69.9999999976775626,-4.2497891361524094e-12,113.699999994705607,0.00377978965327356543,15.2880000000000003,0,0,0.000230888677896110966,2.88330015245363835e-17,-7.25223402354589416e-10,1.08188208080271277e-11,1.51197624781400831e-13
0.04,31.2221859959356287,131.010384010943454,3.00162780953569674,9.74253989061216075,-4.88763086122285772e-05,51.6475445943311158,1.54548216767323456e-06,3.34965665682309899,548.635972453807767,0.346420694310776434,0.171860503977579737,70.0000000036447574,-2.28205307288861013e-11,113.699999999565534,0.0734838809649275282,15.2880000000000003,0,0,0.00101804013696402693,1.80009747884589399e-15,-1.58734069119923437e-08,2.61929145365345784e-11,1.45916869803439425e-11
0.05,31.222185985910329,131.010384038045004,3.00715844163023283,5.5769968489095687,-4.21135943534799539e-06,75.3242160169835273,4.73080294831520123e-05,3.34902689347595528,761.698429882464552,0.947854334293939504,0.409211128642743283,70.0000000010935537,-1.04766136577077691e-10,113.700000013612069,0.55013262299765131,15.2880000000000003,0,0,0.00278549703395658196,1.95473045844392346e-14,-1.13584749331540247e-07,4.14067569904437612e-11,2.85688606727574374e-10
0.06,31.222185966868647,131.010384089593572,3.01868664272593046,4.48500474963244322,2.31139019787050305e-05,56.3605563030587007,9.71465785775115924e-05,3.34799244711343214,590.487539073720654,1.60618980149218604,0.665693519146445256,69.9999999197690244,-2.82941102348924619e-10,113.700000040305838,1.57971028663545732,15.2880000000000003,0,0,0.00472017413217633904,1.01936766184118274e-13,-4.07864410983111553e-07,5.76522069423461223e-11,1.73837509686130208e-09
0.07,31.2221859390775336,131.010384164863126,3.03600551209402658,4.00448286551149391,4.63712119495135773e-05,85.8192455386477917,0.000147926970097503541,3.34656708333141317,855.293774977913927,2.27788210706903049,0.926660947343454056,69.9999996219982279,-5.49831570978999292e-10,113.700000079276109,3.1772067926123353,15.2880000000000003,0,0,0.00669410445039518576,3.35900025920073467e-13,-9.92070622953462368e-07,7.83315922772719921e-11,5.99658406989250883e-09
0.08,31.2221859009658012,131.01038426812616,3.06033476575187802,3.77263127792190334,7.06371256062416025e-05,17.6076228145981588,0.000196957592070898702,3.34480227118667583,241.217198863884818,2.92612482887636283,1.17954495655796454,69.9999989088305909,-9.15694670892462832e-10,113.700000132739973,5.24285298735243899,15.2880000000000003,0,0,0.00859912396431777512,8.49635706706491564e-13,-2.01744800413265681e-06,1.10032289818440005e-10,1.56647792516492608e-08
0.09,31.2221858556197738,131.010384390989856,3.0892797608365723,3.74258231141200604,9.5325675231994802e-05,53.4176180048964397,0.000237730218002333866,3.34289666486112669,563.093737704317618,3.46187703891102627,1.39384941462988121,69.9999975134546446,-1.31671842773002699e-09,113.70000019638816,7.33844512707370811,15.2880000000000003,0,0,0.0101735644468633635,1.80613395740032365e-12,-3.4856561047658452e-06,1.59232278560273843e-10,3.20202005890100843e-08
0.1,31.2221858028175774,131.010384534057465,3.12301320909491364,3.81071421019783685,0.000121971080758598364,50.732831688561788,0.000271545837515448313,3.34090447591365036,538.7437595981919,3.9029133825176725,1.57567038389986336,69.999995157830341,-1.72222432289554893e-09,113.700000270567642,9.32732681847184431,15.2880000000000003,0,0,0.0114696609641860067,3.37914451533694905e-12,-5.48904943388414521e-06,2.34452541412924053e-10,5.68476506314615152e-08
0.11,31.2221857431700727,131.010384695667796,3.16106164078641116,3.84323765504598036,0.000147145408783231387,40.0848474374385688,0.000307099758177995722,3.33859717034531034,442.865639305294906,4.36819921201157246,1.76578242121538631,69.9999915253729768,-2.07703942468805025e-09,113.700000354470319,11.6837607126815346,15.2880000000000003,0,0,0.0128370221364947634,5.76365694334259916e-12,-8.08162139954488366e-06,3.4437809457680147e-10,9.36754562129998513e-08
0.12,31.2221856770245907,131.01038487487628,3.20315617196047642,3.86558564807459826,0.000171348089099210797,43.7480799143332604,0.000342946594964391399,3.33600966231316054,475.585948135404465,4.83801864946757032,1.95742650583495204,69.9999862600106582,-2.3147200577597177e-09,113.700000447673773,14.3321420062794882,15.2880000000000003,0,0,0.0142177082532951912,9.17772063248746377e-12,-1.13223702306849879e-05,4.98555567062495836e-10,1.45354343598177095e-07
0.13,31.2221856047215205,131.010385070757366,3.24903338361815308,3.95285669440916232,0.000198169826234992146,48.2585391180499741,0.000371981107240517913,3.33344523512332414,515.915632623689476,5.21512035057569623,2.1172615234944101,69.9999789703044399,-2.35265113573284059e-09,113.700000549782459,16.6533950244453948,15.2880000000000003,0,0,0.0153259223232261182,1.38588880633063252e-11,-1.52681962163171846e-05,7.07166414280215559e-10,2.11287244421402401e-07
0.14,31.2221855263490333,131.010385283071088,3.29862557546706325,3.99981420118284792,0.000223008237377726162,44.9721767850953427,0.000403855591455553264,3.33052592490198407,486.239086056840392,5.63167615200940475,2.29059513099545553,69.9999692426645623,-2.0964169591742506e-09,113.700000660771011,19.4199179783547713,15.2880000000000003,0,0,0.0165500839355928395,2.00553635588333716e-11,-1.99811439493909854e-05,9.81252131659242702e-10,2.9859131057555361e-07
0.15,31.2221854420015994,131.010385511560628,3.35186028506811029,4.05975476911301225,0.000248539990764711958,43.4637160193537753,0.000433543226731567866,3.32747422849243879,472.54218587214001,6.01888316560526437,2.45383766868271946,69.99995661705006,-1.43188768134039915e-09,113.700000780625842,22.182048585914238,15.2880000000000003,0,0,0.0176879988684610287,2.80404916713566325e-11,-2.55291719775422389e-05,1.33309260321839681e-09,4.07727088477750495e-07
0.16,31.2221853515819241,131.010385756490507,3.40881389436676407,4.08854462484130732,0.000272210944932510383,34.4023069357135967,0.000465877824565354701,3.32404684464906053,391.12189082975641,6.44303061809316624,2.62971580822363071,69.9999405987561403,-2.27841984783363582e-10,113.700000909623355,25.4183784408083007,15.2880000000000003,0,0,0.0189344747787753703,3.81042963600432359e-11,-3.19913711614788564e-05,1.77662362644707755e-09,5.46937370926295155e-07
0.17,31.2221852554099399,131.010386016990765,3.46923909377793649,4.13347468842419552,0.00029684158695823977,43.4155809381403728,0.000495744973995866601,3.3205135250562221,471.78125980632376,6.83404379119085981,2.79420112365087148,69.9999206448319882,1.67575894446247236e-09,113.700001047478835,28.5969980778046526,15.2880000000000003,0,0,0.0200835795555658371,5.05622819343119236e-11,-3.94162603380559734e-05,2.32482468580976756e-09,7.14768170397066036e-07
0.18,31.2221851530022434,131.010386294375877,3.53351204963262022,4.16207877285686756,0.000320492787063832857,36.2151660219171347,0.000526966735016640565,3.31665933612355879,407.101567211914528,7.2444022294323478,2.96528531587496236,69.9998961790314524,4.45070668055043651e-09,113.700001195059045,32.1341903991183955,15.2880000000000003,0,0,0.0212895378539265934,6.5741708189353534e-11,-4.79243856484647045e-05,2.99669991322666987e-09,9.21230820748327094e-07
0.19,31.2221850444828668,131.010386588308563,3.60153760019172342,4.17456309251139679,0.000342914278589344943,40.9041800427263027,0.00055982867240863632,3.31244583927210501,448.953132831826849,7.67810673790947895,3.14433961722118216,69.9998665624008964,8.30674092292676784e-09,113.700001352409558,36.0967170721845179,15.2880000000000003,0,0,0.0225641073333706747,8.40032927522686365e-11,-5.75836346763551867e-05,3.80911503044151526e-09,1.17316671380156179e-06
0.2,31.2221849296486234,131.01038689934137,3.67347464118590317,4.20078915399145636,0.000366573034254704516,37.5214898208491761,0.000590466919182690893,3.30812712915434881,418.515630199161365,8.08216006412957277,3.31318683933006453,69.9998311045104487,1.34800080829191884e-08,113.700001520067786,39.9955165273270055,15.2880000000000003,0,0,0.0237515420632470921,1.05728805481567758e-10,-6.85028882131185225e-05,4.78351733027568889e-09,1.4690610466811608e-06
0.21,31.2221848088436893,131.01038722653837,3.74905730552401684,4.22722562033261262,0.000390310433246848657,36.0064697775761644,0.000620601272787201603,3.30359776763142721,404.818761014464428,8.48018829437500621,3.47992805775657654,69.9997890742529592,2.02433263776548733e-08,113.700001697833756,44.0315784885794201,15.2880000000000003,0,0,0.0249212734096428447,1.31320595517854955e-10,-8.07208291683553139e-05,5.93661589182972911e-09,1.81631626331753899e-06
0.22,31.2221846819136672,131.010387570319409,3.82840670130281646,4.2176244726165093,0.000410696285369717819,43.5935627685881499,0.000655758920494764063,3.29841875767922987,472.542185872136486,8.94831461811120121,3.67066782999472752,69.9997397083127737,2.88926538075102191e-08,113.700001886238866,49.0266756129506618,15.2880000000000003,0,0,0.0262970098082033268,1.61186003536399267e-10,-9.43348117723774896e-05,7.29106197993283208e-09,2.23980539128825791e-06
0.23,31.2221845484548304,131.01038793178239,3.91183756115468473,4.25320537954326383,0.0004356497720089569,36.207459360748949,0.000683686922722525747,3.29355466128287455,406.340642146102141,9.31799902525197865,3.82760028360492655,69.9996821549030983,3.9766623706965518e-08,113.70000208621326,53.1608354775167555,15.2880000000000003,0,0,0.0273834518362109196,1.95767624418301473e-10,-0.000109505708778552874,8.87784718088286285e-09,2.70740355927931971e-06
0.24,31.2221844093456014,131.010388308538637,3.99866964940866776,4.27135264557773553,0.00045883378920767232,37.3286080087975947,0.000713911697673520317,3.2882529474867046,416.232824001711379,9.7203332459195213,3.9956861712714935,69.9996155408946805,5.32509871046438109e-08,113.700002296918697,57.8502398901668755,15.2880000000000003,0,0,0.0285658473732890855,2.35534745143307651e-10,-0.00012617657385590063,1.07071802425012536e-08,3.25424194465518317e-06
0.25,31.2221842644570167,131.010388700938847,4.08900446593793809,4.29698686981540234,0.000482848983334858658,38.3649566400252979,0.000742483922667206905,3.28284626589867479,425.364080791506922,10.1009615935159527,4.1562806652626314,69.9995389781877293,6.97479781374676735e-08,113.700002518962805,62.4689963611702623,15.2880000000000003,0,0,0.0296844577155840929,2.80933085873043406e-10,-0.000144451636124542286,1.28055329635332884e-08,3.87142965072796435e-06
0.26,31.2221841140756986,131.010389108203611,4.18262110402873155,4.32755423691547136,0.000507438991606541483,41.7865661614553829,0.000769736419800412888,3.27732087646770287,455.80158342417883,10.4644497354123782,4.31094871887776954,69.9994515368878751,8.97024502886333285e-08,113.700002752408935,67.0452443356678742,15.2880000000000003,0,0,0.0307527002093570291,3.32431765373287754e-10,-0.00016436315770221847,1.51925047864838523e-08,4.56355359993810651e-06
0.27,31.2221839578137299,131.010389531387915,4.27982215321117465,4.33742811840656994,0.000529702335486379188,38.2242911032538473,0.000800211178185602123,3.27123004841987974,423.842199659872563,10.8736118498261902,4.48123226393084195,69.9993522521519935,1.13587393208351198e-07,113.700002998306658,72.3900346549699947,15.2880000000000003,0,0,0.0319551720828357214,3.90484337603431509e-10,-0.000186059811616844751,1.79019946498730075e-08,5.36790267753501075e-06
0.28,31.2221837957695953,131.010389970223883,4.38053283172365671,4.35979025650862262,0.000553527510562852902,44.1207307275094038,0.000828072271385077072,3.26514386100193477,476.346873201222195,11.2478718916014184,4.63949182586423614,69.9992400702920463,1.41938296327408329e-07,113.700003257081931,77.4582454645660761,15.2880000000000003,0,0,0.0330550782151640757,4.55595825375374429e-10,-0.000209619220926101062,2.09616181379585756e-08,6.25569396794615011e-06
0.29,31.2221836278828384,131.010390424876022,4.48480177698289584,4.38135974025744623,0.00057737648726709299,35.3536197607625553,0.000855659611391794222,3.2588361863853601,397.970310422111766,11.6195889013503368,4.79682445966682813,69.9991139044831527,1.7532937395312496e-07,113.700003529427192,82.6616578528940948,15.2880000000000003,0,0,0.0341475147840558241,5.28268525040872464e-10,-0.000235137545717689308,2.44023887909330158e-08,7.24907222782668121e-06
0.3,31.2221834544381096,131.010390894570321,4.59240982688131272,4.39617507281761988,0.000600356665334356751,33.1490797613948018,0.000884158719714270942,3.25217107922164672,378.185945710871067,12.0052186882677852,4.95887519756831807,69.998972627127344,2.14383684192303281e-07,113.700003815596887,88.2385269149682756,15.2880000000000003,0,0,0.0352808420099011907,6.09029939588318471e-10,-0.000262641159892275291,2.82471356422800846e-08,8.36561857411674722e-06
0.31,31.2221832755909574,131.01039137888381,4.7032380575360353,4.42235615181669761,0.000624899913490765827,34.9528590290802086,0.000910025197609511073,3.24555398289468222,394.16562209302117,12.3556398803864607,5.10879227158949156,69.9988150759387651,2.59766173767152649e-07,113.700004116072961,93.4639131761651498,15.2880000000000003,0,0,0.0363107024397255479,6.98403788157463991e-10,-0.000292187019282257228,3.25229566712151178e-08,9.57826248689966157e-06
0.32,31.2221830914257232,131.010391877587324,4.81722282885169673,4.45155794779377789,0.000649944303128982049,38.0379859115142835,0.000934821026682707218,3.23882361682650144,421.559393462426954,12.6924793110791878,5.25399282922068878,69.9986400687318024,3.12179641788393281e-07,113.700004431478234,98.6283237403037703,15.2880000000000003,0,0,0.0373006526995305274,7.96905013945712519e-10,-0.000323836613651358495,3.72580440687311147e-08,1.09050644159405278e-05
0.33,31.22218290196043,131.01039239063175,4.9343519698327194,4.48019701204722054,0.000675004219851668761,37.7093551175013246,0.000959261610436717115,3.23189933669563656,418.515630199168186,13.0256844327599097,5.39788776638052958,69.9984463826819052,3.72372687880250348e-07,113.700004762578004,103.87354288045799,15.2880000000000003,0,0,0.0382799263433428877,9.05047894999210997e-10,-0.000357667290238851605,4.24836225249657193e-08,1.23603484615852587e-05
0.34,31.222182707020778,131.010392918491164,5.05476263450916541,4.49049305198152204,0.000697378143373914754,29.5227085089536203,0.000987142430045659337,3.22427911658814059,345.465636880756449,13.4081741031825317,5.55863100914667463,69.9982327456812641,4.41143957445642244e-07,113.700005110463266,110.062177258613033,15.2880000000000003,0,0,0.0394040418267209702,1.02333461745717641e-09,-0.000393806243978271305,4.82396483202145133e-08,1.40087103268591529e-05
0.35,31.2221825067937928,131.010393460657156,5.17831168393457641,4.50711781535187139,0.000720712543856854714,32.3530371383660977,0.00101333646443235357,3.21661305844837253,370.576570052703289,13.7686530554979374,5.71176159517965232,69.9979978091806316,5.19362042776584697e-07,113.700005475786654,116.058400304168075,15.2880000000000003,0,0,0.0404634764462946869,1.15232390415689195e-09,-0.000432299813734132244,5.45552399130644805e-08,1.57912776608867467e-05
0.36,31.2221823012122108,131.010394017312592,5.30505329869157727,4.52767240178778962,0.000744729708600240731,36.5526511043957356,0.00103828652712813154,3.20885713174522058,407.862523277719447,14.1132764952183631,5.85938873702120233,69.9977401961163537,6.07939829707116331e-07,113.700005859608282,121.939407863977465,15.2880000000000003,0,0,0.0414763190843316643,1.29254043868676357e-09,-0.000473255972436325862,6.14699225552327593e-08,1.77198251922661022e-05
0.37,31.222182090341061,131.010394588280832,5.43493909097431604,4.55039311415752579,0.00076918150115683735,34.6835787828593496,0.00106234372950533948,3.20097384516078431,391.121890829766642,14.446930470491731,6.00318739776240751,69.9974584775585669,7.0785096329375243e-07,113.700006262864989,127.771540530283914,15.2880000000000003,0,0,0.042456928843506235,1.4445318520011827e-09,-0.000516746496826029863,6.90186481791334769e-08,1.98053803654614999e-05
0.38,31.2221818741223878,131.010395173719473,5.56801609611825477,4.56315131642791805,0.000792019287104061913,36.2353933787001239,0.00108827974821363053,3.19255015153205646,404.818761014460279,14.8084413239345949,6.1564787166299757,69.9971511865591651,8.20121521966083772e-07,113.700006686723384,134.244380272309172,15.2880000000000003,0,0,0.0435194095147296359,1.60882660749176723e-09,-0.000562873331420229127,7.72423853301427293e-08,2.21128406351508731e-05
0.39,31.2221816525004634,131.010395773780147,5.704329739781131,4.57922628245169783,0.000815489716137310881,30.9425419640016202,0.00111309493143926189,3.18402316666385765,357.640624933827439,15.1559126959619999,6.30488433186772657,69.9968167722787769,9.45855271408966431e-07,113.700007132429306,140.616382889747683,15.2880000000000003,0,0,0.0445406353688629561,1.78596578656278109e-09,-0.000611756345505213715,8.61868943159197994e-08,2.45968452142520012e-05
0.4,31.2221814256617982,131.010396387955836,5.84373750626454935,4.59349479979191955,0.000838670682925170751,29.5834243852937959,0.00113797512888990423,3.17521289611434332,345.465636880754005,15.505969085398343,6.45410901523083158,69.9964536498379317,1.08621525395706341e-06,113.700007600947828,147.185065961143067,15.2880000000000003,0,0,0.045569462889951777,1.97653506559195414e-09,-0.000663427505461186432,9.58835144134294998e-08,2.72901174189528038e-05
0.41,31.2221811937141673,131.010397015953487,5.98615797249314241,4.60939449845229365,0.000862163931524819621,33.360545626359837,0.00116210409424792778,3.16624854525325983,378.946870776686467,15.8471768437686258,6.60022848408685459,69.9960602026584695,1.24241947051318175e-06,113.700008093413757,153.73182724817184,15.2880000000000003,0,0,0.0465722905345462151,2.18109996727848554e-09,-0.000717942131686907965,1.06367950505874699e-07,3.01820283711074823e-05
0.42,31.2221809567080335,131.010397657635991,6.13155423418529733,4.63387609959193458,0.000887317919769279608,37.5676427387571721,0.001183742077125155,3.15743374731593907,416.232824001711379,16.155026338188506,6.73482947265292431,69.9956347739890248,1.41574639558456e-06,113.700008611107208,159.760443802515937,15.2880000000000003,0,0,0.0474770882933877245,2.400206535531791e-09,-0.00077537935552726017,1.17680930846389008e-07,3.32294321368729263e-05
0.43,31.222180714655078,131.010398312971745,6.27991949833728835,4.65367427313455995,0.000911660169575580258,33.0386483003103493,0.00120612360190941372,3.14823214930187856,375.903139513433644,16.4750454055619109,6.87353555569934649,69.9951756835756242,1.60752723178871754e-06,113.700009155418982,166.15023929888028,15.2880000000000003,0,0,0.0484176551665520677,2.63438237315801404e-09,-0.000835821567166909188,1.29864614855892046e-07,3.65287677570896608e-05
0.44,31.2221804673911407,131.010398982407111,6.43138341412837455,4.65757387742934892,0.000932929976641759203,30.4788052564327749,0.00123214974254881528,3.13809943757763454,353.075012538921555,16.8483715860516412,7.03046484016701978,69.9946811832270441,1.81916859536649675e-06,113.700009728069276,173.762989227436179,15.2880000000000003,0,0,0.0495148886868988364,2.88411342836306464e-09,-0.000899417740154189794,1.42975581697416844e-07,4.01983191819108926e-05
0.45,31.2221802146980103,131.010399666535704,6.58611776122768511,4.65827001030579346,0.000953562143933252499,35.4620561517945134,0.00125873275223327787,3.12754579585638304,397.209385356286873,17.2316459864824161,7.19073264961644831,69.9941493995125938,2.05218870761162579e-06,113.700010330973456,181.755888424112015,15.2880000000000003,0,0,0.0506413642318551335,3.14987863732273609e-09,-0.000966369542842942814,1.57083782729145849e-07,4.41725079750487196e-05
0.46,31.2221799565319174,131.010400365476642,6.74415901717088939,4.66907507286434065,0.00097630283571516251,41.3913707355688842,0.0012823814722795761,3.11722412848720953,449.71405889764344,17.5754687869478978,7.33738035579407555,69.9935783582983362,2.30821229426708146e-06,113.700010965912341,189.078525726536213,15.2880000000000003,0,0,0.0516519027755614896,3.43223060675433133e-09,-0.00103681314204437207,1.7224885851047691e-07,4.83373548649469587e-05
0.47,31.2221796928065203,131.010401079464799,6.90557672428163105,4.67806301106434042,0.000998761260684927557,28.0209900204918974,0.00130616618884544979,3.10657060381263461,331.007810630253402,17.9233234115620377,7.48533101007974988,69.9929660462147325,2.5889364060732201e-06,113.700011634803886,196.634049649816575,15.2880000000000003,0,0,0.0526742959306323727,3.73170463860384924e-09,-0.0011108841623615434,1.88532207060213475e-07,5.28148505664365441e-05
0.48,31.2221794239793269,131.010401807256216,7.07001851744381948,4.68642527483421745,0.00102109091231145262,27.6007969606275125,0.00132978852885184593,3.09563681785184297,327.203122301157407,18.2709832353803314,7.63313726727991071,69.9923104035261474,2.89614261094227829e-06,113.700012338884164,204.33305198470137,15.2880000000000003,0,0,0.0536961221459722679,4.04904859899578719e-09,-0.00118849531779471017,2.05948560519311644e-07,5.75998398329450787e-05
0.49,31.2221791502289392,131.010402548365278,7.23734841566291642,4.70156796398202914,0.00104489945272251677,34.6487244505178253,0.00135120419031512233,3.08484494341801163,389.60000969812296,18.589315545984995,7.7707981814672209,69.9916093757078812,3.23165731652504743e-06,113.700013079832303,211.511801733856089,15.2880000000000003,0,0,0.0546317638991248022,4.38486615800834454e-09,-0.00126967773493266863,2.2453662401782158e-07,6.26054017926546362e-05
0.5,31.2221788715876762,131.010403302704333,7.40754387012007864,4.72212438923579736,0.00106996435823571525,35.6033845714535389,0.00137072557486675028,3.0741588573465477,397.970310422105001,18.8826594549893159,7.8998011517407587,69.9908609011483378,3.5973597360057951e-06,113.700013859590555,218.236320199079358,15.2880000000000003,0,0,0.0554939729313439212,4.73968531279909998e-09,-0.00135450679800636423,2.44344941868023912e-07,6.78409867869358833e-05
0.51,31.2221785881337617,131.010404070060673,7.5805467220577798,4.73558879650721298,0.00109346949398930206,27.1956639286467201,0.00139183542187690463,3.06284319292573448,323.39843497208409,19.200774511812984,8.03722958125224807,69.9900628955037689,3.99519228958782199e-06,113.700014680103109,225.647740475438098,15.2880000000000003,0,0,0.0564289867670437692,5.11403675587933804e-09,-0.00144303978709531136,2.65418546512062939e-07,7.34915902759761199e-05
0.52,31.2221782999013868,131.010404850474288,7.75637073941223498,20.7078857223789647,-16.8528071957001231,33.6397614651920591,1.43769113488021927,1.74236358560626869,372.098451184341457,24.4502786634632976,8.17571454064698599,69.9892118024353351,1.40010246503539477e-05,113.700025732485003,365.892736842919589,15.2880000000000003,0,10.0257722823219062,0.0718568507153628522,5.50584935723162378e-09,-0.00160580341320017378,1.06232943205002934e-05,0.000104138052129017328
0.53,31.2221780062500684,131.010405643341528,7.93521221223300532,20.5134548709902589,-16.6567701781134652,35.2884912146008602,1.47073475459236191,1.69805953027051881,386.55624643486243,24.7731128709075747,8.30545031122784216,69.9881483094163315,-0.000329712345041081932,113.699660343790669,375.612353279599233,15.2880000000000003,0,10.0639151247765568,0.0728057740850392016,5.85808375520516103e-09,-0.00216774440913987095,-0.000500555569712057445,0.000142434258317915356
0.54,31.222177706709811,131.010406448363483,8.11718379039002258,20.3247814811805299,-16.4659633686308631,31.0912984182831735,1.50420735172502273,1.6531007132240032,349.270324209843579,25.0945826799440646,8.43426185956780472,69.9867588401040166,-0.00148576833963213334,113.698430412869016,385.417181787838103,15.2880000000000003,0,10.1020033899930421,0.073750694045503648,6.10989297046568374e-09,-0.00274532522985331678,-0.00102346176540261589,0.000182722484999049998
0.55,31.2221774015120346,131.010407264785783,8.30208610003870717,20.1461526442896748,-16.2834911763919195,32.9119773799551893,1.53776224373924753,1.60792540459015876,365.250000591990727,25.4094781444691371,8.5602076314739115,69.9850345221909151,-0.00347209390581135809,113.696316842312697,395.143549313353674,15.2880000000000003,0,10.1399744679269439,0.0746762989149798301,6.26384137382429446e-09,-0.00333807773862408253,-0.0015576503663249021,0.000224958649074358128
0.56,31.2221770906491365,131.010408092571879,8.48992041609760406,19.9804778290760261,-16.1114628229327508,30.7758567375954932,1.57112015688845563,1.5628884705107835,346.226561946578727,25.713774208407937,8.68178279275758591,69.982966547780677,-0.0063062546270056391,113.693300913361753,404.657155423653194,15.2880000000000003,0,10.1778264775352572,0.0755707593423869534,6.32242634622819013e-09,-0.00394626998903582337,-0.00210328270593529649,0.000269125773432770407
0.57,31.2221767741803866,131.010408931504656,8.68063632205567792,19.8117363748827024,-15.9381051022852134,30.44564765970485,1.6054535049758043,1.51648300934033498,343.182829683302316,26.0252173750539342,8.80573409097784676,69.9805460156055972,-0.0100057072906724106,113.689364019051581,414.511276971920438,15.2880000000000003,0,10.2155571305573964,0.0764862308642239447,6.28828079689801311e-09,-0.00456992941865399897,-0.00266032230004379418,0.00031542678915681162
0.58,31.2221764520774272,131.010409781606114,8.87425150238472149,19.6297986374403841,-15.7559819592178378,39.843454323541927,1.64163211744597959,1.46758897830880541,426.12500585731533,26.3562087293077703,8.93673588049681733,69.9777640076242022,-0.0145879846344169964,113.684487455974775,425.114013608300638,15.2880000000000003,0,10.2531624056960826,0.0774591596917309638,6.16401034365623339e-09,-0.00520934395520222023,-0.00322894523523501375,0.000364126774821961247
0.59,31.222176123957972,131.010410643858819,9.071057930094657,19.472265341476156,-15.5926465295602998,32.4540601478487645,1.67665880323934235,1.42005562013777142,360.68438819711065,26.662030129898028,9.05786289874896866,69.9746109469611355,-0.0200715786480283459,113.678651501100049,435.028557611103565,15.2880000000000003,0,10.2906969143212734,0.0783581225948778159,5.95195788948425547e-09,-0.00586595649993409702,-0.0038102667863594503,0.000414773010141116687
0.6,31.2221757900104322,131.010411517693996,9.27090516190384939,19.2889323338282672,-15.4112964140651307,28.9366750327760194,1.71467673154877187,1.36855317385339292,329.48595949860578,27.0034262489468517,9.19205242419259605,69.971077085003742,-0.0264750979669375226,113.671836298166497,446.232037083212845,15.2880000000000003,0,10.3281214844953304,0.0793616444288275102,5.65493481350230645e-09,-0.00653941063044589758,-0.00440393378721650602,0.000468303692586541983
0.61,31.2221754501815845,131.010412403200149,9.47383021031059513,19.1048806838500838,-15.2302929121009107,33.7755900620661222,1.7537067750353732,1.31562174454724223,372.09845118432969,27.3506541706558579,9.3280620968525394,69.9671524841666184,-0.0338174777192146725,113.664021629356668,457.77279290539019,15.2880000000000003,0,10.3654393878005173,0.0803823129779559081,5.27557682089530803e-09,-0.00723013104589199495,-0.00501022615868609422,0.000524415507957534948
0.62,31.2221751045689331,131.010413300055376,9.6797532253791978,18.9687877038032298,-15.0852190363298106,41.806068270062319,1.78927605722813765,1.26701413429510557,442.86563930529212,27.6400507685627304,9.44201302207484083,69.9628269113943304,-0.0421179323397353131,113.655186972700861,467.502164801707124,15.2880000000000003,0,10.4026476795563045,0.0812330249616960154,4.81660569885165933e-09,-0.00793819241704880885,-0.00562913633797791808,0.00058185331042044815
0.63,31.2221747529953113,131.010414208690179,9.88880789240699798,18.8217405133067679,-14.9329435184222152,24.0605890494745722,1.82658038212214047,1.21604127272490437,286.112512747078938,27.9464193260874829,9.56201813822800339,69.9580903746794434,-0.0513948443740318908,113.645312682022308,477.913807127540906,15.2880000000000003,0,10.4397513168211749,0.0821336238395782847,4.28076071638805455e-09,-0.00866428785982616655,-0.00626116081692489491,0.00064210104565114699
0.64,31.2221743959916331,131.01041512760645,10.1005786851108521,18.6555809076205819,-14.7674781930936607,23.6403169352677693,1.86650924037490995,1.16154411562168702,282.307824417967538,28.2817400480568217,9.69258989466763765,69.952932686570179,-0.0616666048586639592,113.634379093962693,489.441348277670329,15.2880000000000003,0,10.4766408043388335,0.0831193191897700856,3.67111810874474814e-09,-0.00940690175008537452,-0.00690500738821612885,0.0007054857337630005
0.65,31.2221740335328697,131.010416056822748,10.315081647378797,18.52472599821456,-14.6285683476186463,41.1650298088338786,1.90378849550138751,1.11032893993566972,436.778144778747503,28.5720610316495893,9.80603341386337135,69.9473439132784307,-0.0729510346133665916,113.622367132053711,499.531174361745741,15.2880000000000003,0,10.5134259573394484,0.0839727684288321397,2.99044560719702594e-09,-0.0101664490432693908,-0.0075609431864550004,0.000770260121074419738
0.66,31.2221736651465918,131.010416997580052,10.5326802657586622,18.3882520745853419,-14.4862915111584094,35.1397326128448171,1.94234553806715593,1.05732072084330597,383.512515171600171,28.872373212528327,9.92292948056750923,69.9413137895887047,-0.0852659409015371766,113.609257736387676,510.076539997648752,15.2880000000000003,0,10.5500335942101753,0.0848555887808166293,2.24146707126037892e-09,-0.0109446965642082897,-0.00823032504394360584,0.000837922186860589886
0.67,31.222173290995574,131.010417949384475,10.7532449217418211,18.2353042588864298,-14.332761958534272,24.4489856460403132,1.98343656969641269,1.00089639040436085,289.156244010342505,29.1990912373421416,10.0493826873109686,69.9348315228798185,-0.0986302327412038882,113.595030651457819,521.674796750457972,15.2880000000000003,0,10.5865224186064264,0.0858160230159874665,1.42704684218258339e-09,-0.0117413377596887938,-0.00891283638052859165,0.000909065549577094362
0.68,31.2221729112271085,131.01041891178528,10.9766581336604307,18.0900191067936156,-14.1855537137005054,30.3316281221097768,2.02458242967324953,0.944255945901164018,340.899992485846269,29.5180211633497187,10.1726393863116353,69.9278861957694602,-0.11306256051211129,113.579665889234619,533.121684499505704,15.2880000000000003,0,10.6228956537032442,0.08675357556833517,5.50021187056544229e-10,-0.0125561808842580939,-0.00960825222188768473,0.0009827516221339093
0.69,31.2221725259070624,131.010419884556057,11.2028659157019916,17.9645384994958093,-14.0534241052313824,37.167604879469593,2.06427335953781466,0.889339041736894376,401.014072685363431,29.8099158923757166,10.2855875966563239,69.9204669944227533,-0.128581104902036919,113.563143943738069,543.705762147026007,15.2880000000000003,0,10.6590358187050978,0.0876116788633585497,-3.86786572839230335e-10,-0.0133892251569104666,-0.0103165011447903746,0.00105829252297457658
0.7,31.2221721349032642,131.010420868014762,11.4319684038783596,17.8396476754184832,-13.9224043912098612,31.3057358279778413,2.10462382134566228,0.833418362722366357,349.270324209852845,30.1028795842205135,10.3986718923982977,69.912563111853288,-0.145203619930254046,113.545445749847502,554.432860505847316,15.2880000000000003,0,10.6950516136400182,0.0884729311298162874,-1.38052434437371005e-09,-0.0142411687994977061,-0.0110380696051615729,0.0011366680509341167
0.71,31.2221717382579058,131.010421862002659,11.6639303828749288,17.7046880084844069,-13.7847539174901055,25.872565858106757,2.1469469977878215,0.774788915263771361,301.331264063405797,30.4135856600044328,10.5180871548177599,69.9041633955161501,-0.162948102169953535,113.526551972098062,565.924447967024776,15.2880000000000003,0,10.7309401087174425,0.0893863360685845654,-2.42836436006030939e-09,-0.0151120809437067655,-0.0117729406115953741,0.00121860287929501684
0.72,31.2221713359657187,131.010422866490984,11.8987535602513717,17.5574404033103342,-13.6388530280639486,31.502588018108991,2.19162679922039016,0.712938122102801608,350.79220534145287,30.7463567370551552,10.6454373962487825,69.8952564007952049,-0.181832723767680449,113.506443073364565,578.36331220751515,15.2880000000000003,0,10.7666248043045094,0.0903645985000786356,-3.5275120527463366e-09,-0.0160022815703945789,-0.0125212958472011374,0.00130447596072440111
0.73,31.2221709280166237,131.010423881463453,12.1364433825187241,17.4441350897615415,-13.5181797074540331,39.643480357101005,2.23286141328847609,0.655394682078565771,422.320318528233997,31.0270748914396961,10.7532341766395447,69.8858303419142146,-0.201876151682932908,113.485098966386332,588.959142330543386,15.2880000000000003,0,10.8021619481606983,0.0911898833318451063,-4.67522882262872406e-09,-0.0169121636649176704,-0.0132833694972547441,0.00139120331702491168
0.74,31.2221705143459047,131.010424907058763,12.3770483309891031,17.321508672033417,-13.3913868723786695,25.1236397432825456,2.27602169335959648,0.59518763233748273,294.482813471059444,31.3245638490074576,10.8669988692487234,69.8758736106235006,-0.223096059016706511,113.462500609894363,600.293347883317665,15.2880000000000003,0,10.8375738486136637,0.092064465849231128,-5.86869292447267528e-09,-0.0178421072624260109,-0.0140593878918825518,0.00148173910254830311
0.75,31.2221700952789085,131.010425942344369,12.6203135094624184,17.1933861455637746,-13.2612312103912977,29.2000189373103503,2.32070893867136085,0.532826384037125234,330.246885564414924,31.6331702480396117,10.9846602019105362,69.8653744419367797,-0.245510019607595192,113.43862904836665,612.165368755554823,15.2880000000000003,0,10.8728101029233493,0.0929717307130876053,-7.10535772893469805e-09,-0.0187910952321531273,-0.0148484728888029008,0.00157588756998636192
0.76,31.2221696707071601,131.010426987581241,12.8663217294560166,17.0775817005242985,-13.1405396922887618,31.3741530339120622,2.3644622072822874,0.4715016036218036,349.270324209861712,31.9226067934252242,11.0950220516241469,69.8543210445066194,-0.269135181755496389,113.413465761192057,623.404247371269093,15.2880000000000003,0,10.907819822814492,0.0938226619896620345,-8.38242962870967205e-09,-0.019759867170699566,-0.0156511309468926781,0.00167225509255503773
0.77,31.2221692405715707,131.010428042896677,13.1151176467546584,16.9655185935400361,-13.0231219703693508,29.3932411799506639,2.40842112444310086,0.409737047254972842,331.76876669607077,32.2069551813922388,11.2032831992695439,69.8427014211789867,-0.293988630597378897,113.386992275253206,634.544408343901068,15.2880000000000003,0,10.9426875204577474,0.0946586464934381921,-9.69715831092816754e-09,-0.0207489166010459102,-0.0164676729033035041,0.0017715559606160604
0.78,31.2221688049258681,131.010429108108809,13.3666582498495252,16.8447331526047002,-12.899995858387717,24.2931048079910852,2.45439771750733682,0.345164900238707495,286.873437812889904,32.5080445096193174,11.3175166100876545,69.8305034334101293,-0.320087233051049636,113.359190329158494,646.448428776931223,15.2880000000000003,0,10.9774022896175634,0.0955438416614904223,-1.10469391560163717e-08,-0.021758217859399822,-0.0172980011302555255,0.00187505260908108146
0.79,31.2221683638455083,131.010430182975909,13.6208836794230574,16.7195282042564166,-12.7742618752395511,34.1776542686175233,2.50186585196999856,0.278463582481879857,373.620332315953419,32.8189032854816247,11.4351494660873243,69.8177146793943848,-0.347447788729439211,113.330041714696904,658.8548058275112,15.2880000000000003,0,11.0119565617545518,0.0964577580755413833,-1.24292396382375838e-08,-0.0227877305630931892,-0.0181420062389103971,0.00198250288433860682
0.8,31.2221679171209807,131.010431268044016,13.87795629838301,16.6138223857306642,-12.6630558978125425,34.6215323424005845,2.54710378307905883,0.214484374409177642,377.42502064505743,33.0956530743100288,11.5399953911194952,69.8043224791465633,-0.376087386616611119,113.299527884869335,669.996878256505966,15.2880000000000003,0,11.0463019977089338,0.0972714331379891523,-1.38411817198077179e-08,-0.0238387163910101785,-0.0190005907954995425,0.00209137440476942675
0.81,31.2221674648416325,131.010432363036216,14.1378058205766042,16.497159026007477,-12.5445253158654673,22.8429071158248682,2.59479914186761995,0.147104059479204241,273.937492693991885,33.3937264009774566,11.6525054816661253,69.790313999335126,-0.406022614053878406,113.267630811629445,682.102749411617651,15.2880000000000003,0,11.0804939195462691,0.0981477881875083141,-1.52803579493895599e-08,-0.0249109408542824429,-0.0198734914569604869,0.00220506879832346823
0.82,31.2221670071760471,131.01043346745584,14.4003001647193987,16.376588369516714,-12.4237291240248862,29.0929384191656517,2.64395938764637428,0.077612984781277275,328.725004432770049,33.7007392197195017,11.7681236913645506,69.7756763196142629,-0.437269730629787912,113.234332789177117,694.685025295264381,15.2880000000000003,0,11.1145203829865213,0.0990504255470323336,-1.6744524595554294e-08,-0.0260039376663281571,-0.0207602646698227915,0.00232292252044333973
0.83,31.2221665441038496,131.0104345813306,14.6654547991439497,16.278938106941979,-12.319825657811629,36.7339333853049155,2.69005647064117692,0.0119403998192604641,395.68750322465047,33.9650318234632422,11.8678203918811853,69.7603963251394106,-0.469844795446158148,113.199616300512844,705.605692406925868,15.2880000000000003,0,11.1483899025426769,0.09982751115555763,-1.82311303306293001e-08,-0.0271181582299880042,-0.0216611771869974663,0.00244139099495114826
0.84,31.2221660755232442,131.010435704919843,14.9333493921096103,16.177551805905658,-12.2137341598195022,23.0364492945503336,2.73742071856607661,-0.0555899973561758201,275.459374825645227,34.2369338433433725,11.9701410355842199,69.7444610138147851,-0.50376301495590381,113.163464711485503,716.929709927845806,15.2880000000000003,0,11.1821043552644586,0.100626969625646698,-1.97375412886566693e-08,-0.028254215876979228,-0.0225766208543810923,0.00256396487663467648
0.85,31.2221656017023363,131.010436837453938,15.2037745706011318,16.0590038245951447,-12.0958787259210094,25.0387052656729168,2.78852781735487376,-0.12824278468887923,292.960932339393764,34.5435165269902384,12.0850869282294138,69.7278573020740993,-0.539039127669244666,113.125861859421065,729.808076561952475,15.2880000000000003,0,11.2155886963141036,0.101528367288151969,-2.12619317147469248e-08,-0.0294110627365776894,-0.0235057054619232202,0.00269277417873354163
0.86,31.2221651224765679,131.010437979367822,15.4768592389750008,15.954444667247687,-11.9884628024819939,31.1217461950356871,2.83790459577801002,-0.198831004879682471,346.226561946558718,34.8231693511227647,12.1899542468768143,69.7105716231192076,-0.57568821199006126,113.086791192200465,741.653024221305714,15.2880000000000003,0,11.2489025912643061,0.102350622548419826,-2.28014979667990085e-08,-0.0305898677458950642,-0.0244492453874263389,0.00282330095076930221
0.87,31.2221646378647684,131.010439130588395,15.7525892089772981,15.8567204254248519,-11.886360924636211,29.0456792097393333,2.88670697064866077,-0.268871307220338529,327.964078366998024,35.0893278935193607,12.2896967984586194,69.6925903715483344,-0.613724750319723289,113.046236763965993,753.013533216509018,15.2880000000000003,0,11.2820575037535402,0.103133224074003535,-2.43539372173387188e-08,-0.031790790465983973,-0.0254072771575461209,0.0029564882429945461
0.88,31.2221641478968586,131.010440291013936,16.0309419136936313,15.7508153949984173,-11.7789012998825644,25.2311353776236089,2.93775735065159127,-0.342085013429259288,294.482813471041823,35.3727924831137912,12.3956582133175601,69.6738998682875206,-0.653162686445435181,113.004183173388299,765.208463415897199,15.2880000000000003,0,11.3150452269887296,0.103966698983515071,-2.59170911485775122e-08,-0.0330138235187629608,-0.026379709704851817,0.00309494789504374725
0.89,31.222163652645019,131.010441460424374,16.3118616981329652,15.6370360317301582,-11.6663183131786408,27.582551019360249,2.99112370893145707,-0.418573827108395857,315.028134248086985,35.6737079756859785,12.5078988837680658,69.6544862240591414,-0.694015683673191996,112.960615287488622,778.262063367631526,15.2880000000000003,0,11.3478627034861113,0.104851473521793373,-2.74888696186130596e-08,-0.0342589381742690324,-0.0273664347764486435,0.00323890794260939426
0.9,31.2221631520372718,131.010442639004452,16.5954060070843319,15.5453858305395833,-11.5698283180108081,30.3695197426600565,3.04080220222224451,-0.49041608499539685,339.378142354214447,35.9278678845982782,12.6027968266394037,69.6343351127444663,-0.736297557513109213,112.915517779369537,789.369640329807567,15.2880000000000003,0,11.3805219999727392,0.105598833252875182,-2.90667676829242379e-08,-0.0355268352076794428,-0.0283678961235082593,0.00338261518048550702
0.91,31.2221626461366135,131.010443826564995,16.8815269656924833,15.4456522585737375,-11.4680395339361461,23.3349566295643029,3.09277192271408774,-0.565508955801403923,277.742181023078899,36.1994498585753561,12.7039727112683778,69.6134325035963997,-0.780020789506460699,112.868876711945944,801.326556668446301,15.2880000000000003,0,11.4130130915619752,0.106397407785079182,-3.06488390803182022e-08,-0.036817373071865285,-0.0293838984515481481,0.00353189237979627127
0.92,31.2221621351259202,131.010445022576903,17.1700824386226678,15.3381883210081611,-11.3612124433652628,27.5997239275165818,3.14708101228537451,-0.643930163331934313,315.028134248062145,36.4884266741666821,12.8114407898708418,69.5917641621220184,-0.825197512846191916,112.820678486048237,814.148889532155067,15.2880000000000003,0,11.4453101686863654,0.107247117496712396,-3.22336005130506099e-08,-0.0381297956993621109,-0.0304137808850767494,0.00368689079009504707
0.93,31.2221616189206941,131.010446227267863,17.4611405238950859,15.2505475493030662,-11.2687363242414307,32.6492673293513533,3.19777865162564856,-0.717803425411208673,359.162507065472823,36.7331273402201148,12.9025111762681455,69.5693156651706346,-0.871839465009889847,112.770909890548239,825.082219650484831,15.2880000000000003,0,11.4774149781212103,0.1079666985037296,-3.38184722081546249e-08,-0.039464955654322946,-0.0314580974030290519,0.0038414752639532139
0.94,31.2221610974200452,131.010447440919108,17.7547829807952411,15.1459787490797222,-11.1647525673702326,23.955625768743694,3.25285508113895405,-0.797719178855251676,283.068750483778672,37.0159664105253867,13.0074964423969721,69.5460726640314846,-0.919957452624533323,112.719558672158158,837.81350471383746,15.2880000000000003,0,11.5093544951839757,0.108798384893800462,-3.54011457813454731e-08,-0.0408234413676082306,-0.0325172027179126341,0.00400419274558588487
0.95,31.2221605708867322,131.010448662774564,18.0508048574000028,15.0444049848784527,-11.0632675708334798,30.746611294830867,3.3079798321189573,-0.87794479081612542,342.421873617487279,37.2922515064355622,13.1099817545691906,69.5220202863730492,-0.969562502653567915,112.666612305471602,850.342789640870024,15.2880000000000003,0,11.5411157820844643,0.10961081604667483,-3.698050183621477e-08,-0.0422042128224867433,-0.0335902220200198706,0.00417040594825786835
0.96,31.2221600390532181,131.010449893592806,18.3494195679073329,14.9528204346255542,-10.9691647129421384,30.14221093285812,3.36145572089866551,-0.956224288624357266,337.095335156783449,37.545031711348301,13.2037069083502203,69.4971436178409903,-1.0206649039974367,112.612059015998199,861.884995136465363,15.2880000000000003,0,11.5727229698170646,0.110354169148619591,-3.85533531928859436e-08,-0.0436090265443448213,-0.0346783803860215567,0.00433830753158245385
0.97,31.2221595019376501,131.010451133320629,18.6506156179530151,14.8570316813406542,-10.8724898222627928,19.6115344091346842,3.4165571397272565,-1.03691492371110794,245.021887192993233,37.8072910027493592,13.300817055905199,69.4714273855371545,-1.07327479744291576,112.555887148261633,873.942633417561979,15.2880000000000003,0,11.6041726992522847,0.111125391980212457,-4.01178274693081568e-08,-0.0450380172835385742,-0.0357816829246248094,0.00451163261070284052
0.98,31.2221589598014759,131.010452381206818,18.954189288629312,14.7455393828874257,-10.7652279691923063,28.1474800436091499,3.47622801569285622,-1.12395348978955578,319.593746642958081,38.1074836128875276,13.4118245715725184,69.444856265830964,-1.12740156084532472,112.498085821214914,887.850178794141812,15.2880000000000003,0,11.6354437910489619,0.112008119259124017,-4.1673278096121942e-08,-0.0464898571566048427,-0.0368990444950321808,0.00469390963713823932
0.99,31.2221584125103604,131.010453637635237,19.2602496032102515,14.6619194197970479,-10.67776323730026,30.6768406374122797,3.52959119430438628,-1.20284115198115305,341.660948551705417,38.3395116037635191,13.4976455899544625,69.4174145403660816,-1.18305445343737392,112.438644240241729,898.668521632633542,15.2880000000000003,0,11.6665592433936691,0.112690500956604378,-4.32168441606994868e-08,-0.047965823883353402,-0.0380313185304393606,0.00487227687547672587
1,31.2221578600645309,131.010454902612423,19.5688001107174578,14.5630347095108466,-10.5800167998305081,27.5432865193577712,3.58744953007365508,-1.28799218616362343,314.26720818227642,38.6084922807469582,13.5970021898658562,69.3890869558521501,-1.24024096197546063,112.377553461972155,911.295427436662408,15.2880000000000003,0,11.6975095385291326,0.113481505167058266,-4.47468885614401332e-08,-0.0494659129703104786,-0.0391784063880918007,0.00505975485832647117
1.01,31.2221573026273767,131.010456175668992,19.8797147098819096,14.4672653230746135,-10.4847837460863502,28.7656069885351258,3.64513412982975016,-1.37318248091628758,324.920316103697928,38.8693167782199467,13.6932977003928524,69.3598576547617824,-1.29896881816645338,112.314804238737437,923.622176352654833,15.2880000000000003,0,11.7282901089808327,0.114248544484786996,-4.62622215261522518e-08,-0.0509895243309919574,-0.0403397644903537994,0.00525067942252819501
1.02,31.2221567401317017,131.010457457007334,20.1930505178764079,14.3759781225795962,-10.3929954302677316,24.1469594248247503,3.70220632446925579,-1.45782633447817322,284.590631615404163,39.1180558548735533,13.785077940947847,69.3297109090711956,-1.35924459594200853,112.250388516687622,935.453044866522873,15.2880000000000003,0,11.758908063086281,0.11498006953718172,-4.77606112037895015e-08,-0.0525372956574934602,-0.0415157659930374193,0.00544451930802131862
1.03,31.2221561726408368,131.010458746454105,20.5087614257149049,14.2745726249064813,-10.2945378851860649,19.8741910630732512,3.76269168646788899,-1.54732496254522767,247.30469339049705,39.3923412636508914,13.8862372715233136,69.298630978072751,-1.42107397082642417,112.184299157707173,948.588567425331235,15.2880000000000003,0,11.7893577010148256,0.11578669170682189,-4.92406423613494788e-08,-0.0541090121812525249,-0.042706153910272833,0.00564654503088023087
1.04,31.2221556002114582,131.010460043852362,20.8268063339419705,14.1836264728001797,-10.2036395016347647,31.1255168555810897,3.8208596564351498,-1.63399988048546008,345.465636880722968,39.6386940067433926,13.9770520037951478,69.2666015922557392,-1.48446266102516367,112.116528932858813,960.460937522303084,15.2880000000000003,0,11.8196430162695965,0.116511219361686624,-5.07006468318645044e-08,-0.0557046973770548987,-0.0439108446786175069,0.00584923791692853242
1.05,31.2221550225935047,131.010461349951385,21.1473891463093189,14.0846411956405522,-10.1075224389154794,19.0862233848858658,3.88194987603936736,-1.72489060208365785,240.456258798199826,39.9055539693274213,14.0753840216463875,69.2336065576975415,-1.54941529229100738,112.047071735277513,973.406737244955366,15.2880000000000003,0,11.8497800547164687,0.117296033288179405,-5.21374591116206614e-08,-0.0573261301635653794,-0.0451310410245731805,0.00605983399536510689
1.06,31.2221544399999544,131.010462664139908,21.4703447320493446,13.9789895005655698,-10.0071505673024728,26.8512725788328837,3.94573997082496408,-1.81971520740802206,308.179683655939243,40.1901122858351485,14.1802353972912698,69.1996290112492289,-1.61593674067031912,111.975921142336503,987.307934269331099,15.2880000000000003,0,11.8797560573517078,0.118132877743935036,-5.3550629633751062e-08,-0.0589721884540883243,-0.0463658163326570449,0.00627809307918588289
1.07,31.2221538523310755,131.010463986726364,21.7957573367894142,13.8900952064304466,-9.91862097830768974,31.4774102025501783,4.00507394683734397,-1.90884215143742675,348.509368144030759,40.4281833640437114,14.2678671390901677,69.1646516972779892,-1.68403159729253771,111.903070987604238,999.008233114245741,15.2880000000000003,0,11.9095876113621735,0.11883308875123659,-5.49375293742193388e-08,-0.0606439988320730192,-0.0476158854644681967,0.00649411192385776145
1.08,31.222153259502246,131.010465317985052,22.1237001620750675,13.7980414098548696,-9.82822450243256185,21.4358406004048874,4.06592077051061818,-2.00031100090326674,261.001578574662346,40.673650379884954,14.3581913310069016,69.1286575774279157,-1.75370304945249078,111.828516556530786,1011.14452900857952,15.2880000000000003,0,11.9392763114345062,0.119555047738163445,-5.62960893431248895e-08,-0.0623422320216427753,-0.0488816271306394615,0.0067162913943672551
1.09,31.2221526617597824,131.010466657206621,22.453981550015488,13.6889808686227088,-9.72649681410675448,19.7729627549123101,4.13283798848930495,-2.1002939577798232,246.543753324744074,40.966310476225182,14.4659907561150689,69.0916293960510757,-1.82495365629523953,111.752253755724723,1025.71536360800133,15.2880000000000003,0,11.9688048197764161,0.120415733848715428,-5.7626389673863835e-08,-0.0640653762013436573,-0.0501618351752027847,0.00695137131133393652
1.1,31.2221520591741388,131.010468004200817,22.7865502769680397,13.5892435694908453,-9.63146542651494464,38.9024248082479858,4.19743860296684534,-2.19747398032682684,413.189061738584087,41.2321321314477558,14.5638667598041689,69.0535496827512532,-1.8977853301726344,111.674279132880173,1039.03665595825214,15.2880000000000003,0,11.9981785356182993,0.121197540715805241,-5.89268777867330549e-08,-0.0658133953524723675,-0.0514563744078838925,0.00718714606485007079
1.11,31.2221514513982044,131.010469360034506,23.1216909172478289,13.5075463382688152,-9.54903429874498322,28.6782915013727582,4.25649923351842752,-2.28747488482568828,324.159391037639693,41.4442126466831553,14.6417815702803402,69.0144006318284369,-1.97219953333703546,111.594589665690748,1049.719076346272,15.2880000000000003,0,12.027424538504043,0.121821389934272578,-6.01933225549310862e-08,-0.0675890692551020661,-0.0527671385600912216,0.00741878457315004597
1.12,31.2221508384931994,131.010470724561799,23.459361303204755,13.3930709426187367,-9.44457962599482315,11.2803507789802211,4.32740524069271526,-2.39386391884562943,172.73281794065943,41.7513206054435599,14.7549561045473894,68.9741646461782949,-2.04819630831984067,111.513183798249315,1065.29932195423225,15.2880000000000003,0,12.0565301657563992,0.122724572722613598,-6.14249769230388297e-08,-0.0693919857840328141,-0.05409371456574983,0.00767287013127603609
1.13,31.2221502209779622,131.010472096235901,23.7991490999617099,13.296825503892018,-9.35282714757398281,33.6560852721308166,4.39261763981429976,-2.49287501333056172,367.532807790070478,42.0038874642764242,14.8479382930181227,68.9328228802274481,-2.12577679382076923,111.430058745187651,1078.19177586880915,15.2880000000000003,0,12.0854764202668221,0.123467445658221084,-6.26234869587378594e-08,-0.0712188924338833795,-0.0554336496078048913,0.00792225545057520519
1.14,31.2221495982831279,131.010473476821375,24.1415203940807608,13.2132571257511788,-9.26995053557906878,18.9610706135314615,4.45371914930284873,-2.58663651621014878,239.695317731955441,42.2162792186048392,14.9259632798308317,68.8903576723800199,-2.20493900500594053,111.345215013998754,1089.08723337411857,15.2880000000000003,0,12.1143004111800874,0.124092235589736949,-6.3782887087229567e-08,-0.0730742246640539439,-0.0567900055175481894,0.0081694727331612059
1.15,31.2221489708377646,131.010474865054164,24.4861361937389397,13.0969380665010657,-9.16518325306347315,18.6912180190044914,4.52746035956183057,-2.69795075169725562,237.412511535467729,42.5278939764117823,15.0409711096996368,68.8467512717545986,-2.28568004824574889,111.258654029983433,1105.18793930234915,15.2880000000000003,0,12.142967927716894,0.125008694746764348,-6.49053243945812411e-08,-0.0749547095005812791,-0.0581603260314464479,0.00844127956169676667
1.16,31.222148338765713,131.010476260581271,24.8329022825871348,13.0166448935743961,-9.08504498207658884,47.7349222847769994,4.58817297682051173,-2.79187345108779938,490.043774384589426,42.7264832077726808,15.1139409706584313,68.8019847171169232,-2.36799800496917756,111.17037611752022,1115.49650359135967,15.2880000000000003,0,12.1714874716881329,0.125592929701683564,-6.59891962866673615e-08,-0.0768601067962369211,-0.05954432192652407,0.00869599231280166612
1.17,31.2221477013244986,131.010477665739302,25.1824288909995175,12.9192152556279183,-8.99359798794463217,9.04884069693218329,4.65583968673506732,-2.89564115790595267,153.709379294867944,42.9765123908831939,15.2060701658762785,68.7560401484565631,-2.4518880135012231,111.080384701494111,1128.55225919433178,15.2880000000000003,0,12.1998646378424453,0.126328379609068092,-6.70274826406287098e-08,-0.0787962092199471914,-0.060945988289763442,0.00896691242394701861
1.18,31.2221470595108315,131.010479077494182,25.5339147151956709,12.7992445474190202,-8.88727055238206987,23.5696894700607906,4.73312228398935542,-3.01293163807378317,280.025018221967457,43.2982491148240882,15.3251127266501346,68.7088988136992072,-2.53734561681074489,110.988682713254221,1145.47428265509257,15.2880000000000003,0,12.2280704700568936,0.127274621482511008,-6.8026823219619997e-08,-0.0807551641435794026,-0.0623596340272818614,0.00925832475659763877
1.19,31.2221464128862358,131.010480497239342,25.8877229186162268,12.7291721758083813,-8.81473047206316629,40.6380676072314415,4.79065754189063853,-3.10358260010600917,428.407813052929214,43.456483214987216,15.3830929936646754,68.6605414313987268,-2.62436612988633255,110.895273272590757,1153.82267203915922,15.2880000000000003,0,12.2561534225082003,0.127740258540579327,-6.89807085247957799e-08,-0.0827414016786688772,-0.0637882696639109625,0.00952038393211911312
1.2,31.2221457610810802,131.010481926196661,26.2441646401393278,12.6191362453588969,-8.71564461444596716,4.8091592811053534,4.86505883895238433,-3.21771193670484346,117.184374136023607,43.7433842755963767,15.4892340665292849,68.6109501772956065,-2.71294138229340875,110.800163182312687,1169.06808114825708,15.2880000000000003,0,12.284116608982357,0.128584120962377785,-6.98856112781787088e-08,-0.0847575787061005392,-0.0652336399478888884,0.00981641844742781218
1.21,31.2221451050865113,131.010483361301681,26.6024385710799152,12.5113171288519638,-8.61832563146544572,32.7437172879703127,4.9391818386032611,-3.33186644890596551,359.923432132008998,44.0225210207285755,15.5926494093577421,68.560105373821699,-2.80306513122764667,110.703357115267195,1183.99512949129303,15.2880000000000003,0,12.3119143634634174,0.12940516947531347,-7.07478394129179913e-08,-0.0867958112290403566,-0.0666900744226837788,0.0101162806903228146
1.22,31.2221444441640266,131.010484804930599,26.9631567602469104,12.4373407824968591,-8.5438444477141271,23.8853926406509167,4.9988916851704408,-3.42660909293457783,283.068750482576149,44.1847057528697107,15.6522237451856014,68.5079882728155525,-2.89472852736588582,110.604862487177442,1192.69385722106858,15.2880000000000003,0,12.3396014784360801,0.12988244380635991,-7.15585077424275785e-08,-0.0888629932269995176,-0.0681622806370396073,0.0103950133416260849
1.23,31.2221437786234866,131.010486256175369,27.3260757995767634,12.3264583030487493,-8.44501122502478552,9.67432822801237435,5.07526314099194753,-3.54466639448502008,159.796873822227951,44.4708440793245927,15.7584635315682888,68.4545810709540206,-2.98792014691392316,110.504689420878336,1208.14942866343404,15.2880000000000003,0,12.3671466456501378,0.130724092557711669,-7.2319715711694632e-08,-0.0909560997295631446,-0.069648013181010382,0.0107083906788323288
1.24,31.2221431088855006,131.010487713743686,27.6908584389132244,12.2284314259068339,-8.35498782015399577,39.470391051986077,5.14628122987164982,-3.65576881193119885,418.515630199805003,44.7112185414930536,15.8476731605415893,68.3998645631070161,-3.08262973292848041,110.402846727540293,1221.20254658966314,15.2880000000000003,0,12.3945403527676703,0.131431225434058524,-7.30327789651475409e-08,-0.0930718571328440214,-0.0711448653325024161,0.0110163233025773206
1.25,31.2221424342735929,131.010489179866227,28.0580707266006222,12.1493972581063723,-8.27777647159132712,19.3799360895657813,5.2085882305644251,-3.75525921096301429,244.260946125734876,44.881488830467184,15.9105213187009653,68.343820350981531,-3.17884469722660779,110.299345668593759,1230.47807371438353,15.2880000000000003,0,12.4217957060443496,0.131932291612842756,-7.36893914817575934e-08,-0.0952167479934530325,-0.0726572112989373742,0.0113127207469977138
1.26,31.2221417552561604,131.010490653114999,28.4273376737323211,12.0324164559135536,-8.17567940640395641,11.6462249474513015,5.28922802003800374,-3.88050429620799031,177.298446336408631,45.184951613123097,16.0237940252958921,68.2864304738659769,-3.27655074256231327,110.194199285571628,1247.12965511909374,15.2880000000000003,0,12.4488765839349078,0.132824895348418792,-7.42931304420450388e-08,-0.0973861802794972198,-0.0741817346797474103,0.0116482910828867563
1.27,31.2221410719920698,131.010492133025622,28.7985363945586066,11.946229863987341,-8.09416618627916229,37.9528356762085437,5.35522635336985875,-3.98592778499271105,405.579686079964688,45.3751710101305363,16.0944501012407812,68.2276750489614443,-3.37573548954426972,110.087418499333708,1257.60723238621335,15.2880000000000003,0,12.4758232216034095,0.13338461976645441,-7.48423817992907906e-08,-0.0995795073944210907,-0.0757178587243969581,0.0119603481892581204
1.28,31.2221403839513449,131.010493621407505,29.1721168837252982,11.8529686394097293,-8.00820449194653605,12.6676054262400068,5.42480928564671938,-4.09674013054739561,186.429688124688823,45.5879735528369778,16.1737320921796197,68.1675363120792639,-3.47638228958826279,109.979018770167372,1269.38530352903672,15.2880000000000003,0,12.502658811302247,0.134010738056251855,-7.53309590175209938e-08,-0.101801533225667734,-0.0772687556998405689,0.0122841354118329946
1.29,31.2221396918178264,131.01049511609861,29.5475228167787272,11.7410796213393294,-7.91023810362169222,20.4622584192656376,5.50418191162285098,-4.22158712128312885,254.153128984572163,45.868262065493461,16.2788328571000953,68.1059957194380701,-3.5784746855117171,109.86901529545932,1284.99606745238884,15.2880000000000003,0,12.5293467083713139,0.134835247489862503,-7.57637793161315242e-08,-0.1040457672404662,-0.0788298301553176789,0.0126316774799686629
