Time,Latitude,Longitude,Altitude,Angle of Attack,Angle of Sideslip,X-Acceleration,Y-Acceleration,Z-Acceleration,Thrust,True Velocity,Ground Velocity,Pitch,Roll,Yaw,Dynamic Pressure,cp,parachute_deploy_gain,Wind Speed,Mach,omega_x,omega_y,omega_z,Cmq
0,31.2221860000000042,131.010383999999988,3.00000000364323682,0,0,0,0,0,2.2828121974499247,0,0,69.9999999962342088,0,113.699999993883324,0,15.2880000000000003,0,0,0,0,0,0,-0
0.01,31.2221859999997946,131.010384000000556,3.00000016469923247,0,0,0,0,0,34.2421869617492334,9.11367326775851009e-12,8.66229497295429822e-12,69.9999999962370651,-4.92863947922479589e-13,113.699999993882884,5.08594204168408172e-23,15.2880000000000003,0,0,2.67827100510624443e-14,-3.65918233213857746e-19,7.58941520739853104e-19,4.81114714040442593e-19,-1.83541113936281872e-32
0.02,31.2221859999996028,131.010384000001039,3.00000030885429547,0,0,0,0,0,25.8718762377664078,1.96992978605390895e-11,1.88456988716431921e-11,69.9999999962400494,-1.04152381447771591e-12,113.699999993882386,2.37621641206600858e-22,15.2880000000000003,0,0,5.78911013494094702e-14,-7.28448334638698292e-19,1.51788304147970621e-18,9.75781955236953991e-19,-7.93451985123442364e-32
0.03,31.222185999409362,131.010384001586402,3.00018176030779937,18.6493779029494604,-0.000129237623237530007,10.7928899806483045,-1.97644583900689674e-05,3.34983967390763571,180.342193598546658,0.0785672533977095078,0.0490694047558625918,69.9999999976775626,-4.2497891361524094e-12,113.699999994705607,0.00377978965327356543,15.2880000000000003,0,0,0.000230888677896110966,2.88330015245363835e-17,-7.25223402354589416e-10,1.08188208080271277e-11,1.51197624781400831e-13
0.04,31.2221859959356287,131.010384010943454,3.00162780953569674,9.74253989061216075,-4.88763086122285772e-05,51.6475445943311158,1.54548216767323456e-06,3.34965665682309899,548.635972453807767,0.346420694310776434,0.171860503977579737,70.0000000036447574,-2.28205307288861013e-11,113.699999999565534,0.0734838809649275282,15.2880000000000003,0,0,0.00101804013696402693,1.80009747884589399e-15,-1.58734069119923437e-08,2.61929145365345784e-11,1.45916869803439425e-11
0.05,31.222185985910329,131.010384038045004,3.00715844163023283,5.5769968489095687,-4.21135943534799539e-06,75.3242160169835273,4.73080294831520123e-05,3.34902689347595528,761.698429882464552,0.947854334293939504,0.409211128642743283,70.0000000010935537,-1.04766136577077691e-10,113.700000013612069,0.55013262299765131,15.2880000000000003,0,0,0.00278549703395658196,1.95473045844392346e-14,-1.13584749331540247e-07,4.14067569904437612e-11,2.85688606727574374e-10
0.06,31.222185966868647,131.010384089593572,3.01868664272593046,4.48500474963244322,2.31139019787050305e-05,56.3605563030587007,9.71465785775115924e-05,3.34799244711343214,590.487539073720654,1.60618980149218604,0.665693519146445256,69.9999999197690244,-2.82941102348924619e-10,113.700000040305838,1.57971028663545732,15.2880000000000003,0,0,0.00472017413217633904,1.01936766184118274e-13,-4.07864410983111553e-07,5.76522069423461223e-11,1.73837509686130208e-09
0.07,31.2221859390775336,131.010384164863126,3.03600551209402658,4.00448286551149391,4.63712119495135773e-05,85.8192455386477917,0.000147926970097503541,3.34656708333141317,855.293774977913927,2.27788210706903049,0.926660947343454056,69.9999996219982279,-5.49831570978999292e-10,113.700000079276109,3.1772067926123353,15.2880000000000003,0,0,0.00669410445039518576,3.35900025920073467e-13,-9.92070622953462368e-07,7.83315922772719921e-11,5.99658406989250883e-09
0.08,31.2221859009658012,131.01038426812616,3.06033476575187802,3.77263127792190334,7.06371256062416025e-05,17.6076228145981588,0.000196957592070898702,3.34480227118667583,241.217198863884818,2.92612482887636283,1.17954495655796454,69.9999989088305909,-9.15694670892462832e-10,113.700000132739973,5.24285298735243899,15.2880000000000003,0,0,0.00859912396431777512,8.49635706706491564e-13,-2.01744800413265681e-06,1.10032289818440005e-10,1.56647792516492608e-08
0.09,31.2221858556197738,131.010384390989856,3.0892797608365723,3.74258231141200604,9.5325675231994802e-05,53.4176180048964397,0.000237730218002333866,3.34289666486112669,563.093737704317618,3.46187703891102627,1.39384941462988121,69.9999975134546446,-1.31671842773002699e-09,113.70000019638816,7.33844512707370811,15.2880000000000003,0,0,0.0101735644468633635,1.80613395740032365e-12,-3.4856561047658452e-06,1.59232278560273843e-10,3.20202005890100843e-08
0.1,31.2221858028175774,131.010384534057465,3.12301320909491364,3.81071421019783685,0.000121971080758598364,50.732831688561788,0.000271545837515448313,3.34090447591365036,538.7437595981919,3.9029133825176725,1.57567038389986336,69.999995157830341,-1.72222432289554893e-09,113.700000270567642,9.32732681847184431,15.2880000000000003,0,0,0.0114696609641860067,3.37914451533694905e-12,-5.48904943388414521e-06,2.34452541412924053e-10,5.68476506314615152e-08
0.11,31.2221857431700727,131.010384695667796,3.16106164078641116,3.84323765504598036,0.000147145408783231387,40.0848474374385688,0.000307099758177995722,3.33859717034531034,442.865639305294906,4.36819921201157246,1.76578242121538631,69.9999915253729768,-2.07703942468805025e-09,113.700000354470319,11.6837607126815346,15.2880000000000003,0,0,0.0128370221364947634,5.76365694334259916e-12,-8.08162139954488366e-06,3.4437809457680147e-10,9.36754562129998513e-08
0.12,31.2221856770245907,131.01038487487628,3.20315617196047642,3.86558564807459826,0.000171348089099210797,43.7480799143332604,0.000342946594964391399,3.33600966231316054,475.585948135404465,4.83801864946757032,1.95742650583495204,69.9999862600106582,-2.3147200577597177e-09,113.700000447673773,14.3321420062794882,15.2880000000000003,0,0,0.0142177082532951912,9.17772063248746377e-12,-1.13223702306849879e-05,4.98555567062495836e-10,1.45354343598177095e-07
0.13,31.2221856047215205,131.010385070757366,3.24903338361815308,3.95285669440916232,0.000198169826234992146,48.2585391180499741,0.000371981107240517913,3.33344523512332414,515.915632623689476,5.21512035057569623,2.1172615234944101,69.9999789703044399,-2.35265113573284059e-09,113.700000549782459,16.6533950244453948,15.2880000000000003,0,0,0.0153259223232261182,1.38588880633063252e-11,-1.52681962163171846e-05,7.07166414280215559e-10,2.11287244421402401e-07
0.14,31.2221855263490333,131.010385283071088,3.29862557546706325,3.99981420118284792,0.000223008237377726162,44.9721767850953427,0.000403855591455553264,3.33052592490198407,486.239086056840392,5.63167615200940475,2.29059513099545553,69.9999692426645623,-2.0964169591742506e-09,113.700000660771011,19.4199179783547713,15.2880000000000003,0,0,0.0165500839355928395,2.00553635588333716e-11,-1.99811439493909854e-05,9.81252131659242702e-10,2.9859131057555361e-07
0.15,31.2221854420015994,131.010385511560628,3.35186028506811029,4.05975476911301225,0.000248539990764711958,43.4637160193537753,0.000433543226731567866,3.32747422849243879,472.54218587214001,6.01888316560526437,2.45383766868271946,69.99995661705006,-1.43188768134039915e-09,113.700000780625842,22.182048585914238,15.2880000000000003,0,0,0.0176879988684610287,2.80404916713566325e-11,-2.55291719775422389e-05,1.33309260321839681e-09,4.07727088477750495e-07
0.16,31.2221853515819241,131.010385756490507,3.40881389436676407,4.08854462484130732,0.000272210944932510383,34.4023069357135967,0.000465877824565354701,3.32404684464906053,391.12189082975641,6.44303061809316624,2.62971580822363071,69.9999405987561403,-2.27841984783363582e-10,113.700000909623355,25.4183784408083007,15.2880000000000003,0,0,0.0189344747787753703,3.81042963600432359e-11,-3.19913711614788564e-05,1.77662362644707755e-09,5.46937370926295155e-07
0.17,31.2221852554099399,131.010386016990765,3.46923909377793649,4.13347468842419552,0.00029684158695823977,43.4155809381403728,0.000495744973995866601,3.3205135250562221,471.78125980632376,6.83404379119085981,2.79420112365087148,69.9999206448319882,1.67575894446247236e-09,113.700001047478835,28.5969980778046526,15.2880000000000003,0,0,0.0200835795555658371,5.05622819343119236e-11,-3.94162603380559734e-05,2.32482468580976756e-09,7.14768170397066036e-07
0.18,31.2221851530022434,131.010386294375877,3.53351204963262022,4.16207877285686756,0.000320492787063832857,36.2151660219171347,0.000526966735016640565,3.31665933612355879,407.101567211914528,7.2444022294323478,2.96528531587496236,69.9998961790314524,4.45070668055043651e-09,113.700001195059045,32.1341903991183955,15.2880000000000003,0,0,0.0212895378539265934,6.5741708189353534e-11,-4.79243856484647045e-05,2.99669991322666987e-09,9.21230820748327094e-07
0.19,31.2221850444828668,131.010386588308563,3.60153760019172342,4.17456309251139679,0.000342914278589344943,40.9041800427263027,0.00055982867240863632,3.31244583927210501,448.953132831826849,7.67810673790947895,3.14433961722118216,69.9998665624008964,8.30674092292676784e-09,113.700001352409558,36.0967170721845179,15.2880000000000003,0,0,0.0225641073333706747,8.40032927522686365e-11,-5.75836346763551867e-05,3.80911503044151526e-09,1.17316671380156179e-06
0.2,31.2221849296486234,131.01038689934137,3.67347464118590317,4.20078915399145636,0.000366573034254704516,37.5214898208491761,0.000590466919182690893,3.30812712915434881,418.515630199161365,8.08216006412957277,3.31318683933006453,69.9998311045104487,1.34800080829191884e-08,113.700001520067786,39.9955165273270055,15.2880000000000003,0,0,0.0237515420632470921,1.05728805481567758e-10,-6.85028882131185225e-05,4.78351733027568889e-09,1.4690610466811608e-06
0.21,31.2221848088436893,131.01038722653837,3.74905730552401684,4.22722562033261262,0.000390310433246848657,36.0064697775761644,0.000620601272787201603,3.30359776763142721,404.818761014464428,8.48018829437500621,3.47992805775657654,69.9997890742529592,2.02433263776548733e-08,113.700001697833756,44.0315784885794201,15.2880000000000003,0,0,0.0249212734096428447,1.31320595517854955e-10,-8.07208291683553139e-05,5.93661589182972911e-09,1.81631626331753899e-06
0.22,31.2221846819136672,131.010387570319409,3.82840670130281646,4.2176244726165093,0.000410696285369717819,43.5935627685881499,0.000655758920494764063,3.29841875767922987,472.542185872136486,8.94831461811120121,3.67066782999472752,69.9997397083127737,2.88926538075102191e-08,113.700001886238866,49.0266756129506618,15.2880000000000003,0,0,0.0262970098082033268,1.61186003536399267e-10,-9.43348117723774896e-05,7.29106197993283208e-09,2.23980539128825791e-06
0.23,31.2221845484548304,131.01038793178239,3.91183756115468473,4.25320537954326383,0.0004356497720089569,36.207459360748949,0.000683686922722525747,3.29355466128287455,406.340642146102141,9.31799902525197865,3.82760028360492655,69.9996821549030983,3.9766623706965518e-08,113.70000208621326,53.1608354775167555,15.2880000000000003,0,0,0.0273834518362109196,1.95767624418301473e-10,-0.000109505708778552874,8.87784718088286285e-09,2.70740355927931971e-06
0.24,31.2221844093456014,131.010388308538637,3.99866964940866776,4.27135264557773553,0.00045883378920767232,37.3286080087975947,0.000713911697673520317,3.2882529474867046,416.232824001711379,9.7203332459195213,3.9956861712714935,69.9996155408946805,5.32509871046438109e-08,113.700002296918697,57.8502398901668755,15.2880000000000003,0,0,0.0285658473732890855,2.35534745143307651e-10,-0.00012617657385590063,1.07071802425012536e-08,3.25424194465518317e-06
0.25,31.2221842644570167,131.010388700938847,4.08900446593793809,4.29698686981540234,0.000482848983334858658,38.3649566400252979,0.000742483922667206905,3.28284626589867479,425.364080791506922,10.1009615935159527,4.1562806652626314,69.9995389781877293,6.97479781374676735e-08,113.700002518962805,62.4689963611702623,15.2880000000000003,0,0,0.0296844577155840929,2.80933085873043406e-10,-0.000144451636124542286,1.28055329635332884e-08,3.87142965072796435e-06
0.26,31.2221841140756986,131.010389108203611,4.18262110402873155,4.32755423691547136,0.000507438991606541483,41.7865661614553829,0.000769736419800412888,3.27732087646770287,455.80158342417883,10.4644497354123782,4.31094871887776954,69.9994515368878751,8.97024502886333285e-08,113.700002752408935,67.0452443356678742,15.2880000000000003,0,0,0.0307527002093570291,3.32431765373287754e-10,-0.00016436315770221847,1.51925047864838523e-08,4.56355359993810651e-06
0.27,31.2221839578137299,131.010389531387915,4.27982215321117465,4.33742811840656994,0.000529702335486379188,38.2242911032538473,0.000800211178185602123,3.27123004841987974,423.842199659872563,10.8736118498261902,4.48123226393084195,69.9993522521519935,1.13587393208351198e-07,113.700002998306658,72.3900346549699947,15.2880000000000003,0,0,0.0319551720828357214,3.90484337603431509e-10,-0.000186059811616844751,1.79019946498730075e-08,5.36790267753501075e-06
0.28,31.2221837957695953,131.010389970223883,4.38053283172365671,4.35979025650862262,0.000553527510562852902,44.1207307275094038,0.000828072271385077072,3.26514386100193477,476.346873201222195,11.2478718916014184,4.63949182586423614,69.9992400702920463,1.41938296327408329e-07,113.700003257081931,77.4582454645660761,15.2880000000000003,0,0,0.0330550782151640757,4.55595825375374429e-10,-0.000209619220926101062,2.09616181379585756e-08,6.25569396794615011e-06
0.29,31.2221836278828384,131.010390424876022,4.48480177698289584,4.38135974025744623,0.00057737648726709299,35.3536197607625553,0.000855659611391794222,3.2588361863853601,397.970310422111766,11.6195889013503368,4.79682445966682813,69.9991139044831527,1.7532937395312496e-07,113.700003529427192,82.6616578528940948,15.2880000000000003,0,0,0.0341475147840558241,5.28268525040872464e-10,-0.000235137545717689308,2.44023887909330158e-08,7.24907222782668121e-06
0.3,31.2221834544381096,131.010390894570321,4.59240982688131272,4.39617507281761988,0.000600356665334356751,33.1490797613948018,0.000884158719714270942,3.25217107922164672,378.185945710871067,12.0052186882677852,4.95887519756831807,69.998972627127344,2.14383684192303281e-07,113.700003815596887,88.2385269149682756,15.2880000000000003,0,0,0.0352808420099011907,6.09029939588318471e-10,-0.000262641159892275291,2.82471356422800846e-08,8.36561857411674722e-06
0.31,31.2221832755909574,131.01039137888381,4.7032380575360353,4.42235615181669761,0.000624899913490765827,34.9528590290802086,0.000910025197609511073,3.24555398289468222,394.16562209302117,12.3556398803864607,5.10879227158949156,69.9988150759387651,2.59766173767152649e-07,113.700004116072961,93.4639131761651498,15.2880000000000003,0,0,0.0363107024397255479,6.98403788157463991e-10,-0.000292187019282257228,3.25229566712151178e-08,9.57826248689966157e-06
0.32,31.2221830914257232,131.010391877587324,4.81722282885169673,4.45155794779377789,0.000649944303128982049,38.0379859115142835,0.000934821026682707218,3.23882361682650144,421.559393462426954,12.6924793110791878,5.25399282922068878,69.9986400687318024,3.12179641788393281e-07,113.700004431478234,98.6283237403037703,15.2880000000000003,0,0,0.0373006526995305274,7.96905013945712519e-10,-0.000323836613651358495,3.72580440687311147e-08,1.09050644159405278e-05
0.33,31.22218290196043,131.01039239063175,4.9343519698327194,4.48019701204722054,0.000675004219851668761,37.7093551175013246,0.000959261610436717115,3.23189933669563656,418.515630199168186,13.0256844327599097,5.39788776638052958,69.9984463826819052,3.72372687880250348e-07,113.700004762578004,103.87354288045799,15.2880000000000003,0,0,0.0382799263433428877,9.05047894999210997e-10,-0.000357667290238851605,4.24836225249657193e-08,1.23603484615852587e-05
0.34,31.222182707020778,131.010392918491164,5.05476263450916541,4.49049305198152204,0.000697378143373914754,29.5227085089536203,0.000987142430045659337,3.22427911658814059,345.465636880756449,13.4081741031825317,5.55863100914667463,69.9982327456812641,4.41143957445642244e-07,113.700005110463266,110.062177258613033,15.2880000000000003,0,0,0.0394040418267209702,1.02333461745717641e-09,-0.000393806243978271305,4.82396483202145133e-08,1.40087103268591529e-05
0.35,31.2221825067937928,131.010393460657156,5.17831168393457641,4.50711781535187139,0.000720712543856854714,32.3530371383660977,0.00101333646443235357,3.21661305844837253,370.576570052703289,13.7686530554979374,5.71176159517965232,69.9979978091806316,5.19362042776584697e-07,113.700005475786654,116.058400304168075,15.2880000000000003,0,0,0.0404634764462946869,1.15232390415689195e-09,-0.000432299813734132244,5.45552399130644805e-08,1.57912776608867467e-05
0.36,31.2221823012122108,131.010394017312592,5.30505329869157727,4.52767240178778962,0.000744729708600240731,36.5526511043957356,0.00103828652712813154,3.20885713174522058,407.862523277719447,14.1132764952183631,5.85938873702120233,69.9977401961163537,6.07939829707116331e-07,113.700005859608282,121.939407863977465,15.2880000000000003,0,0,0.0414763190843316643,1.29254043868676357e-09,-0.000473255972436325862,6.14699225552327593e-08,1.77198251922661022e-05
0.37,31.222182090341061,131.010394588280832,5.43493909097431604,4.55039311415752579,0.00076918150115683735,34.6835787828593496,0.00106234372950533948,3.20097384516078431,391.121890829766642,14.446930470491731,6.00318739776240751,69.9974584775585669,7.0785096329375243e-07,113.700006262864989,127.771540530283914,15.2880000000000003,0,0,0.042456928843506235,1.4445318520011827e-09,-0.000516746496826029863,6.90186481791334769e-08,1.98053803654614999e-05
0.38,31.2221818741223878,131.010395173719473,5.56801609611825477,4.56315131642791805,0.000792019287104061913,36.2353933787001239,0.00108827974821363053,3.19255015153205646,404.818761014460279,14.8084413239345949,6.1564787166299757,69.9971511865591651,8.20121521966083772e-07,113.700006686723384,134.244380272309172,15.2880000000000003,0,0,0.0435194095147296359,1.60882660749176723e-09,-0.000562873331420229127,7.72423853301427293e-08,2.21128406351508731e-05
0.39,31.2221816525004634,131.010395773780147,5.704329739781131,4.57922628245169783,0.000815489716137310881,30.9425419640016202,0.00111309493143926189,3.18402316666385765,357.640624933827439,15.1559126959619999,6.30488433186772657,69.9968167722787769,9.45855271408966431e-07,113.700007132429306,140.616382889747683,15.2880000000000003,0,0,0.0445406353688629561,1.78596578656278109e-09,-0.000611756345505213715,8.61868943159197994e-08,2.45968452142520012e-05
0.4,31.2221814256617982,131.010396387955836,5.84373750626454935,4.59349479979191955,0.000838670682925170751,29.5834243852937959,0.00113797512888990423,3.17521289611434332,345.465636880754005,15.505969085398343,6.45410901523083158,69.9964536498379317,1.08621525395706341e-06,113.700007600947828,147.185065961143067,15.2880000000000003,0,0,0.045569462889951777,1.97653506559195414e-09,-0.000663427505461186432,9.58835144134294998e-08,2.72901174189528038e-05
0.41,31.2221811937141673,131.010397015953487,5.98615797249314241,4.60939449845229365,0.000862163931524819621,33.360545626359837,0.00116210409424792778,3.16624854525325983,378.946870776686467,15.8471768437686258,6.60022848408685459,69.9960602026584695,1.24241947051318175e-06,113.700008093413757,153.73182724817184,15.2880000000000003,0,0,0.0465722905345462151,2.18109996727848554e-09,-0.000717942131686907965,1.06367950505874699e-07,3.01820283711074823e-05
0.42,31.2221809567080335,131.010397657635991,6.13155423418529733,4.63387609959193458,0.000887317919769279608,37.5676427387571721,0.001183742077125155,3.15743374731593907,416.232824001711379,16.155026338188506,6.73482947265292431,69.9956347739890248,1.41574639558456e-06,113.700008611107208,159.760443802515937,15.2880000000000003,0,0,0.0474770882933877245,2.400206535531791e-09,-0.00077537935552726017,1.17680930846389008e-07,3.32294321368729263e-05
0.43,31.222180714655078,131.010398312971745,6.27991949833728835,4.65367427313455995,0.000911660169575580258,33.0386483003103493,0.00120612360190941372,3.14823214930187856,375.903139513433644,16.4750454055619109,6.87353555569934649,69.9951756835756242,1.60752723178871754e-06,113.700009155418982,166.15023929888028,15.2880000000000003,0,0,0.0484176551665520677,2.63438237315801404e-09,-0.000835821567166909188,1.29864614855892046e-07,3.65287677570896608e-05
0.44,31.2221804673911407,131.010398982407111,6.43138341412837455,4.65757387742934892,0.000932929976641759203,30.4788052564327749,0.00123214974254881528,3.13809943757763454,353.075012538921555,16.8483715860516412,7.03046484016701978,69.9946811832270441,1.81916859536649675e-06,113.700009728069276,173.762989227436179,15.2880000000000003,0,0,0.0495148886868988364,2.88411342836306464e-09,-0.000899417740154189794,1.42975581697416844e-07,4.01983191819108926e-05
0.45,31.2221802146980103,131.010399666535704,6.58611776122768511,4.65827001030579346,0.000953562143933252499,35.4620561517945134,0.00125873275223327787,3.12754579585638304,397.209385356286873,17.2316459864824161,7.19073264961644831,69.9941493995125938,2.05218870761162579e-06,113.700010330973456,181.755888424112015,15.2880000000000003,0,0,0.0506413642318551335,3.14987863732273609e-09,-0.000966369542842942814,1.57083782729145849e-07,4.41725079750487196e-05
0.46,31.2221799565319174,131.010400365476642,6.74415901717088939,4.66907507286434065,0.00097630283571516251,41.3913707355688842,0.0012823814722795761,3.11722412848720953,449.71405889764344,17.5754687869478978,7.33738035579407555,69.9935783582983362,2.30821229426708146e-06,113.700010965912341,189.078525726536213,15.2880000000000003,0,0,0.0516519027755614896,3.43223060675433133e-09,-0.00103681314204437207,1.7224885851047691e-07,4.83373548649469587e-05
0.47,31.2221796928065203,131.010401079464799,6.90557672428163105,4.67806301106434042,0.000998761260684927557,28.0209900204918974,0.00130616618884544979,3.10657060381263461,331.007810630253402,17.9233234115620377,7.48533101007974988,69.9929660462147325,2.5889364060732201e-06,113.700011634803886,196.634049649816575,15.2880000000000003,0,0,0.0526742959306323727,3.73170463860384924e-09,-0.0011108841623615434,1.88532207060213475e-07,5.28148505664365441e-05
0.48,31.2221794239793269,131.010401807256216,7.07001851744381948,4.68642527483421745,0.00102109091231145262,27.6007969606275125,0.00132978852885184593,3.09563681785184297,327.203122301157407,18.2709832353803314,7.63313726727991071,69.9923104035261474,2.89614261094227829e-06,113.700012338884164,204.33305198470137,15.2880000000000003,0,0,0.0536961221459722679,4.04904859899578719e-09,-0.00118849531779471017,2.05948560519311644e-07,5.75998398329450787e-05
0.49,31.2221791502289392,131.010402548365278,7.23734841566291642,4.70156796398202914,0.00104489945272251677,34.6487244505178253,0.00135120419031512233,3.08484494341801163,389.60000969812296,18.589315545984995,7.7707981814672209,69.9916093757078812,3.23165731652504743e-06,113.700013079832303,211.511801733856089,15.2880000000000003,0,0,0.0546317638991248022,4.38486615800834454e-09,-0.00126967773493266863,2.2453662401782158e-07,6.26054017926546362e-05
0.5,31.2221788715876762,131.010403302704333,7.40754387012007864,4.72212438923579736,0.00106996435823571525,35.6033845714535389,0.00137072557486675028,3.0741588573465477,397.970310422105001,18.8826594549893159,7.8998011517407587,69.9908609011483378,3.5973597360057951e-06,113.700013859590555,218.236320199079358,15.2880000000000003,0,0,0.0554939729313439212,4.73968531279909998e-09,-0.00135450679800636423,2.44344941868023912e-07,6.78409867869358833e-05
0.51,31.2221785881337617,131.010404070060673,7.5805467220577798,4.73558879650721298,0.00109346949398930206,27.1956639286467201,0.00139183542187690463,3.06284319292573448,323.39843497208409,19.200774511812984,8.03722958125224807,69.9900628955037689,3.99519228958782199e-06,113.700014680103109,225.647740475438098,15.2880000000000003,0,0,0.0564289867670437692,5.11403675587933804e-09,-0.00144303978709531136,2.65418546512062939e-07,7.34915902759761199e-05
0.52,31.2221782998954396,131.010404850471673,7.75637008425921426,-13.6544223823732835,19.1625353243456402,33.175528102146302,-0.962753769988943242,3.94750689048810521,372.098451184341457,18.8898706039457984,8.17859082748003097,69.9892119860399475,1.26459746034443027e-05,113.700024290373378,218.395722604358639,15.2880000000000003,0,8.77255074703166926,0.0555153841268301793,5.51016325649249196e-09,-0.00152514115511913459,8.63559190549131829e-05,7.64138855618948665e-05
0.53,31.2221780070694095,131.010405645212899,7.9351310289595629,-13.3640214088545015,18.9024131823583481,34.8174835188547362,-0.987921485601697125,3.96044383320602256,386.55624643486243,19.1828720206961343,8.3276199446866066,69.9883962357551752,0.000390221183675169532,113.700426537018842,225.219487809269083,15.2880000000000003,0,8.80591321572560837,0.056376598800472702,6.0100020248528925e-09,-0.00130188684413534662,0.000429367170462440872,6.62388331553956112e-05
0.54,31.2221777096454822,131.010406454996428,8.11690171392012338,-13.0840299307602326,18.6506278602852724,30.6134863708357052,-1.0134209522195512,3.97341597405621982,349.270324209843579,19.4748114353588981,8.476089805085536,69.987709630668391,0.00131371478266795638,113.701409791107636,232.122719618130219,15.2880000000000003,0,8.83920656536845328,0.0572346977636967458,6.60765921666934294e-09,-0.00107388284723588623,0.000781369898651754864,5.54687517157592856e-05
0.55,31.2221774078855638,131.010407279140253,8.30148025618129815,-12.8176500991203852,18.4118007506693786,32.427305944140187,-1.03894340956261355,3.98621768845257396,365.250000591990727,19.7603505052682493,8.62203374629262953,69.9871548041815004,0.00279699917401264944,113.702988820337794,238.975136270385548,15.2880000000000003,0,8.87237596236788129,0.0580739920167221285,7.30342220676819844e-09,-0.000841456811510611288,0.00114199884175816141,4.40998388533593396e-05
0.56,31.2221771018015382,131.010408117658471,8.48886605185331256,-12.5668201643140627,18.1889985087785391,30.2842535473766077,-1.06424236520628046,3.99869224279312885,346.226561946578727,20.0353353030455565,8.76394549933367095,69.9867342866292432,0.00485375293195737349,113.705178185139815,245.668144759446591,15.2880000000000003,0,8.90542195178224638,0.0588822734558514665,8.0972675346780191e-09,-0.000604584415838048048,0.00151139656520284126,3.21259720689887605e-05
0.57,31.2221767914717283,131.010408970383452,8.67900684737912975,-12.3179330791682524,17.9645024994693614,29.9471358214545589,-1.09036610715685867,4.01153104656271875,343.182829683302316,20.3179738713279328,8.90856196871598804,69.9864505624927631,0.00749768970058353659,113.707992481713916,252.643705170889945,15.2880000000000003,0,8.93834286197307826,0.0597130540449754554,8.98915567647945706e-09,-0.000363356105595125534,0.00188953849245341904,1.95797726443712296e-05
0.58,31.2221764768865775,131.010409837386163,8.87191850112817093,-12.0628582919397438,17.727303814918713,39.3381217605724345,-1.11808526185970636,4.02522401934329288,426.12500585731533,20.6210065873609985,9.0605535512361417,69.9863061030629723,0.0107426932273220008,113.711446485847787,260.231199817135234,15.2880000000000003,0,8.97113591982112624,0.0606037771449156118,9.97891516854999654e-09,-0.000117741168176590123,0.00227657871781745741,6.43909661456717633e-06
0.59,31.2221761576833146,131.010410719700161,9.06789113218146881,-11.8317926253854928,17.5184407438784646,31.9417604398705919,-1.14472820437851008,4.03804022434369969,360.68438819711065,20.8984526597010891,9.20303180029430123,69.9863035556738708,0.0146036011876020996,113.715555987377456,267.275858461647147,15.2880000000000003,0,9.00384958890887965,0.0614193086224702062,1.10660316377013618e-08,0.00013281670961798339,0.00267346217752850723,-7.36114574051736861e-06
0.6,31.22217583406972,131.010411616807062,9.2667724552647357,-11.5845677463046552,17.283265845287243,28.4175854413224265,-1.17398080495525181,4.0523452766124386,329.48595949860578,21.2127473944765548,9.35890165660190121,69.98644556750628,0.0190954993703474317,113.720337037570943,275.370248492412884,15.2880000000000003,0,9.03645021736700826,0.0623431420173028022,1.22505833432015154e-08,0.000388041289868945192,0.00307989592294284371,-2.1829567618618646e-05
0.61,31.2221755060118724,131.010412528846075,9.46859765083474514,-11.3412733997680206,17.0491392274758766,33.2497288484689761,-1.20407592423805787,4.06698972270489989,372.09845118432969,21.5333170294523306,9.51692342414186676,69.9867348236151088,0.0242338863616965577,113.725806125417066,283.750495179935967,15.2880000000000003,0,9.06894124227083331,0.0632854233006691497,1.35323434694748586e-08,0.000648016923198245238,0.00349612548064860435,-3.70048918602369076e-05
0.62,31.2221751736268232,131.010413455546455,9.67328502896806874,-11.1388223051098887,16.8682435682242051,41.2731220591514045,-1.2310550190092997,4.0794848902529619,442.86563930529212,21.7946883662145368,9.653230278389616,69.98717404221712,0.030034667192901085,113.731980170167176,290.674912468500395,15.2880000000000003,0,9.10132061826312011,0.0640537294855261646,1.49112201251492215e-08,0.00091267247417142045,0.0039221599665942835,-5.27495716511916399e-05
0.63,31.2221748367551086,131.010414397384949,9.88096655229636944,-10.9314883335157838,16.6770398756929019,23.520647693820063,-1.25952880606632167,4.09274829066051016,286.112512747078938,22.0737585923511759,9.7959250315835753,69.9877657165982185,0.0365132302970970143,113.738875542262406,298.1605215953212,15.2880000000000003,0,9.1335931885132684,0.0648740578682149432,1.63866118388304835e-08,0.00118219759098994672,0.00435841883537993642,-6.92007846574652384e-05
0.64,31.2221744959463905,131.010415352912361,10.0912249191794512,-10.7133904508102873,16.4669231092265562,23.0935346422696171,-1.29027837319898997,4.10724209846847188,282.307824417967538,22.3828960433367321,9.94945256180349524,69.988512435322022,0.0436851489060760198,113.74650879696722,306.56413770356977,15.2880000000000003,0,9.16566677868358326,0.0657827588095430266,1.79590813557900335e-08,0.00145582357996374432,0.00480383003020718423,-8.64093859287493857e-05
0.65,31.2221741511927746,131.010416322192071,10.304074505530485,-10.5248548588678954,16.2958164946297508,40.6111618860340684,-1.3186408514168888,4.12008203905717529,436.778144778747503,22.6459738905874879,10.0861591926546055,69.9894165389182774,0.0515657088558694118,113.754896190449742,313.806490437160562,15.2880000000000003,0,9.19762626798014082,0.0665560976897219408,1.9628056479840684e-08,0.00173363551293870895,0.00525863636177092194,-0.000104106012500249692
0.66,31.2221738020370729,131.010417306505161,10.5198772412859061,-10.3352891623432139,16.120113310031126,34.5788457155550333,-1.3480969932239617,4.1334231058490154,383.512515171600171,22.9195942380466029,10.2266366750164561,69.9904803547269552,0.0601704160867091511,113.764054211105616,321.428785283034188,15.2880000000000003,0,9.22943920383178451,0.0673604268156323127,2.13920259573290202e-08,0.00201627972079807156,0.00572398001122594383,-0.000122539392347958254
0.67,31.2221734486598415,131.0104183054045,10.7385018220837463,-10.1370094881767905,15.9283869646636074,23.8812221059315597,-1.37973560455734678,4.14791335476805934,289.156244010342505,23.2205982211012056,10.376949406938401,69.9917065119172577,0.0695158822352344996,113.77400051191799,329.919973140993136,15.2880000000000003,0,9.26111312731688052,0.0682452424204728486,2.32509175745221103e-08,0.00230351290765844294,0.00619960617337814678,-0.000141831583709242892
0.68,31.222173091225887,131.010419318485248,10.9598290883629694,-9.94742479776040156,15.7461535183119157,29.7569489471661868,-1.41137449501366596,4.16221840656010045,340.899992485846269,23.5138024771110494,10.5243512197153084,69.9930974270586432,0.0796187756499373567,113.784752814545257,338.2971205427678,15.2880000000000003,0,9.29267197026281799,0.0691071410753749948,2.52045769932315389e-08,0.00259514904442526223,0.00668534288043805356,-0.000161802355163583446
0.69,31.2221727298175367,131.01042034556437,11.183803454965318,-9.77466663688828419,15.5859954284841304,36.5858927398907383,-1.44171030331052319,4.17556131702832189,401.014072685363431,23.7794664872210006,10.6617445834284084,69.9946555563808204,0.0904955708817516136,113.796328620065722,345.977170439898373,15.2880000000000003,0,9.32404707858303894,0.069888105048699245,2.72526155025330991e-08,0.00289108408088820752,0.00718114703777407177,-0.000182285933318623579
0.7,31.2221723643172524,131.01042138699836,11.4105235788642378,-9.60495185651414118,15.4276213845000907,30.7170089479187034,-1.4725845231576844,4.18905385962004484,349.270324209852845,24.0464331610186974,10.7995557656856018,69.9963831126017624,0.102162668422282873,113.808745359077207,353.781489496940594,15.2880000000000003,0,9.35527035227279491,0.0706729037105150032,2.93940026369799324e-08,0.00319149658894153946,0.00768743813396547977,-0.000203481964870607144
0.71,31.2221719947826664,131.010422442669324,11.6399527229614819,-9.43103509285874253,15.2600153278505672,25.2769310394729487,-1.50514404410007718,4.20336887736279241,301.331264063405797,24.3318513513145334,10.9439434492452214,69.9982824508985004,0.114636927227882629,113.822020938097921,362.221742123087893,15.2880000000000003,0,9.38636977265052685,0.0715119380538595528,3.16282471317436067e-08,0.00349630434982082898,0.00820421504370430488,-0.000225556677596039872
0.72,31.2221716212237013,131.010423512588659,11.8720910949143654,-9.25165203699917349,15.0810404874049127,30.9001867343608438,-1.53972808070287281,4.21868707536218412,350.79220534145287,24.6402046340071088,11.0964899500035425,70.0003559140837837,0.12793564404666935,113.836173728430992,371.452379776865769,15.2880000000000003,0,9.41732369108663292,0.0724183859566123189,3.39546885554519882e-08,0.00380552804362511207,0.0087316446583788742,-0.000248611297111538587
0.73,31.222171243645743,131.010424596781093,12.1069426423346691,-9.09752124367661708,14.9382571310731809,39.0340644576815166,-1.57127284727981364,4.23204403385414629,422.320318528233997,24.8952157994408587,11.2298323557604753,70.0026059197052035,0.142076814386282307,113.851222841166319,379.172228039047525,15.2880000000000003,0,9.44809618502746851,0.0731680661692190731,3.63726143886891856e-08,0.0041192210397999569,0.00926994828279154547,-0.000271883480162873111
0.74,31.2221708619973732,131.010425695420878,12.3445544778811307,-8.93959155847679021,14.7870083032189346,24.5073274884823142,-1.60446413941537602,4.24618511992056291,294.482813471059444,25.1676634242345827,11.3693769352892744,70.005034682497822,0.157077916908150927,113.867186834198733,387.507948503050557,15.2880000000000003,0,9.47874803528732279,0.0739689992676232505,3.88811705594574767e-08,0.0044374173107649649,0.00981932620440749936,-0.000296084102057515169
0.75,31.222170476620704,131.010426807619439,12.5846701338793885,-8.78048132067478981,14.6312811749859275,28.576895672160223,-1.63895002166196924,4.26089056455945503,330.246885564414924,25.4517466090089002,11.5130148784318589,70.0076443613241537,0.172956676603449017,113.8840845248954,396.296273022188927,15.2880000000000003,0,9.50924676707232663,0.0748041363479226007,4.14810490573167261e-08,0.00475960816805819521,0.0103790620551945205,-0.000321159443192972453
0.76,31.2221700874195278,131.010427933670712,12.8273711406954032,-8.63164661962137458,14.4892904821794204,30.744167385615345,-1.67260880309686999,4.27493859990390579,349.270324209861712,25.7163457562992548,11.6496260549605939,70.0104371362953799,0.189730765885831071,113.901934662572472,404.569554026568369,15.2880000000000003,0,9.5395761240350776,0.0755820153044772652,4.41709227779706591e-08,0.0050859787236940384,0.0109496030554749671,-0.000346741303541357867
0.77,31.2221696943468032,131.010429073734343,13.0727008928525699,-8.48728314165182951,14.3520890504061143,28.7564008206644139,-1.70641429333564321,4.28889165968418595,331.76876669607077,25.9758914210331149,11.7843832857724227,70.0134150157272472,0.207418186985208308,113.92075635450675,412.767384201386733,15.2880000000000003,0,9.56972569424654651,0.0763450482307011513,4.69497538542732633e-08,0.00541660887712443195,0.0115312282626046508,-0.000373000563594166033
0.78,31.2221692974691294,131.010430227662908,13.3206150807979888,-8.33956334025265811,14.207089501023388,23.6495377806938194,-1.74193945356594115,4.30363745448533308,286.873437812889904,26.2528310397710776,11.92528419827301,70.0165800795307547,0.226037099376826756,113.940568861344516,421.60562844228042,15.2880000000000003,0,9.59973213439917394,0.0771592098780953251,4.9817117892445007e-08,0.00575137664677081474,0.0121238744379804104,-0.000400266426758609495
0.79,31.2221688968750861,131.010431395249753,13.5710525332572001,-8.19128355458340529,14.0587035740833688,33.5274522673107711,-1.77872456588194172,4.31890240851261531,373.620332315953419,26.5399906972745647,12.0697512765090984,70.0199343325722623,0.24560600581098993,113.961391808392335,430.868952480521216,15.2880000000000003,0,9.62958920797531803,0.0780034159119946113,5.27726838204291846e-08,0.00609015870178696364,0.0127274721528222549,-0.000428469726680970613
0.8,31.2221684923641618,131.010432577065899,13.8241745746048021,-8.05712292440307465,13.9310845985706244,33.9645891591496465,-1.81358176737040977,4.33290496469857089,377.42502064505743,26.7922963606139639,12.2017646535811881,70.0234798405306123,0.266144026140480938,113.983245471172836,439.089435754597616,15.2880000000000003,0,9.65932003136976647,0.0787451897940873585,5.58143328706417268e-08,0.00643332060219206029,0.0133428054628297703,-0.000456904402486539324
0.81,31.2221680840380102,131.010433772867543,14.0799096823034411,-7.91817387044736254,13.7933738903104892,22.1793845400029248,-1.85053098290104678,4.34788461936347392,273.937492693991885,27.0666905310673336,12.3415718353693968,70.0272185287697511,0.287670301919794758,114.006150146313843,448.118383212782078,15.2880000000000003,0,9.68886324906190133,0.0795518907356086991,5.89420656952099116e-08,0.00678065667503050494,0.0139696723691483879,-0.000486492843755512389
0.82,31.2221676720789567,131.010434982194738,14.3381244472199665,-7.77885948939036442,13.6527453019308371,28.4229335063603479,-1.88871516734236855,4.36335210365584203,328.725004432770049,27.3504387963761886,12.4846239122276401,70.0311523699626122,0.310204097213864383,114.030126246562517,457.551804849717939,15.2880000000000003,0,9.71823917887756217,0.0803860913438296104,6.21562183168303587e-08,0.00713188446862304207,0.0146077269471366188,-0.000517043844044773001
0.83,31.2221672564769648,131.010436205103389,14.5988332524358295,-7.65501854981137964,13.5359467258518524,36.0572951248539795,-1.92425633959489839,4.37718151364689056,395.68750322465047,27.5904527002347137,12.6121108273165277,70.0352831196116625,0.333764986026197197,114.055194522389144,465.605879152255682,15.2880000000000003,0,9.74747048365380131,0.0810917583926469288,6.54557364053806471e-08,0.00748706317641294455,0.0152572249814747103,-0.000547542992018169904
0.84,31.2221668371371592,131.010437441872625,14.8621148897486766,-7.53066760895335197,13.4163160799073786,22.3532167588486743,-1.96089279213481937,4.39142922483467313,275.459374825645227,27.838452235669422,12.7423801032352628,70.0396125928898385,0.358372229266656461,114.081375369151331,474.001802552151617,15.2880000000000003,0,9.77655918574377303,0.0818209027981707387,6.88392154428488733e-08,0.00784629908770136629,0.0159185188391708886,-0.000578957739857097631
0.85,31.2221664143421513,131.010438691771242,15.1277586423955732,-7.39813718342251825,13.280623403979293,24.349093868031165,-2.00073741258764626,4.40722368460521441,292.960932339393764,28.1222734675027723,12.8852473525491149,70.0441423664233724,0.384045207914945619,114.108689315289823,483.703908535179266,15.2880000000000003,0,9.80548156561395423,0.0826553387679280216,7.2308032123512278e-08,0.00820910668312072739,0.0165908925488212032,-0.000611888325579248017
0.86,31.2221659879328222,131.010439955250291,15.3958926446674713,-7.27542434886820377,13.1597114991703652,30.4257080687565846,-2.03909444578731414,4.42201938589347954,346.226561946558718,28.3785927826332589,13.0183243356750964,70.0488740677798347,0.410804093075729515,114.137157724361685,492.548806981956432,15.2880000000000003,0,9.83425782323039321,0.0834089498190860867,7.58598652687144054e-08,0.00857579649306646451,0.017275065863531943,-0.000645030097852439255
0.87,31.2221655579364494,131.010441232260035,15.6665017732029384,-7.15816209672777415,13.0463617962821345,28.3432315287106675,-2.07695372065620765,4.43635790084817128,327.964078366998024,28.6212092665260727,13.1465056700758893,70.0538093656113858,0.438669029010388789,114.166801913408477,500.993660773020395,15.2880000000000003,0,9.86286131952169853,0.0841222929774789602,7.94940948153249113e-08,0.00894631006870297285,0.0179710993643874446,-0.000678633502318793432
0.88,31.2221651243909299,131.010442522721149,15.9395625488509367,-7.03786223064688787,12.925795262215237,24.5224418796255286,-2.11672816743871328,4.45152361551962983,294.482813471041823,28.8817526814245866,13.2809445974929492,70.0589496528990026,0.467660263638062901,114.197643316851455,510.143048448899719,15.2880000000000003,0,9.8912955613825293,0.0848883331074161696,8.3210482615426204e-08,0.00932052862498563943,0.018678944173111011,-0.000713437726195444415
0.89,31.2221646873775711,131.010443826438632,16.2150183546764346,-6.91484188079919626,12.7983963226914117,26.8677813835952755,-2.15847506517032972,4.46753077701483203,315.028134248086985,29.160360218649803,13.4216651206214763,70.0642964120675487,0.497798322783049363,114.229703647062777,520.018942406625456,15.2880000000000003,0,9.91957574726396629,0.0857074739344642483,8.70088425340871663e-08,0.00969832958043179497,0.0193985416646513635,-0.000749497719747288364
0.9,31.2221642468293759,131.010445143612174,16.4929259409798163,-6.80550968546126622,12.6934752698710849,29.6485565879177564,-2.19708315795861875,4.48168695046847443,339.378142354214447,29.3911193365828076,13.5454787947163648,70.0698510739421323,0.529104450116405944,114.263005378597157,528.267697971829648,15.2880000000000003,0,9.94771280020830062,0.0863859868104729645,9.08875318897590153e-08,0.0100798438426110883,0.0201303071839397697,-0.000785125045450583959
0.91,31.2221638028165245,131.010446474072836,16.7732366121462633,-6.69321058547001524,12.5814663100256379,22.6079850061902938,-2.23764990767515215,4.49667486850772846,277.742181023078899,29.6399112746928139,13.6755680626960299,70.0756148639270862,0.561599308802229191,114.297570359515021,537.234519877790945,15.2880000000000003,0,9.9756982670941543,0.0871175082958704494,9.48466352235127264e-08,0.010464902948130685,0.020874104470314403,-0.000821995261723907147
0.92,31.2221633555336169,131.010447817323438,17.0558071277384293,-6.57824355401160155,12.4627663449816293,26.8669307373744601,-2.28021391719211186,4.51249637188617569,315.028134248062145,29.906705654273452,13.8118932286709999,70.0815889477277665,0.595303861914056043,114.333420749158094,546.93470102616925,15.2880000000000003,0,10.0035187429271382,0.0879019495218472391,9.88875430791834342e-08,0.0108531419446575295,0.0216294142932184387,-0.000860140670876428644
0.93,31.2221629048982088,131.010449173599028,17.3407051179750624,-6.4751970396484948,12.3640916378967454,31.9105715291989327,-2.31972915948156189,4.52653917984063625,359.162507065472823,30.1282320984565395,13.9322627062983688,70.0877744223661807,0.630239341936034703,114.370578986027752,555.05208658783306,15.2880000000000003,0,10.0311887613902133,0.0885533458937964452,1.03008069231222264e-07,0.0112447374086046652,0.0223967487956509524,-0.000897752260480264236
0.94,31.2221624508085611,131.010450543181065,17.6280120592645559,-6.3646140448381443,12.2498139241214314,23.2113229038415838,-2.36297475217455366,4.5422991633412817,283.068750483778672,30.3890230653386517,14.0663218467354483,70.0941722312510223,0.666426798524234143,114.409067306218546,564.687191355056484,15.2880000000000003,0,10.0587080072298818,0.0893201561198787575,1.07206821063931163e-07,0.0116397605012918161,0.0231764351303211137,-0.000937308036022966922
0.95,31.2221619935423789,131.010451925353465,17.9175217275642211,-6.25697575090623648,12.1392081793914794,29.9967945018256437,-2.40627511404145711,4.55787341020359804,342.421873617487279,30.6432276881882188,14.1979793939165546,70.1007833505128986,0.703888141654424926,114.448908852128113,574.15797305784622,15.2880000000000003,0,10.0860652863895552,0.0900676147516884379,1.11485992336207408e-07,0.0120377626382939459,0.0239677834561322564,-0.000977439229641462615
0.96,31.2221615328234137,131.010453320855305,18.2094477851173799,-6.15577385735339089,12.0389696318897226,29.3869087405487157,-2.44820020525662363,4.572540741457221,337.095335156783449,30.8734641741023452,14.3211774747931955,70.1076086324999892,0.742645297268967886,114.490126775442732,582.80186424389467,15.2880000000000003,0,10.1132823754544177,0.0907446325503906831,1.15841304366549831e-07,0.0124391962326779511,0.0247718698717670424,-0.00101759505260592899
0.97,31.222161068672559,131.010454729642618,18.5037782787176219,-6.05369203744457796,11.935432768050914,18.8509311828235617,-2.4915251640355276,4.58770873657514144,245.021887192993233,31.1135536034914857,14.4477438667149212,70.1146489021056283,0.782720765396889062,114.532744829302231,591.88476776958305,15.2880000000000003,0,10.1403565949458745,0.0914506175879052363,1.20272483365574932e-07,0.0128439801969190293,0.0255887381732266377,-0.00105884958883341188
0.98,31.2221606013658324,131.010456151003211,18.8003082600989089,-5.94505774156855971,11.817629205848986,27.3818846933217266,-2.53873253549296773,4.60460494612924442,319.593746642958081,31.3926509395328459,14.5878214453257744,70.1219048587430933,0.824137088885512292,114.576786803125046,602.533980100812641,15.2880000000000003,0,10.1672693971708892,0.0922712641079505014,1.24782904079528647e-07,0.0132515765910546628,0.0264175150541537049,-0.00110221978411837352
0.99,31.2221601307643546,131.010457585312139,19.0991467898154319,-5.85149625462733614,11.7271676285661677,29.9061084452730448,-2.5806457530431639,4.6186372950762431,341.660948551705417,31.6020200475204049,14.7034929517274584,70.1293771753461357,0.866917439501379894,114.622277146549735,610.580296557331963,15.2880000000000003,0,10.1940415417530765,0.0928869682388081541,1.29369108306800568e-07,0.0136622782865715841,0.027258982028141969,-0.00114392661997076935
1,31.2221596568674506,131.010459032575881,19.4002972016312185,-5.75160152207881836,11.6228671149559428,26.767740683079154,-2.62638457548512783,4.63435727365020877,314.26720818227642,31.8493816326418404,14.832316927876132,70.1370662421614242,0.911084149024919854,114.669239406528874,620.158277876882948,15.2880000000000003,0,10.2206648546937515,0.0936143496086787458,1.34031267988848213e-07,0.014075955130339211,0.0281130904158417363,-0.00118775402832209387
1.01,31.2221591798481839,131.010460492351996,19.7036325387523057,-5.65440965994306577,11.5222376566907982,27.9853788944109247,-2.67201259345023034,4.64979805410566538,324.920316103697928,32.0885116710514922,14.9581736893006045,70.1449724803856611,0.956660548488888041,114.717698182828528,629.487384725490188,15.2880000000000003,0,10.2471355504300821,0.0943175433199361785,1.38770886627516632e-07,0.0144923091892178463,0.028979437896727564,-0.00123203244776060104
1.02,31.2221586996344449,131.010461964832814,20.0092100043463716,-5.56050251119994599,11.426548015638831,23.3621732324060183,-2.71716612566041915,4.66478352491410497,284.590631615404163,32.3153883921450031,15.0796750269224731,70.1530961234292221,1.00366970670001021,114.767677787037385,638.40149656793983,15.2880000000000003,0,10.2734602417161263,0.0949847280339426309,1.43586200855389467e-07,0.0149114169041746191,0.0298583922305701091,-0.00127658732216900483
1.03,31.2221582162914153,131.010463449852068,20.3169831419448172,-5.46293988633920691,11.3219853263097505,19.085139448079012,-2.76523367814508303,4.68096311912752583,247.30469339049705,32.5685420061155284,15.2101974158897555,70.1614372583086663,1.052134682109233,114.819202509731483,648.423778211666331,15.2880000000000003,0,10.2996341279771908,0.0957291557464051562,1.48477870189893689e-07,0.0153330916079008096,0.0307497846012521961,-0.00132293176296826784
1.04,31.2221577298782194,131.010464947261511,20.6269104976564428,-5.37140006282837135,11.2279754435795809,30.3322637155712833,-2.81139801465315964,4.69598591510063823,345.465636880722968,32.7932169337359767,15.3307286197633807,70.1699959673681946,1.1020794034597714,114.872297556694349,657.381403792292872,15.2880000000000003,0,10.3256610332216479,0.096389882895308282,1.53445777481795326e-07,0.0157572272069111848,0.031653606997534986,-0.00136886395479249041
1.05,31.2221572401236642,131.010466457759662,20.9391971488957296,-5.27723821088388956,11.1270874042494405,18.2890625299011553,-2.86007024141671229,4.71198729462680266,240.456258798199826,33.0389933032954488,15.4584748841957929,70.1787721546918277,1.15352763782030521,114.926987952006272,667.252110139986826,15.2880000000000003,0,10.351555529522015,0.0971126414395598603,1.58485108887553337e-07,0.0161842197228387573,0.0325709275212848898,-0.00141645249554069302
1.06,31.2221567472528498,131.010467980768254,21.2536770049902835,-5.181172581171956,11.0206429850401992,26.05047909444502,-2.91105847129758111,4.72885330835125917,308.179683655939243,33.3029820189312034,15.5924020942814554,70.1877657487059565,1.2065042691663459,114.983299895879966,677.937210124184958,15.2880000000000003,0,10.3773064968983935,0.0978889398609609773,1.63599439976441568e-07,0.0166136173683231435,0.033501021673536413,-0.00146560740568816433
1.07,31.2221562511554964,131.010469516571675,21.5704348320448354,-5.09378208801924171,10.9305789880003008,30.6730017735117642,-2.95836768177826759,4.74372003563208899,348.509368144030759,33.5195189498449793,15.7098025466001072,70.1969766169206935,1.26103481663410921,115.041260253285031,686.760910077335552,15.2880000000000003,0,10.4029289774633202,0.0985257686844364933,1.68785609150814823e-07,0.0170456263650762344,0.0344445664020730583,-0.00151344921613905396
1.08,31.2221557517341637,131.010471065414492,21.8895445210895616,-5.00597965854362226,10.8382144229946498,20.6280759020128031,-3.00701060627577332,4.75898331364475435,261.001578574662346,33.7437314958185581,15.8297570301013906,70.2064044002637075,1.31714440940359689,115.100895463665424,695.957813256995678,15.2880000000000003,0,10.4284246482551772,0.0991851661328620043,1.74042063558188103e-07,0.017480302574751555,0.0354019402857215018,-0.00156237705375278108
1.09,31.2221552492497345,131.010472626626466,22.2108133340332863,-4.91172635771649713,10.730661861907711,18.9622728215057386,-3.06080351424964014,4.77642171651544611,246.543753324744074,34.0162974104444018,15.9662707373484913,70.2160486276338958,1.37485853038941208,115.16223233082556,707.224634651529072,15.2880000000000003,0,10.453778279363771,0.0999866995115417795,1.79373987375010399e-07,0.0179170880871019067,0.0363721802473823547,-0.00161430230485145308
1.1,31.2221547437739062,131.010474200023111,22.5341898439267965,-4.82264520740570735,10.6324692154416578,38.0890187486471561,-3.11270654736118058,4.79270834695129189,413.189061738584087,34.2615159152653703,16.0932086130715355,70.2259087091677543,1.43420300475397555,115.225298011228304,717.435660518459258,15.2880000000000003,0,10.4789949197234353,0.100707856477932581,1.84781484867676491e-07,0.0183558553160385329,0.0373552478269908242,-0.00166570507505481302
1.11,31.2221542349210139,131.010475786576563,22.8599610444872532,-4.74231908343050357,10.5516708834423092,27.8621863804245358,-3.16005840948498484,4.80662497937250244,324.159391037639693,34.4519144626431952,16.2011594941176291,70.2359839611945773,1.49520419391738346,115.290120220284024,725.409003472738164,15.2880000000000003,0,10.5040989826167657,0.10126788378400603,1.90256094067291556e-07,0.0187972400994772804,0.0383528210786651183,-0.00171518420250613276
1.12,31.2221537227471586,131.010477386130589,23.1880850230753488,-4.64900475774640753,10.4411579767580989,10.4622472105897959,-3.21738896631151094,4.82490859975239239,172.73281794065943,34.7395016629894755,16.342429312360391,70.2462734686631762,1.55788810311904924,115.356726282647159,737.547001420939637,15.2880000000000003,0,10.5290793969808636,0.102113595089297765,1.95800283873912863e-07,0.0192409765227473453,0.0393646009450372703,-0.00177027332414166939
1.13,31.222153207817513,131.010478997258076,23.5181463503807038,-4.5644270191012577,10.3481620476898133,32.835993875878323,-3.27004375607662467,4.84075643554462154,367.532807790070478,34.9714549616570736,16.4644097742893862,70.2567764417105138,1.62228283111502791,115.425145734880019,747.405289245780637,15.2880000000000003,0,10.553919392384886,0.10279578352353326,2.01424607098467894e-07,0.0196860724954305739,0.0403885999559695646,-0.00182326016633623249
1.14,31.2221526894935408,131.010480621551466,23.850615588357396,-4.48603920726262739,10.2674905665808662,18.1390987409020106,-3.31936278296477738,4.85481829242017682,239.695317731955441,35.1624789582047086,16.5722287107172228,70.2674916093346411,1.68841447326624361,115.495405974368424,755.568538662273113,15.2880000000000003,0,10.5786523595354076,0.103357671004655677,2.07114637461920675e-07,0.0201335795315854792,0.0414275020813919467,-0.0018748324993090417
1.15,31.222152168237848,131.0104822578339,24.1851515127033387,-4.39511867744039808,10.1572895662119578,17.8681071281097381,-3.37932070734368795,4.87345272338091196,237.412511535467729,35.4548932266983954,16.7146716463438558,70.2784175397564468,1.75630929433880412,115.567534565147838,768.162856229143699,15.2880000000000003,0,10.6032479286233201,0.104217595932802817,2.12882385164576867e-07,0.0205824830772051472,0.0424792742624506073,-0.00193251105329305946
1.16,31.2221516441814408,131.010483905773299,24.5216594134653079,-4.31979399390214347,10.0808242407836364,46.9104458326602725,-3.42851087089006779,4.88692649369869248,490.043774384589426,35.6320234219630763,16.8174595698298575,70.2895528944827959,1.82599557815046087,115.641561204447441,775.832328086286452,15.2880000000000003,0,10.6277167210864754,0.10473865758054221,2.18727964117514307e-07,0.0210326143098412584,0.0435437854662021964,-0.00198457603634009635
1.17,31.2221511164793988,131.010485567449848,24.8607562492338374,-4.23844595921613543,9.98928224596023817,8.22357693189724692,-3.48362257155398813,4.90280444808063276,153.709379294867944,35.8617602929350809,16.9381510169199139,70.3008958806245374,1.89749976951255128,115.717513624831767,785.843313978579204,15.2880000000000003,0,10.6520914589185338,0.105414361704205761,2.24632830762886381e-07,0.0214853106657235116,0.0446245071418776562,-0.00204029560892810165
1.18,31.2221505862364062,131.010487240104936,25.2016336281102369,-4.14911002881817037,9.87771542477021391,22.7442677542806955,-3.54684730873748499,4.92200891409729646,280.025018221967457,36.1647184828701498,17.083675773435548,70.3124447185401777,1.9708498399569585,115.795421165798231,799.150752985835879,15.2880000000000003,0,10.6763018543050556,0.106305305408789796,2.30624728130802092e-07,0.0219384258143206258,0.0457166651130609253,-0.0021008555090977583
1.19,31.2221500529499316,131.010488924972833,25.5446589572664351,-4.08019264207547216,9.81233166308692439,39.8120676055681884,-3.59373453717604319,4.93364805414504293,428.407813052929214,36.3009973248848965,17.1721358418928922,70.3241975384465832,2.04607462962964437,115.875314078857471,805.158420362791617,15.2880000000000003,0,10.7003822032593252,0.106706306805120998,2.3668707540419609e-07,0.0223929730587999858,0.0468229622545517365,-0.00215239333133575338
1.2,31.2221495161809131,131.010490623102271,25.8901480099884083,-3.99659919538158004,9.71108835360701939,3.98353440807313852,-3.65479913789363664,4.95128582927608996,117.184374136023607,36.5685675688637488,17.3052635387263436,70.3361519441988037,2.1232005865677186,115.957220062366417,817.044498569400957,15.2880000000000003,0,10.7243590531737372,0.107493245149174022,2.42812617894512485e-07,0.0228494372171198779,0.047944943852419139,-0.00221238327687192779
1.21,31.2221489770436058,131.010492331742711,26.2372913963063752,-3.91479202870502663,9.6124767056480227,31.9187619191228009,-3.71575150603206472,4.96855306597603352,359.923432132008998,36.8282768668296825,17.4354972696534638,70.3483057412125277,2.20225727532419402,116.041170109957136,828.663345584077319,15.2880000000000003,0,10.7481916384119405,0.108257084324337879,2.49029245876232464e-07,0.0233057502576984876,0.0490778704182978573,-0.00227251582344469797
1.22,31.2221484346805802,131.010494052972206,26.5867091150708212,-3.84656617344979201,9.54522270577374243,23.0609479400706761,-3.7648479998964488,4.98034261895794117,283.068750482576149,36.9688792479003965,17.5250612737533267,70.3606563150784154,2.28327271896326822,116.127193568077615,834.974711470081843,15.2880000000000003,0,10.7719292519948446,0.108670814942751284,2.55311170095695648e-07,0.0237634690781263133,0.0502259003052393516,-0.00232591573395617016
1.23,31.2221478894248925,131.010495785943846,26.9381563081619291,-3.76533499974864405,9.44503935398770089,8.85133902835930542,-3.82795233217753683,4.99792874784693719,159.796873822227951,37.2358586422296653,17.6574328056410437,70.3732006472204148,2.36627343570546422,116.215318171552781,847.0495908582825,15.2880000000000003,0,10.7955440008836643,0.109456040743804356,2.6167114959355561e-07,0.0242216939854843528,0.0513871717689424884,-0.00238780619747584917
1.24,31.222147341747899,131.010497529496291,27.2912924679601332,-3.68969772413745956,9.35709176922942021,38.6490156706162082,-3.88674393403823748,5.01332452879989887,418.515630199805003,37.4562770148185749,17.7737847006428709,70.3859357970770532,2.45128829354455746,116.305574137710011,857.078449360960121,15.2880000000000003,0,10.8190274878280217,0.110104406664553539,2.68120159257182909e-07,0.0246795329965971248,0.0525597468374519039,-0.00244725938315011908
1.25,31.2221467908464589,131.010499285542267,27.6466921823588407,-3.6216926721926459,9.28691109896644207,18.5602698742991734,-3.93845487314673637,5.02537886071922646,244.260946125734876,37.6054049579336649,17.8658249157613653,70.3988584377904232,2.53834485129067522,116.397990283216188,863.88726362303737,15.2880000000000003,0,10.8424077347402257,0.110543218328084544,2.74633329203552152e-07,0.0251383705802838038,0.0537475094956658406,-0.00250259759887249593
1.26,31.2221462372414713,131.010501052789039,28.003977119461112,-3.54079385848347439,9.18297886858892554,10.8292834482949161,-4.00557100508266384,5.04368884861114442,177.298446336408631,37.8902204710145512,18.0036456888189633,70.4119649437225377,2.62747001807163549,116.492594721518103,876.992522442163363,15.2880000000000003,0,10.8656163804626171,0.111380898782124968,2.81229631717896391e-07,0.0255969727833994312,0.0549476803748893614,-0.00256746459103163877
1.27,31.2221456811045073,131.010502830806956,28.3630236911195901,-3.47160480922042858,9.10739824781030904,37.1385047371699386,-4.06067404238859808,5.05656424845828312,405.579686079964688,38.0598294242586235,18.1022823703407525,70.4252518392361537,2.71869389745773082,116.589418945317775,884.830983257252115,15.2880000000000003,0,10.8887097520304401,0.111879929277325957,2.87909708496767342e-07,0.0260550824971123758,0.0561599173766459472,-0.00262502252579482594
1.28,31.2221451217862942,131.01050462110598,28.7242900487132111,-3.40063459143288593,9.02600701357099666,11.8564369628564457,-4.1189393666405385,5.07046309293249564,186.429688124688823,38.2524976610002625,18.2085690030165317,70.4387150120491725,2.81204315829802676,116.688490790681755,893.781104128429774,15.2880000000000003,0,10.911708857622239,0.112446751528672617,2.94655459071856569e-07,0.026513625197495623,0.0573870668704993189,-0.00268464943005674445
1.29,31.2221445600721275,131.010506421783276,29.0872132698573971,-3.32400578812734615,8.92841231648746181,19.6549904223523377,-4.18552326052482027,5.08750780483705256,254.153128984572163,38.5138695501665183,18.3378288130994953,70.4523502765566434,2.90754582625958991,116.789839520580173,906.005309938005098,15.2880000000000003,0,10.9345808681152743,0.113215542079349765,3.01492498637076446e-07,0.0269710002895347835,0.0586252642789862125,-0.00274952542258597972
