Time,Latitude,Longitude,Altitude,Angle of Attack,Angle of Sideslip,X-Acceleration,Y-Acceleration,Z-Acceleration,Thrust,True Velocity,Ground Velocity,Pitch,Roll,Yaw,Dynamic Pressure,cp,cg,parachute_deploy_gain,Wind Speed,Wind Direction,Mach,omega_x,omega_y,omega_z,Cmq,Angle of Attack(total),Angle of Attack(gust),True Velocity(gust),Acceleration
0.0,31.222216000000007,131.010392,3.000000004412624,0.0,0.0,0.0,0.0,0.0,2.2828121974499247,0.0,0.0,69.99999999623412,0.0,119.9999999935444,0.0,1.274,1.0271675151847728,0.0,0.0,0.0,0.0,0.0,0.0,0.0,-0.0,0.0,90.0,0.0,0.0
0.01,31.22221599999084,131.01039200000497,3.000002745347096,0.0,0.0,0.0,0.0,0.0,34.242186961749226,3.465174813755316e-14,2.8705476994166025e-14,69.9999999962611,-2.1713911667908447e-11,119.99999999352175,7.352495975525499e-28,1.274,1.0271659134330349,0.0,0.0,0.0,1.0183245502395064e-16,-3.3305335486039093e-18,7.169286865560398e-18,5.624298769768554e-18,-7.715917190115602e-34,0.0,89.99999999999979,3.465174813755316e-14,0.0
0.02,31.222215999994315,131.0103920000094,3.0000030495639742,0.0,0.0,0.0,0.0,0.0,25.871876237766216,3.8197434737535036e-11,2.4171837235633357e-11,69.99999999628672,-1.1921727947863515e-11,119.99999999353136,8.93414285188691e-22,1.274,1.027164492361118,0.0,0.0,0.0,1.1225230367947217e-13,-6.657678965418802e-18,1.4338573731120796e-17,1.1241821275959074e-17,-1.7010872994127372e-30,0.0,89.99999999975682,3.8197434737535036e-11,0.0
0.03,31.222215999994315,131.0103920000094,3.0000030495639742,0.0,0.0,9.81877837424427,-2.5122800045972096e-05,3.3498614629347925,180.34219359854663,1.2659015405517447e-10,1.1364406173918436e-10,69.99999999631459,-1.6431898037347223e-11,119.99999999352724,9.812605835254651e-21,1.274,1.0271551940870716,0.0,0.0,0.0,3.720154642239108e-13,-9.991600645811728e-18,2.150108433310316e-17,1.6859343782149594e-17,-8.453698244545225e-30,0.0,89.99999999919412,1.2659015405517447e-10,10.374487003414373
0.04,31.222215999994315,131.0103920000094,3.0000030495639742,18.83801224594347,-0.0001111777826462,48.68248476615645,-1.016330065874988e-05,3.3497854396877287,548.635972453808,0.1556173050466994,0.0975908358443652,69.99999999633813,-2.0932768807056278e-11,119.99999999352085,0.0148286043323172,1.274,1.027133720825283,0.0,0.0,0.0,0.0004573186944143,-1.3322134194415637e-17,-1.04744143520903e-11,1.336824254131964e-11,5.0626055458604615e-15,18.83801224625964,89.06236267790787,0.1555998412814392,48.79759610369246
0.05,31.22221599164764,131.01039201704114,3.002326315126219,5.772385609593056,-4.395076213712875e-06,71.20344550265034,4.905512691849684e-05,3.349217396035405,761.6984298824663,0.8326471944351852,0.3620326097059287,70.00000001316391,-1.0866255162484559e-10,120.00000000231074,0.4245281043148827,1.274,1.027093426565204,0.0,0.0,0.0,0.0024469331205246,-5.0245994431125096e-18,-7.32924164976824e-07,2.217344936947165e-11,1.895424184525467e-09,5.772385609594774,84.74112356985832,0.8326465040582279,71.28217104309611
0.06,31.22221596664444,131.01039206837547,3.015081730143309,4.056581213689704,3.169093567502233e-05,53.16249142470188,0.0001203825427859,3.3481235983850643,590.4875390737236,1.657216205300742,0.6755452977614796,69.99999964391398,-3.9285905645317736e-10,120.0000000287861,1.6816755551786196,1.274,1.027050317124926,0.0,0.0,0.0,0.0048701272653724,3.095757869075056e-13,-7.483541766772344e-06,3.074135420506017e-11,3.8518749565858254e-08,4.056581213813337,79.59316473687034,1.657221183301277,53.26781792157489
0.07,31.22221592883117,131.0103921460222,3.034593611434361,4.115662018628709,6.450869598349036e-05,81.18203554989698,0.0001593212642178,3.347059402768047,855.2937749779172,2.099899704220947,0.8579771146174259,69.99999543281565,-8.233801910783518e-10,120.00000006883089,2.700101932075157,1.274,1.027003201295312,0.0,0.0,0.0,0.006171060252819,3.4704292086287e-12,-2.6327204536316785e-05,1.9541142932033486e-10,1.7170712165327165e-07,4.115662019133419,76.90111966094352,2.099909837223217,81.2510043180746
0.08,31.22221588914193,131.01039222747755,3.0542761843835606,3.459696193892355,8.037433511260004e-05,16.298214211652088,0.0002413456836072,3.344878926597744,241.2171988638792,3.051964775152957,1.2149999716613011,69.99998042886442,-1.0128995578004475e-09,120.00000011111383,5.703497661025892,1.274,1.0269597189470347,0.0,0.0,0.0,0.0089689344021769,1.458982438104473e-11,-5.702803872814215e-05,7.043261397829576e-10,5.405702492731987e-07,3.459696194824858,71.30331929508368,3.051977400323993,16.63790856991177
0.09,31.2222158241468,131.01039236098703,3.0886872184095737,4.313676956300389,0.0001337561018991,50.35975918308536,0.0002293282821279,3.344215841840564,563.0937377043203,2.893161298572128,1.191209213966114,69.99994788602814,-7.098432023887522e-10,120.00000018106356,5.125380275808925,1.274,1.026918932011013,0.0,0.0,0.0,0.0085022553945842,3.8672912027154325e-11,-0.0001115933708951,2.016054215232918e-09,1.0027525988343615e-06,4.313676958370176,72.2316578138625,2.893182308931483,50.47067588835877
0.1,31.2222157788302,131.01039245392113,3.109877853389092,4.035124630954496,0.0001457499816535,47.804664812504015,0.0002878217657545,3.341734392237128,538.7437595981891,3.5677148583138303,1.4531247507621967,69.99988403958329,1.9248461973355822e-09,120.0000002323013,7.7939962029572305,1.274,1.0268846934974103,0.0,0.0,0.0,0.0104845969583028,8.579678749070606e-11,-0.0001726817043215,3.984565639703107e-09,1.913455350430327e-06,4.0351246335824245,68.43243098813296,3.567737752667411,47.92132267234452
0.11,31.222215703308,131.01039260899836,3.148841432727305,4.043401107254707,0.0001752764476999,37.67622367577205,0.0003286462930162,3.3392563999062723,442.86563930529127,4.034183355956686,1.6436552022667772,69.99978525353545,7.302513231814865e-09,120.00000031883242,9.96528118825134,1.274,1.026848594915519,0.0,0.0,0.0,0.0118554331868328,1.5870341853361987e-10,-0.0002596204409236,7.232030302688121e-09,3.252930323390323e-06,4.04340111104746,65.92012987243639,4.034210888316708,37.82391391539392
0.12,31.222215627491828,131.01039276462643,3.186995101203875,4.17874459224363,0.0002066711490009,41.15991989399172,0.0003576945202315,3.336766085769504,475.58594813540793,4.361857560629481,1.7865750500940407,69.99963665601238,1.781774420198147e-08,120.00000041104812,11.649831899889556,1.274,1.0268114448194128,0.0,0.0,0.0,0.0128183893919737,2.682972478760441e-10,-0.0003710216542429,1.2215991071490164e-08,5.026311388647148e-06,4.178744597345269,64.21681651392016,4.361890024457652,41.29495143136631
0.13,31.22221554594398,131.01039293200228,3.2277173449026786,4.202734874672792,0.0002327160860324,45.44886120763352,0.0003953741266062,3.333578629398489,515.9156326236897,4.792165672014363,1.9646716520715424,69.99942424225341,3.613383418913551e-08,120.00000051758742,14.061726603124043,1.274,1.026779572895131,0.0,0.0,0.0,0.0140829618979635,4.248908088871395e-10,-0.0005056103199642,1.908859219307828e-08,7.5253154423526356e-06,4.202734881104192,62.048594618540655,4.792202226971676,45.570952718869485
0.14,31.222215454191247,131.01039312033683,3.2737880595608355,4.184830647080848,0.000257138757548,42.32232525579263,0.0004369426767266,3.329727443445437,486.2390860568421,5.269261304374574,2.158791628597544,69.99913473613935,6.515851355725497e-08,120.00000064630268,17.000925061330125,1.274,1.0267449573927567,0.0,0.0,0.0,0.0154850332441425,6.382432869666793e-10,-0.0006690086306358,2.8426433029675884e-08,1.0948547100483978e-05,4.184830654966803,59.74181173116622,5.269301695636157,42.45310707234106
0.15,31.222215353826755,131.0103933263496,3.3242182719560263,4.21963947489699,0.0002846467688673,40.886944113003565,0.0004726792395108,3.325585650885676,472.5421858721398,5.6781946837482895,2.329510773545807,69.99875162806286,1.0876776246115984e-07,120.00000079954532,19.742017654108928,1.274,1.0267115958081523,0.0,0.0,0.0,0.0166867950518804,9.204756288136623e-10,-0.000865746478554,4.08948221429571e-08,1.526771148078443e-05,4.219639484480408,57.84996018384879,5.678239395958187,41.02196629910223
0.16,31.222215247130432,131.01039354534575,3.3775922280208457,4.253495568077899,0.0003118339050386,32.26872905470846,0.0005078415214353,3.32090791922544,391.1218908297597,6.081244877834229,2.4981889727471702,69.99825581174558,1.7187028096464329e-07,120.0000009800088,22.644030778355887,1.274,1.026675762255412,0.0,0.0,0.0,0.0178712695992133,1.2856146928958252e-09,-0.0010961187242953,5.6923362293832417e-08,2.0702404729358337e-05,4.253495579487569,56.06022383757386,6.081293860589489,32.43916312841722
0.17,31.22221513260033,131.01039378041813,3.4348437275053194,4.364838523348639,0.0003448792023946,40.840448242802736,0.0005326487904353,3.3162727284953744,471.78125980632416,6.362544479165355,2.6250789114832647,69.99762801982864,2.5997588617291615e-07,120.00000119506798,24.78723182122683,1.274,1.0266409836796937,0.0,0.0,0.0,0.0186979513961862,1.747791994374917e-09,-0.0013624931601664,7.706724512977917e-08,2.6923621797558364e-05,4.364838536947241,54.85936171416122,6.362598652663785,40.97486885600156
0.18,31.222215014088988,131.01039402363364,3.4935801365785646,4.353948305387995,0.0003681615230806,33.992183768165326,0.0005718025428208,3.310131992647221,407.1015672119096,6.81502088160835,2.810667639293692,69.99684761766231,3.794979223522764e-07,120.00000144728236,28.437950785509614,1.274,1.0266048342046536,0.0,0.0,0.0,0.020027681385988,2.3221419748804155e-09,-0.0016616990447559,1.0147209890543081e-07,3.517105786247627e-05,4.353948320923495,52.99157233768714,6.815078712285162,34.152972512863755
0.19,31.22221488419521,131.01039429023237,3.558399965607869,4.432620772533925,0.0003996774584738,38.45149959021069,0.0005986099513107,3.304145139297767,448.95313283182486,7.1223367465208405,2.946425726785696,69.99589577323147,5.440084577183829e-07,120.00000176148238,31.060341085698347,1.274,1.026566130444714,0.0,0.0,0.0,0.0209308229359413,3.022391489754689e-09,-0.0020041563310821,1.3135864879722746e-07,4.433199397898183e-05,4.432620790516937,51.77883352025967,7.122399527709208,38.59320142454953
0.2,31.222214751373183,131.01039456280608,3.624052454705669,4.443889400961181,0.0004246617145652,35.23432408779927,0.0006337972852267,3.2968110145188256,418.5156301991588,7.530482904611057,3.1167566004785483,69.99474776398331,7.478025600151903e-07,120.00000211715036,34.72195181863731,1.274,1.026529240027363,0.0,0.0,0.0,0.0221302820454282,3.866698391504749e-09,-0.0023849544920781,1.668144671071589e-07,5.57780533277244e-05,4.443889421210987,50.22448880200342,7.530549610317194,35.38822625098952
0.21,31.222214608673173,131.01039485566503,3.6948551453492566,4.493351735844891,0.0004538195602194,33.79371564104691,0.0006629296043866,3.2891790438445727,404.8187610144608,7.868284042829251,3.2629204975089228,69.99338155599101,1.0150082652278477e-06,120.00000255293388,37.906665490338085,1.274,1.0264923657015164,0.0,0.0,0.0,0.0231230169900677,4.871073773182836e-09,-0.0028117605859743,2.089322918608601e-07,6.870935089180403e-05,4.493351758715364,48.992529909481824,7.868355328639073,33.95340801819282
0.22,31.22221446109996,131.01039515850383,3.767700382407304,4.5412639153933885,0.000482649303782,41.008966751568416,0.0006914639179131,3.2808061382386606,472.5421858721387,8.20057841132235,3.4071691679735228,69.9917708347139,1.3454961520984431e-06,120.00000305929996,41.175744234065135,1.274,1.0264494137127138,0.0,0.0,0.0,0.0240995709751246,6.054779813287368e-09,-0.0032829112061357,2.580881224843564e-07,8.3609968899004e-05,4.54126394098788,47.82515604752711,8.2006542256977,41.13999323561041
0.23,31.22221430675399,131.0103954752338,3.843768625625224,4.52371495179584,0.0005047555656171,33.98493478127787,0.0007294889663961,3.2705214710765107,406.340642146096,8.647938096586296,3.5908865300848416,69.98989017772566,1.7539876018835507e-06,120.00000365514876,45.79040229326471,1.274,1.0264133390858623,0.0,0.0,0.0,0.0254142776666487,7.436335125872812e-09,-0.0038001790077148,3.1489825108822685e-07,0.0001020628978177,4.523714979897577,46.31461705147579,8.648017383405135,34.14194053232237
0.24,31.222214142622448,131.0103958120587,3.92493179063287,4.57837522350066,0.0005351929930195,35.051650311058864,0.0007555049947555,3.26053011385611,416.2328240017099,8.954297884844461,3.72617527247482,69.98771316795013,2.25257161141768e-06,120.0000043564586,49.09180568115741,1.274,1.0263750048312463,0.0,0.0,0.0,0.0263146218848643,9.034877387788232e-09,-0.0043732521010013,3.809642748985157e-07,0.00012161410144,4.578375254714954,45.32798984252032,8.954381952763216,35.20297212911011
0.25,31.22221397517227,131.0103961556623,4.0071748888306855,4.6034117733065,0.0005618935542827,36.03738579534623,0.000785606492708,3.249069743648399,425.3640807915084,9.311611941121669,3.8789349536029696,69.98520781816889,2.8559738498748624e-06,120.00000517181904,53.08749562138344,1.274,1.0263373768840591,0.0,0.0,0.0,0.0273647110956883,1.0873791100894836e-08,-0.0049950711786164,4.5609738277273444e-07,0.0001444478241125,4.603411807525074,44.2165428352526,9.311700203154778,36.183554686886296
0.26,31.22221379934012,131.01039651647062,4.09364247475714,4.621386912291471,0.0005881033207375,39.29107511182762,0.0008162761165496,3.236407051295005,455.80158342417656,9.67833954512075,4.034902068846398,69.98234620927953,3.5784678110229355e-06,120.00000612171208,57.350948423913096,1.274,1.0263006300381676,0.0,0.0,0.0,0.0284424679130479,1.2973286442992724e-08,-0.0056712051373577,5.414206381221602e-07,0.0001704578711045,4.621386949630312,43.12063533194282,9.678431924174348,39.42414126789902
0.27,31.222213616776543,131.01039689108487,4.183310605341074,4.617158109135719,0.0006115457810536,35.90419462403674,0.0008503454714941,3.221982799915672,423.8421996598744,10.088790784535757,4.205862468567124,69.97909721779352,4.436165972465058e-06,120.000007221354,62.31798301949865,1.274,1.026260090595354,0.0,0.0,0.0,0.0296487219805601,1.5355910600537293e-08,-0.0064045199323113,6.379142666348734e-07,0.0002006609239367,4.617158149547818,41.94410287616451,10.08888684592241,36.048472443180565
0.28,31.22221342607797,131.0103972823952,4.277051150896916,4.642105655370123,0.0006389739579882,41.51133203546672,0.0008785747638736,3.2071101123224945,476.3468732012228,10.432377224420517,4.35383399240675,69.97542808435722,5.446665372087172e-06,120.00000849080963,66.63429581008447,1.274,1.0262212716723291,0.0,0.0,0.0,0.0306584788590473,1.8045308789081613e-08,-0.0072006835403936,7.469524967369969e-07,0.0002332868227611,4.642105699250441,41.0023231023774,10.432477594215127,41.63503624837164
0.29,31.22221323001776,131.01039768469093,4.373143569786686,4.62134615173668,0.0006600657405645,33.17552944492765,0.0009148746278066,3.1894209319791806,397.9703104221098,10.876662296046485,4.536381530986506,69.9713027936179,6.629751536885327e-06,120.00000994797426,72.43000748232016,1.274,1.026183007522519,0.0,0.0,0.0,0.0319641703260467,2.1067646517035105e-08,-0.0080566154554079,8.688043379161898e-07,0.000272130659453,4.621346198772975,39.83162628795024,10.876765978930557,33.32848872465723
0.3,31.22221302403368,131.01039810736614,4.4744193758467325,4.664362353358112,0.0006905183788532,31.08096762732793,0.0009381960428197,3.172549142946348,378.1859457108735,11.168362145070317,4.66647911311536,69.96668711012893,8.005507138509574e-06,120.00001161892672,76.36634300732833,1.274,1.0261430389738484,0.0,0.0,0.0,0.0328214509167604,2.4447409007156216e-08,-0.0089829108229115,1.0056222251461646e-06,0.0003115527202986,4.664362404357781,39.09908960432563,11.168470611443622,31.242464973103964
0.31,31.22221281503337,131.01039853619727,4.576593712520673,4.700143580504286,0.0007196683316923,32.79732593144512,0.0009620705970519,3.154230688182399,394.1656220930229,11.470279728974068,4.800072153432283,69.96154070456518,9.597499105113692e-06,120.00001352112182,80.55022837857167,1.274,1.0261054058068628,0.0,0.0,0.0,0.0337087616009043,2.8214060606649844e-08,-0.0099686353219717,1.1565909895184251e-06,0.0003550834484269,4.700143635477137,38.36463422765983,11.47039277421126,32.94865339301887
0.32,31.222212598991007,131.01039897947376,4.68216432480395,4.718667719113184,0.0007464384342556,35.7316568886908,0.0009885845337584,3.133859770838664,421.5593934624264,11.808280530415894,4.946054328851105,69.95582953472353,1.14278227255889e-05,120.00001568218067,85.36654007972253,1.274,1.026068246703101,0.0,0.0,0.0,0.0347021168382987,3.2392058795580455e-08,-0.0110163301561155,1.3226102501723267e-06,0.0004039614423012,4.718667778018562,37.5686120062341,11.808397780690962,35.8688218659563
0.33,31.222212376029034,131.0103994369436,4.791055524254013,4.72141404831576,0.0007708346814671,35.42013590291081,0.0010176135371143,3.1111955852784385,418.5156301991632,12.181577273013426,5.104163223586657,69.94951809396906,1.351997394754887e-05,120.00001812674968,90.84831229869296,1.274,1.0260310883392356,0.0,0.0,0.0,0.0357992034445943,3.700677535501642e-08,-0.0121310534481307,1.5051409581878843e-06,0.0004588955105349,4.721414111097893,36.7208578211118,12.181698355442045,35.55651229220977
0.34,31.222212145785647,131.0103999093516,4.903491659547144,4.73024573449122,0.0007962944975467,27.63851074646407,0.0010446307681611,3.0871492806781062,345.4656368807584,12.53557620048282,5.2556261014174765,69.94256797855994,1.5899658158227497e-05,120.000020882338,96.20413272674828,1.274,1.0259901535019136,0.0,0.0,0.0,0.0368395817555172,4.208561016221623e-08,-0.0133180771902383,1.7057647550599631e-06,0.0005184333231541,4.730245801363397,35.94841996438923,12.535701282129995,27.810389570354005
0.35,31.222211909310875,131.01040039453565,5.018822212845608,4.780248518778662,0.0008286678570753,30.332092807652543,0.0010618579815451,3.063967690608957,370.5765700527057,12.774786382148209,5.367579971644358,69.93493776125636,1.8594985713558667e-05,120.00002397748868,99.9096898192772,1.274,1.025950003202184,0.0,0.0,0.0,0.0375426220587071,4.7658312175989686e-08,-0.0145774693288123,1.9252724355785177e-06,0.0005782798420984,4.780248590437683,35.44790728185619,12.774916548990808,30.486451961956565
0.36,31.22221166933814,131.0104008868675,5.135354490370708,4.798132156899578,0.0008554457330409,34.32674769697476,0.0010851169437774,3.0374319611165923,407.8625232777224,13.09301701329486,5.506730645516068,69.92658597246795,2.163521613217148e-05,120.0000274401514,104.94818266210537,1.274,1.0259105142325406,0.0,0.0,0.0,0.0384778908056978,5.3755109608570216e-08,-0.0158991451700967,2.162609490834569e-06,0.0006464142451675,4.798132232978766,34.796094028187134,13.09315138639638,34.46087058603792
0.37,31.222211421355144,131.01040139563804,5.255882891363927,4.797392186816851,0.0008791822061288,32.551601855236584,0.00111162791192,3.0078619428913056,391.1218908297639,13.457513730739372,5.661815946371007,69.91747693543164,2.5047738471809164e-05,120.0000313040604,110.87154396328836,1.274,1.025872170958032,0.0,0.0,0.0,0.0395491312153729,6.040098808671168e-08,-0.0172926678053148,2.420031948898497e-06,0.0007226353721561,4.797392267189059,34.07332166419882,13.457651832357364,32.69027405888565
0.38,31.22221116634284,131.01040191882743,5.379799334000849,4.811698494594017,0.0009057112478668,34.02947987649063,0.0011338447913587,2.9774881690446744,404.81876101445977,13.77554886562956,5.800899861213392,69.90756948297444,2.886339581486796e-05,120.00003560072224,116.17243393848278,1.274,1.02583050512925,0.0,0.0,0.0,0.0404838339452728,6.762496638941508e-08,-0.0187646375218858,2.69955777313946e-06,0.0008026686661094,4.8116985796350695,33.46655348088405,13.775691134419684,34.15949264475229
0.39,31.222210906095896,131.01040245274032,5.505993307722699,4.813508003664984,0.000929862892873,29.00025983045028,0.0011579891265804,2.9442136901860865,357.6406249338268,14.124492165837273,5.950648592462506,69.8968186645841,3.311602501056718e-05,120.00004036395212,122.13093644173792,1.274,1.02579027384009,0.0,0.0,0.0,0.0415093739609825,7.545934774906889e-08,-0.020311592409804,3.0013532510753577e-06,0.0008908380763632,4.813508093268025,32.821616487639595,14.124638228358922,29.149330452482886
0.4,31.222210638473225,131.0104030017851,5.635788650457906,4.841647069358873,0.0009592124397379,27.71178845184976,0.0011749448424961,2.91135549588368,345.4656368807565,14.390874239274588,6.07193451174791,69.8851815212744,3.783947407715338e-05,120.00004563180136,126.77947425345651,1.274,1.0257493418632293,0.0,0.0,0.0,0.0422922854866381,8.39343718693383e-08,-0.021938519432511,3.3271332720311508e-06,0.0009803271643914,4.841647164150728,32.348088166612904,14.391024912012275,27.864299944624147
0.41,31.22221036681104,131.01040355909262,5.767123077463226,4.86553909860892,0.0009876699832274,31.306062598221665,0.0011918093836199,2.876450850006428,378.9468707766882,14.663028799871563,6.195223154320929,69.87261222561014,4.307011032901644e-05,120.0000514391194,131.6183642808765,1.274,1.025708445186429,0.0,0.0,0.0,0.0430921644173401,9.308325447883581e-08,-0.0236371933433427,3.6760977501392174e-06,0.0010761942383903,4.865539198612839,31.87689439156756,14.663183942709727,31.437931330109585
0.42,31.22221008906472,131.01040412887247,5.901259531771367,4.867510642114694,0.0010118258958528,35.308283402190774,0.0012128114559048,2.8374461227958245,416.23282400171047,14.9952917972178,6.33928625560071,69.85906967380902,4.884273094936628e-05,120.00005782486392,137.64909586091787,1.274,1.0256701057426505,0.0,0.0,0.0,0.0440686959134695,1.0293499639582845e-07,-0.0254093547296826,4.049238334851429e-06,0.0011830797791891,4.867510747027452,31.315270489291198,14.995450734457847,35.422111438762386
0.43,31.222209804115888,131.01040471342728,6.038886819939341,4.854590670645608,0.0010330089741511,31.00586934514032,0.0012363751872706,2.794478603999558,375.90313951343126,15.369430568701889,6.497852263156962,69.8445117629242,5.519340856908871e-05,120.00006482835984,144.60167924299955,1.274,1.0256308158337524,0.0,0.0,0.0,0.0451682983415116,1.135186446762958e-07,-0.0272634397889413,4.449073329427772e-06,0.0013010625065656,4.854590780289497,30.70250814963406,15.369592833372094,31.13154422839874
0.44,31.22220951192321,131.01040531284193,6.180028459770617,4.866912332640401,0.0010595850174406,28.57707721036899,0.0012525768202179,2.752165534925872,353.07501253892326,15.659290812546615,6.627318538707029,69.82889155423543,6.216182865383864e-05,120.00007249162944,150.1053167542629,1.274,1.025586171750536,0.0,0.0,0.0,0.0460202245100907,1.2486676023179565e-07,-0.0292060158163984,4.8779154055816594e-06,0.001420032405556,4.866912447705031,30.24619499837236,15.659457251771938,28.709297424144207
0.45,31.222209215425703,131.01040592106523,6.322872201489905,4.881836476567178,0.0010866574689855,33.31904824532484,0.0012669045761511,2.7082028218433374,397.2093853562887,15.934249290371609,6.751662050993672,69.81215834018458,6.97909417564726e-05,120.00008085697964,155.42080512416243,1.274,1.0255397023523487,0.0,0.0,0.0,0.0468283602442113,1.3701614206272197e-07,-0.0312276295846745,5.334643585560923e-06,0.0015449645531859,4.8818365972149325,29.82567893138932,15.934419982127675,33.428929688274074
0.46,31.22220891307435,131.0104065412864,6.468371919199588,4.869610441729251,0.0011078049156487,38.95909776354321,0.0012868374716666,2.6582856015412624,449.7140588976424,16.292139278621757,6.904766425053949,69.79426683863348,7.812149592850748e-05,120.00008996920153,162.4785746623087,1.274,1.02549635315424,0.0,0.0,0.0,0.0478802236363867,1.499987870203256e-07,-0.0333272350234362,5.819761874615242e-06,0.0016858511402973,4.869610567434908,29.29014635640275,16.292313292210977,39.04968351401366
0.47,31.22220860266524,131.01040717804253,6.6178810515614845,4.838450928223533,0.0011247917292402,26.253747818137555,0.0013104398935566,2.6026193242279367,331.0078106302504,16.710658191447514,7.078951441335346,69.77517236812905,8.719457259907165e-05,120.0000998741591,170.9309671061642,1.274,1.025453319323251,0.0,0.0,0.0,0.0491102725711187,1.6384464803343264e-07,-0.0355167087264168,6.3368207228363735e-06,0.0018427306558807,4.838451058652396,28.68386015667837,16.710834873319172,26.382435512333956
0.48,31.222208284201663,131.0104078313267,6.771393590864176,4.869339340099417,0.0011561785713505,25.860860976019296,0.0013165328518772,2.5543454292827983,327.20312230115803,16.911139899671,7.177575416403102,69.75482343794755,9.70562828082882e-05,120.00011062072316,175.0543877818846,1.274,1.0254092882449153,0.0,0.0,0.0,0.0496995461609974,1.7858865391586845e-07,-0.0378054080201581,6.88909442277235e-06,0.0019849793891693,4.869339477030596,28.40887970825325,16.911321511776286,25.986704537635287
0.49,31.22220796480208,131.01040848648364,6.924537656029012,4.881367714530694,0.0011829003785372,32.565703383222065,0.0013261973190012,2.5011623511055703,389.6000096981238,17.169005224738054,7.296160258358563,69.73316318155707,0.0001077573203115,120.000122255028,180.4309832312717,1.274,1.025367445590036,0.0,0.0,0.0,0.05045746454003,1.942747077649401e-07,-0.0401641298712614,7.47069711110948e-06,0.002140948887153,4.881367857509675,28.058569663954906,17.169191034294997,32.66161128464712
0.5,31.222207637929923,131.01040915697027,7.081324512896956,4.862566137860805,0.001202418260511,33.47759680712428,0.0013425340759632,2.4399894027711366,397.970310422106,17.52898693231981,7.450304424940405,69.71015149227495,0.0001193385310595,120.0001348274002,188.0736471953394,1.274,1.0253278572281015,0.0,0.0,0.0,0.0515154948878309,2.109295159784217e-07,-0.0426011733481599,8.084173008518589e-06,0.0023184335011768,4.862566286171007,27.57768313050809,17.529175807738486,33.56639745442473
0.51,31.22220730314019,131.01040984370235,7.24202048914867,4.8479762258125,0.001223054804074,25.49162310288008,0.0013562860883156,2.3767006597692686,323.39843497208153,17.86914397471067,7.597652147346554,69.68574349602717,0.0001318441288964,120.00014838524436,195.4407439266201,1.274,1.025286455263166,0.0,0.0,0.0,0.0525152689856776,2.2858192086249162e-07,-0.0451315948093539,8.734206149830708e-06,0.002503767471626,4.847976379721193,27.13799345359824,17.86933609171003,25.602178740977283
0.52,31.222206962738102,131.01041054193402,7.405210501673173,4.865306299521403,0.0012516517170965,30.733671928447727,0.0013599291289974,2.317711624364424,372.098451184342,18.08534843773428,7.701914987606457,69.65988568649581,0.0001453248538387,120.00016298000436,200.19561780583155,1.274,1.0252426840672306,0.0,0.0,0.0,0.0531507657929359,2.4726951523704535e-07,-0.0477531686556663,9.421346966092632e-06,0.0026812161964639,4.865306460134566,26.8699055233151,18.085545046726228,30.820940596104087
0.53,31.222206619320115,131.01041124632013,7.569307468221277,4.848802699234936,0.0012715119568563,32.301199055744725,0.0013711327835325,2.2490252325653923,386.55624643486095,18.41963113311156,7.8474319110539055,69.6325258319474,0.0001598315062727,120.0001786629144,207.6614205945027,1.274,1.0251993415311351,0.0,0.0,0.0,0.0541332845214831,2.67031759303889e-07,-0.0504479325599339,1.0141887756417996e-05,0.0028848299490111,4.848802865552398,26.45837260670532,18.419830861742675,32.37940050117613
0.54,31.22220626697288,131.01041196903336,7.737918664599091,4.831496690588052,0.0012913635058467,28.31291960103712,0.0013809098107221,2.177242866245296,349.2703242098436,18.75116898748492,7.992112829440902,69.60362200959217,0.0001754082864028,120.00019548734956,215.20067397992847,1.274,1.0251561018460285,0.0,0.0,0.0,0.0551077428911958,2.878941684235108e-07,-0.0532336286085667,1.090122304443916e-05,0.003098869611663,4.831496862756785,26.061835558272342,18.751371834390056,28.396510432451375
0.55,31.222205908994248,131.01041270328463,7.909026079894722,14.193861641631903,17.30827178555825,30.54741720668075,-1.1206419029467845,1.502983954635326,365.2500005919912,21.8890205352718,8.113323699629928,69.57312211246325,0.0001921068626005,120.00021350480982,293.246240929438,1.274,1.025112921033824,0.0,7.519210697837553,0.0,0.0643296876565522,3.0989272306468813e-07,-0.0561100530405476,1.1700476995263424e-05,0.0038128415497007,22.245252871972426,41.161555875709446,24.566634922506456,30.604893351252613
0.56,31.222205546564343,131.01041344664463,8.081909946161325,-11.01494600005648,-16.802899104464164,28.343820988598527,0.5216965670253298,2.623831051741368,346.22656194657776,18.51619443198529,8.24480645417527,69.54097415464405,0.0002099796112633,120.00023276987916,209.8340929144384,1.274,1.0250709539098009,0.0,7.546643356335294,165.0000707061107,0.0544173881854148,3.3296850471894137e-07,-0.0663687823322451,0.0135876122741358,0.0038149611750146,20.00398942838612,13.116578227782512,15.914472308836174,28.46978828389573
0.57,31.222205179969823,131.01041420541662,8.258425056245468,-10.805520188100532,-16.591367791444465,28.01869996024952,0.7158799224729262,2.7309929602705205,343.1828296833045,18.76053566917626,8.382507638568732,69.50294694945941,0.0210379424507234,120.02246589255763,215.40495792634675,1.274,1.0250279191823897,0.0,7.573861694433826,165.0000707061107,0.0551355943416016,3.67792822810866e-07,-0.0605229442259855,0.0041245045365737,0.0035247836126504,19.71657124934642,12.94497192060792,16.190639823595628,28.16058156492748
0.58,31.22220480282808,131.0104149739335,8.43664376564407,-10.615388040227822,-16.400553953604827,36.938871581653856,0.918690273833966,2.842575251242532,426.12500585731766,19.01512910090217,8.516507790704113,69.46826962369326,0.0273147971938481,120.0291679188234,221.28722903841592,1.274,1.024981594484354,0.0,7.601138657571382,165.0000707061107,0.0558839348067245,3.949637910129673e-07,-0.0546193711179041,-0.0054761818970597,0.0032240793433431,19.45669718564129,12.76852804320433,16.473972514893816,37.05947192829559
0.59,31.222204421146817,131.01041575487335,8.617606883880596,-10.351490340024776,-16.09848842327614,29.9018236275452,1.1366876064866358,2.955177149246836,360.68438819710633,19.398113070857217,8.698294564570476,69.43697706896953,0.0189105131252208,120.02019280868886,230.28689300370087,1.274,1.0249386802161349,0.0,7.628199815650246,165.0000707061107,0.0570096102685859,4.1439328511853204e-07,-0.0486464021383174,-0.0152333769705063,0.0029292902963544,19.064992172906564,12.53574705197066,16.90250931740498,30.068990454469724
0.6,31.22220402843057,131.01041655584925,8.803428913742476,-10.174459090175976,-15.919030163406804,26.546277992836945,1.3561030792954891,3.076607858145122,329.4859594986072,19.63981809806149,8.827748470758248,69.40910663357619,-0.0043477526493766,119.9953497297996,236.05729186529257,1.274,1.024891335813742,0.0,7.6552011112736675,165.0000707061107,0.0577200843473843,4.259743789792929e-07,-0.0425618598428699,-0.0252134136486144,0.002594791759516,18.82158527973817,12.376693782372492,17.171310379636125,26.75835209327088
0.61,31.2222036323016,131.01041736198405,8.989757078962114,-10.006811687321376,-15.749987334276154,31.131279266980656,1.5814513605061815,3.2019054192420926,372.0984511843332,19.8676214854994,8.952071979862044,69.38471534336915,-0.0427481102273203,119.95432564543408,241.56081299497427,1.274,1.0248423929069768,0.0,7.682442649471183,165.0000707061107,0.0583897056828421,4.295602861381793e-07,-0.0364178064080784,-0.0353366128334012,0.0022459306485093,18.591887506831803,12.228610469389356,17.424659351544708,31.335438971205722
0.62,31.22220322923477,131.01041818055327,9.178723720438091,-9.795678136126517,-15.513302043816331,38.74557671854122,1.820896054496244,3.33023622516004,442.86563930529206,20.177013429202567,9.106714613043742,69.36382570018591,-0.0964717709589377,119.89692269602916,249.1383671512588,1.274,1.0247996097896497,0.0,7.7092836026750495,165.0000707061107,0.0592991158025868,4.250658393171561e-07,-0.0302212931742717,-0.0455924669387814,0.0018927738536854,18.282695793385383,12.048407366985622,17.769854622625186,38.93103968569311
0.63,31.222202817320543,131.0104190154846,9.371466881388816,-9.543534734509374,-15.21072998054446,21.86257124039748,2.078657225540141,3.463784215410635,286.11251274707456,20.573887896646248,9.29378668137594,69.34645127507497,-0.1656992871507561,119.82294476728198,259.0308842103569,1.274,1.024756158874558,0.0,7.736021704180325,165.0000707061107,0.0604656391764043,4.1241202217126953e-07,-0.0239477034004831,-0.056020663019482,0.0015293292783687,17.896693286699758,11.836292659097518,18.212558832212675,22.23264802477818
0.64,31.22220239570036,131.0104198685674,9.568497312890878,-9.432639748336808,-15.117933444982468,21.44701363415844,2.316873128038828,3.601497475581033,282.3078244179702,20.694135220831274,9.378395933287951,69.33261454832763,-0.2506873868506291,119.73211541447093,262.06266803670223,1.274,1.024708534665538,0.0,7.762829571690917,165.0000707061107,0.0608191753020774,3.9148989157921764e-07,-0.0175706393169843,-0.0666642619168401,0.0011286190927675,17.760868059953903,11.749493828189898,18.346875041857786,21.87036988671712
0.65,31.222201974374528,131.01042071910234,9.7637851446084,-9.283691615259002,-14.965211358481351,38.08053563825426,2.5673684695794585,3.7414547463820966,436.7781447787504,20.88917630532776,9.490637791935336,69.32234747417503,-0.3517746287674463,119.62407182681012,267.02079205602115,1.274,1.0246641738210605,0.0,7.789765653778087,165.0000707061107,0.0613925279330864,3.621744702439646e-07,-0.0111873499258933,-0.0773692323101648,0.0007253588936883,17.5548336727347,11.634010578538676,18.56508371420079,38.34992906087531
0.66,31.22220154442113,131.01042158562504,9.962725271528022,-9.021556906515032,-14.636190771004108,32.33000924471555,2.8560770563945246,3.889236356754,383.5125151715984,21.324802190162234,9.691836905481209,69.31562106674332,-0.4690816055548749,119.49868531785204,278.26858223231034,1.274,1.0246195561629028,0.0,7.816011314891617,165.0000707061107,0.0626729571917558,3.2445120771392485e-07,-0.0047752886693655,-0.0881717365911226,0.0003160681595226,17.141341857019857,11.42377104145049,19.050677153865145,32.688114557957505
0.67,31.222201101886306,131.01042247646708,10.167718365666833,-8.83726184500561,-14.423010108064904,22.1473676051149,3.13438634707024,4.039717230113896,289.15624401033847,21.599393394690395,9.833430513455683,69.31241348056014,-0.6028006804756922,119.35575165445348,285.47541480743075,1.274,1.024572383541697,0.0,7.842303426818842,165.0000707061107,0.0634801193514794,2.782731222525599e-07,0.0017415798035382,-0.0991956062638159,-0.0001167541943514,16.865977842122852,11.286393857512303,19.3576837251015,22.729927076611407
0.68,31.2222006564616,131.01042337140353,10.372893684881932,-8.705254775918478,-14.288250502544171,27.71321183264917,3.401763148148212,4.1900151491577695,340.89999248584934,21.75584914251484,9.931318006971626,69.31273954764791,-0.7533304642119739,119.19484732863307,289.62038379563927,1.274,1.0245245285832842,0.0,7.8689369697810205,165.0000707061107,0.0639400871889727,2.235120472459817e-07,0.0083053514169854,-0.1103482807087801,-0.0005608065179312,16.683995204732902,11.20069019603495,19.534646496708387,28.233850774337473
0.69,31.222200206712863,131.01042427342804,10.579124625031248,-8.516759471382114,-14.062943805509835,34.180190454506835,3.6948689348180737,4.347171714154028,401.0140726853658,22.04154896270853,10.076720526657512,69.31657481185047,-0.9209461458770852,119.01568200675148,297.27108554684054,1.274,1.024479631064582,0.0,7.895139180932989,165.0000707061107,0.0647799050358801,1.6011327157232992e-07,0.0148738328115586,-0.1215612286906814,-0.0010175023170021,16.39624927939403,11.06874704516156,19.85465972004374,34.6530716945004
0.7,31.222199747275823,131.01042519397785,10.78970925183704,-8.302296594321756,-13.79340506278014,28.57819533481471,4.008247821872312,4.511584504438996,349.270324209851,22.39436450811885,10.246632788396456,69.32386464544345,-1.1058355143602978,118.81806000956055,306.8577881251087,1.274,1.0244351749185203,0.0,7.92106635550064,165.0000707061107,0.0658169829676154,8.807243012107426e-08,0.0214847721523372,-0.1328970569837931,-0.0014932451511036,16.05763165524823,10.91726761776434,20.24856943157216,29.208452439954147
0.71,31.222199279698245,131.01042612991543,11.003730174582843,-8.133619514734475,-13.593290931361976,23.38338306333209,4.310408607639541,4.6751604932499,301.3312640634036,22.63611513999022,10.375536333623389,69.33456867872181,-1.3082997264340823,118.60166570238373,313.5122592727544,1.274,1.0243880468141104,0.0,7.947130574160248,165.0000707061107,0.0665276481194798,7.340985930550221e-09,0.0281547203197358,-0.1443842446468348,-0.0019779067126303,15.801448187251156,10.813724455413498,20.520860445485443,24.232609258785644
0.72,31.22219880792284,131.0104270728375,11.218764415295484,-7.9823654842406,-13.418763367442525,28.699401849034512,4.609062314588334,4.838677888747962,350.7922053414578,22.830425914302808,10.486854076604368,69.348648270738,-1.5287018502476424,118.36611854360194,318.91121957706326,1.274,1.024337302174265,0.0,7.973138574673568,165.0000707061107,0.0670988911710383,-8.21475244100737e-08,0.0348434575287551,-0.1559568859868112,-0.0024687606240376,15.575962372425376,10.732717208161157,20.741827790703997,29.467132972571022
0.73,31.222198330628768,131.01042802562387,11.435641213619872,-7.792464208899711,-13.179530481611106,36.39558716541688,4.93429412902111,5.010945613283056,422.3203185282354,23.127213250530566,10.635438205846558,69.36603498241853,-1.7673214794908465,118.11112847484816,327.2497597576568,1.274,1.024292465384646,0.0,7.998866876168409,165.0000707061107,0.0679713189629361,-1.8040697191849453e-07,0.0415315493609491,-0.1675830769003896,-0.0029808225152147,15.275681055192887,10.61981568207781,21.075185942125348,37.06879549710822
0.74,31.22219784457969,131.0104289955003,11.656428803729522,-7.573591362143005,-12.889823310380734,22.55666839286113,5.287164912763943,5.193441063009872,294.4828134710563,23.51061865259372,10.815294179534812,69.38664221675971,-2.0244059697688264,117.83644110142188,338.1828914865153,1.274,1.0242470321640116,0.0,8.024419248891597,165.0000707061107,0.0690983268365215,-2.8742211425933053e-07,0.0482456930342802,-0.1793084200836805,-0.0035200438903606,14.917598788242252,10.482985359640267,21.502925845338016,23.742982792295066
0.75,31.22219734973704,131.01042998279567,11.881211218703708,-7.43637501841428,-12.731190976391112,26.38805073843693,5.5937964018144894,5.36193842087108,330.24688556441737,23.657104346626177,10.90856865812513,69.41038996222117,-2.3002902231148536,117.54170967767864,342.4028060272944,1.274,1.0241984712898409,0.0,8.050034656115079,165.0000707061107,0.0695290284684222,-4.032082378623541e-07,0.0550065982670403,-0.1911691000489095,-0.0040382432062467,14.712877449744957,10.435413143751504,21.673709201456283,27.502184705737253
0.76,31.2221968541128,131.0104309696767,12.104881681907724,-7.2572434406635855,-12.501120219393613,28.40653518015309,5.933482552270804,5.54162617478398,349.2703242098581,23.92676144092702,11.046303108584592,69.43720063329435,-2.595382989200791,117.22650978552896,350.24557334658067,1.274,1.0241522053390697,0.0,8.075655420648678,165.0000707061107,0.0703217372254369,-5.27817091791502e-07,0.0617364468950716,-0.2030337054663557,-0.0045838702911044,14.425889602189386,10.350726311092185,21.97863312324668,29.54398545898011
0.77,31.22219634890349,131.01043197605347,12.333134352199671,-7.07385061137075,-12.261771798899304,26.473617628863742,6.28233688876539,5.725023914508321,331.76876669606884,24.20802263713016,11.187871916607753,69.46694664822778,-2.9099041440407047,116.89061993305148,358.5204478696472,1.274,1.0241065975906936,0.0,8.100766729178654,165.0000707061107,0.0711485586811563,-6.611829464826051e-07,0.0684672612654669,-0.2149573189644622,-0.0051432723630366,14.128813472040427,10.268725285767326,22.29661662037743,27.80460548119537
0.78,31.222195837817235,131.01043299378327,12.563633006416977,-6.902119037972575,-12.039234105320633,21.574829794042472,6.627307903074277,5.907390424480064,286.8734378128874,24.45224268418705,11.315663484869686,69.49950893027379,-3.2441744113486526,116.53371194973732,365.7826302839418,1.274,1.0240588105546735,0.0,8.126009149510772,165.0000707061107,0.071866520193308,-8.032838309632548e-07,0.0751957203606673,-0.2269355309063276,-0.0057055755270945,13.852022708373488,10.205656725925744,22.575009700841434,23.33006112960899
0.79,31.22219532141825,131.01043402167517,12.79603657563068,-6.7473945165892495,-11.843435626811107,30.910554274256647,6.959377900342014,6.08490917675344,373.6203323159581,24.63531506538208,11.421072444128797,69.53475764201619,-3.5985220743400235,116.15545063063072,371.2720302856967,1.274,1.0240083170932772,0.0,8.151119286041437,165.0000707061107,0.0724047700904959,-9.54095161604499e-07,0.0819051420646417,-0.2389401664537285,-0.0062610508851995,13.6067418306617,10.169146217515676,22.78817246069069,32.26331393379906
0.8,31.22219480065597,131.0104350575954,13.029736259782148,-6.546132135044965,-11.566018020024412,31.269621148682567,7.341651518019457,6.2810623427503165,377.42502064505805,24.97918595658825,11.583757208647212,69.5725452181176,-3.9732440931100568,115.75553515691604,381.70056842548655,1.274,1.0239625010683884,0.0,8.17604497867063,165.0000707061107,0.0734156222515119,-1.113571982203742e-06,0.0885720034882992,-0.2509310138415531,-0.0068650380314008,13.268024124748672,10.08682471149228,23.17471383639068,32.72828742766247
0.81,31.222194270339173,131.010436114244,13.268336767664731,-6.356429205573384,-11.30567477917704,20.0139280892785,7.719343194760333,6.475771392736406,273.9374926939922,25.28396393054104,11.731878306046156,69.61270322095771,-4.368584619427429,115.33372188870516,391.0629009669423,1.274,1.0239149950770308,0.0,8.200708015996137,165.0000707061107,0.0743115866568655,-1.281611784671405e-06,0.0952350856017741,-0.2629769159962963,-0.0074713724293025,12.949760326669942,10.025053725752125,23.519574528723584,22.40716831847092
0.82,31.22219373502144,131.01043718094695,13.50879905298788,-6.209839805866086,-11.117598843148452,25.885665555332704,8.049618335449638,6.651810588273256,328.725004432774,25.42344072304055,11.820628467112408,69.65507323616626,-4.784907907717424,114.88963975948104,395.3802001565508,1.274,1.0238644186635044,0.0,8.225519233481583,165.0000707061107,0.0747217227914095,-1.4581821196312944e-06,0.101875672151357,-0.2750463514031091,-0.0080362424609941,12.715248760171068,10.023060918074062,23.688030401199537,27.91255310234464
0.83,31.222193197400408,131.01043825099052,13.74922257067072,-6.025746474649219,-10.862220541039433,33.07125197713303,8.426658037524408,6.845420611889396,395.6875032246518,25.7046323323211,11.959262947870055,69.69947753773761,-5.222537170571492,114.42296218221564,404.1653055655569,1.274,1.0238188483711983,0.0,8.250159118128131,165.0000707061107,0.0755483745285689,-1.643245358252112e-06,0.1084423161329808,-0.2870486477445932,-0.0086486509914175,12.40407544852642,9.983220920600534,24.00860103457208,34.80770110722741
0.84,31.22219265115884,131.01043934053274,13.994179466820142,-5.823015177363203,-10.571546627577822,19.979316667255592,8.834629843403798,7.051057860884428,275.45937482564227,26.06358060263048,12.124730411505924,69.74570417886382,-5.681655147131366,113.9335128496286,415.5221489841237,1.274,1.0237739661568126,0.0,8.274438694453137,165.0000707061107,0.0766035695575171,-1.8366462806593267e-06,0.1149662605402684,-0.2990403313441714,-0.0092967779607276,12.053181724498046,9.927280813364238,24.412411826845165,22.955199757745042
0.85,31.22219209797704,131.0104404458897,14.2426168048511,-5.673009914772752,-10.371964120164838,21.80311120945069,9.168547902836544,7.226393524046805,292.9609323393965,26.19653687119139,12.2100113625777,69.7935469887489,-6.1625394031607055,113.4210146180299,419.7622934420335,1.274,1.0237227741398531,0.0,8.298821008696834,165.0000707061107,0.0769945576495116,-2.038274876383892e-06,0.1214593466614411,-0.3110443250420922,-0.0098717110737668,11.807122254199644,9.949394806523706,24.57619627493324,24.731734521110084
0.86,31.22219154404372,131.0104415508188,14.48994920196296,-5.500777277973875,-10.130845906575862,27.49710555881297,9.534267570064284,7.413471761143746,346.2265619465616,26.42133157395083,12.327051884561856,69.84279519228942,-6.665507468043272,112.88514797629172,426.9870921791096,1.274,1.023674789281455,0.0,8.323192691117928,165.0000707061107,0.0776554711727013,-2.2480983426782246e-06,0.127856335743876,-0.3229434709437112,-0.0104805543006107,11.514182639216564,9.950531834164773,24.83826109058074,30.032526296722995
0.87,31.22219098293888,131.01044267265365,14.741066039811628,-5.311243841088312,-9.856681154551769,25.4339079956652,9.92948416503,7.611723920200997,327.9640783669946,26.722064771200465,12.469949608448328,69.89319883542944,-7.190683175049635,112.32579979962811,436.75199276983216,1.274,1.0236288969245204,0.0,8.347078262895508,165.0000707061107,0.0785395847298177,-2.465929143673405e-06,0.1341737547280393,-0.3347684314785117,-0.0111233194425584,11.184117391515306,9.936573985448655,25.181406494916608,28.344605708192585
0.88,31.22219041579732,131.01044380899032,14.995280148049437,-5.133630017979876,-9.601715844273771,21.71629941961621,10.30540987454855,7.80111537730008,294.4828134710421,26.96579252368718,12.592317594367548,69.94450690458949,-7.738235047283228,111.74280903941776,444.7445606953152,1.274,1.0235805388426191,0.0,8.370988294501426,165.0000707061107,0.0792561592594615,-2.6915991006194846e-06,0.140421611509504,-0.346539274731637,-0.0117471729506045,10.87657130807507,9.948374202905098,25.464608054133816,25.271654759726633
0.89,31.22218984480165,131.0104449539664,15.250940010267383,-4.963826356286583,-9.359054328371752,23.85296845036495,10.66439474063308,7.982250269499083,315.02813424808807,27.166125322861703,12.699051711641388,69.9964636530268,-8.308357154753363,111.13598701568068,451.366169012683,1.274,1.0235293752791452,0.0,8.394853971492386,165.0000707061107,0.0798451951228943,-2.9249863695784366e-06,0.1465781772115782,-0.3582170364413172,-0.0123530037939703,10.583563933607923,9.981624136016174,25.70253740431269,27.32050033295632
0.9,31.222189269717383,131.01044610841495,15.508279428160971,-4.783418981822584,-9.094866582882688,26.39681089304417,11.042754266400776,8.170157852697226,339.3781423542166,27.41748637133005,12.822699534874118,70.04879525281488,-8.901167405520477,110.50522548985668,459.7461956922408,1.274,1.0234837388140003,0.0,8.41852133604848,165.0000707061107,0.0805842157944045,-3.165937221507492e-06,0.1526257437995806,-0.3697697711911667,-0.012981361819161,10.26669884117321,10.007629122017526,25.99485997808359,29.757108838884832
0.91,31.222188689196148,131.0104472768392,15.768557416825372,-4.5976337625794885,-8.818434353680614,19.60627623081568,11.432653551861604,8.361625195774943,277.7421810230785,27.697247949497967,12.955299267997653,70.1012126723859,-9.516714200018692,109.85048925868657,469.1646194211178,1.274,1.023436404813438,0.0,8.4420152890504,165.0000707061107,0.0814067172311,-3.4142429274961545e-06,0.1585676520916904,-0.3812050586385822,-0.013624017221174,9.936587644483025,10.033519921949502,26.31751391937353,24.187360558576046
0.92,31.22218810378598,131.0104484581666,16.03146786621902,-4.43046944288043,-8.575178660590622,23.54744728139584,11.774325137950717,8.531184065102275,315.0281342480675,27.865559287955897,13.049221180506075,70.15342076908125,-10.155038899725568,109.17174942249888,474.8720172168392,1.274,1.0233859136578225,0.0,8.465451421217818,165.0000707061107,0.0819016545858898,-3.669702683391639e-06,0.1644014326359797,-0.392519823209708,-0.0142107292687136,9.644475605507282,10.101812454438946,26.52359641195867,27.674864181725436
0.93,31.22218751601444,131.0104496445376,16.294811273413057,-4.247205208995873,-8.299273930988983,28.22672570956296,12.1528661393868,8.71476433353449,359.16250706547066,28.12696989287072,13.174001613592315,70.20511614650081,-10.816154280605147,108.46900608282112,483.8112505094665,1.274,1.0233407575091376,0.0,8.488801204035642,165.0000707061107,0.0826702307935861,-3.932165360992761e-06,0.1700952688648492,-0.403654603379696,-0.0148404545212906,9.316132106910835,10.149992635743532,26.827876940029224,31.943501953821556
0.94,31.22218692251545,131.01045084753306,16.56182070764983,-4.055967784636108,-8.005794410798105,19.8469053652084,12.55266283582446,8.905842109805649,283.06875048378083,28.439712823223847,13.315174775831494,70.25597753692587,-11.4999431050199,107.7423958719098,494.6173464807956,1.274,1.0232914783978162,0.0,8.511872347339658,165.0000707061107,0.0835896904257746,-4.2013556579404045e-06,0.1756602331303358,-0.4146320141707057,-0.0154959977541752,8.968633259756638,10.191151315845122,27.186253594917694,25.115394094662623
0.95,31.22218632429328,131.01045206469888,16.831803305723735,-3.8861635196460727,-7.751920081882797,26.174183208785408,12.88417009267253,9.065907857420545,342.421873617488,28.60675307692149,13.40672399320997,70.30568246736519,-12.206294031828396,106.99204717019134,500.4316899509876,1.274,1.0232418269359267,0.0,8.53495049790755,165.0000707061107,0.0840809094281686,-4.477024354477773e-06,0.1810969960367366,-0.4254555211110206,-0.0160690216647969,8.66615493020682,10.285346608692151,27.3927958542806,30.549638146845876
0.96,31.22218572435177,131.0104532854645,17.101813789384828,-3.696837556849747,-7.457413150887494,25.469186974106563,13.273972295465274,9.24913214919987,337.09533515678265,28.91050978891275,13.54303109036672,70.35390357315397,-12.935065340958747,106.21811845988776,511.1023839222594,1.274,1.0231951201821403,0.0,8.557973027640895,165.0000707061107,0.0849739694061299,-4.759015757153676e-06,0.1863689844096946,-0.4360547866592225,-0.0167119739057944,8.318794157578166,10.34572334496969,27.742406679610536,30.173237664131133
0.97,31.222185118475355,131.01045452619147,17.37640204362917,-3.5129366472365287,-7.1716116070775024,15.33266754781121,13.641729953351604,9.420946265961456,245.0218871929888,29.17416222865315,13.665095867010184,70.40029831981926,-13.685951689508345,105.42093955056905,520.4532695921109,1.274,1.0231476260761452,0.0,8.580691317994502,165.0000707061107,0.0857491641433516,-5.046987264615795e-06,0.1914927903514647,-0.4464643530258172,-0.0173275726573359,7.9817420200702305,10.426968668900196,28.05058734075692,22.58188917690472
0.98,31.222184509745883,131.0104557759321,17.652518420903807,-3.3467520304873606,-6.919683390711478,23.306774839847808,13.933718000696556,9.557924853109656,319.593746642963,29.29234855890397,13.738567098739791,70.44452703246493,-14.458662105135856,104.60082224649383,524.6646738767645,1.274,1.0230935628253934,0.0,8.60349085788288,165.0000707061107,0.0860968075295624,-5.340705820547228e-06,0.1964512887251027,-0.4566523778484131,-0.0178477907689903,7.682984126489248,10.561352658150362,28.208047606756207,28.787291957667524
0.99,31.2221838995338,131.01045702890457,17.928561396332313,-3.159837711107865,-6.623509816768604,25.5666116658626,14.301121595705869,9.725302914957895,341.66094855170127,29.580841547869426,13.866967341516231,70.48624365402777,-15.252800245285872,103.7581872773072,535.0359617486714,1.274,1.0230490803133316,0.0,8.626115729089813,165.0000707061107,0.0869450241844704,-5.6399794351990725e-06,0.2012123576343911,-0.4665548740403646,-0.0184598875708901,7.335593403237055,10.650277734736887,28.542738841038343,30.86673335090506
1.0,31.22218328408377,131.0104583024064,18.20931989856812,-2.9737694548587386,-6.326916494669573,22.445106923388696,14.660995832252237,9.88719223804857,314.2672081822764,29.86516461082521,13.992961463600391,70.52509486881529,-16.067802800390094,102.89362935853202,545.3559281343662,1.274,1.022999484445133,0.0,8.648439983547062,165.0000707061107,0.0877809943669643,-5.944389413949161e-06,0.2057949875380517,-0.4762128566230179,-0.0190612716893155,6.988361533247468,10.74834711159862,28.87335342032484,28.574187546591705
1.01,31.22218266595285,131.01045958629723,18.491978814556177,-2.794015406888753,-6.0411467224987065,23.45855497396795,14.985798015763349,10.031546885377434,324.92031610370094,30.09354144689104,14.099950298774312,70.56073450299597,-16.903121199403422,102.00772416331418,553.713383743833,1.274,1.0229507481225095,0.0,8.670854041580657,165.0000707061107,0.0884525316325888,-6.253642618919201e-06,0.210188548911434,-0.4856071927375152,-0.0196165544109386,6.653797488249514,10.871465089254844,29.146357615267988,29.58901614703434
1.02,31.222182045426685,131.01046087952065,18.776246111619063,-2.61127946150376,-5.746825694222161,18.920275375498026,15.318952145648124,10.177072990737429,284.59063161543185,30.35424656605376,14.216400326185695,70.59281717650194,-17.758112974956973,101.10114346768928,563.3333733732751,1.274,1.0229039803623294,0.0,8.693129807232143,165.0000707061107,0.0892190961076427,-6.5674686179164365e-06,0.2143760063910423,-0.4947039345424184,-0.0201801389777503,6.310459662831016,10.991570596212048,29.45305012292292,26.38597979579556
1.03,31.222181421809186,131.01046218672295,19.063400588851888,-2.4349321482576234,-5.4644772031770925,14.710213523592952,15.60607265933786,10.300079932354164,247.3046933904342,30.5440341322086,14.30936423169192,70.62099961149293,-18.632012835220795,100.1746856607178,570.3840607522293,1.274,1.022853416101322,0.0,8.715246891764194,165.0000707061107,0.0897772224591555,-6.885515298568592e-06,0.2183526554780814,-0.5034956240470456,-0.0206824229819847,5.98092101000702,11.141548687060792,29.686976744046955,23.79141719971962
1.04,31.22218079650285,131.01046350093915,19.351519747652887,-2.2614951714341145,-5.186855482660118,25.242418795190822,15.861690790683184,10.406800376519785,345.4656368807608,30.69531882069669,14.389395926930389,70.64494511047849,-19.523977769430694,99.22922779960216,576.0323409582913,1.274,1.0228049544826707,0.0,8.737306642263334,165.0000707061107,0.090222182615897,-7.207500306098218e-06,0.2221008470530497,-0.5119462557167315,-0.0211410662419467,5.657194529067441,11.310762929527971,29.88168185868947,31.576485482836414
1.05,31.222180169387894,131.01046482334817,19.640927953035952,-2.074626350761773,-4.8764550063417245,13.648709012998452,16.20270473108685,10.547825521253772,240.4562587980608,31.026510033430124,14.524997118143078,70.66432405819191,-20.43303525150681,98.26578047716288,588.5133963766262,1.274,1.022755494436122,0.0,8.759162773082489,165.0000707061107,0.0911959446300844,-7.533099545394467e-06,0.225608783620162,-0.5200314955292197,-0.0217060791947911,5.298442172447517,11.427030443270828,30.26144271225596,23.665830252731507
1.06,31.22217953894989,131.01046616662447,19.935099534277537,-1.9038543835265551,-4.6015534465685,20.868240120451567,16.41148883597456,10.628769496125855,308.1796836557233,31.133996698754498,14.589823036118736,70.67881782390599,-21.358104078170378,97.28546573048872,592.5813483660085,1.274,1.0227013895379469,0.0,8.780844603319379,165.0000707061107,0.0915121829926316,-7.861796263246485e-06,0.2288876666771709,-0.5277806032112569,-0.0220972102617691,4.979072063731988,11.623648969263856,30.411963151245107,28.597047968976053
1.07,31.222178908485457,131.01046750711055,20.227541781319253,-1.7227505173829305,-4.299507219970385,25.100393721041463,16.698794452744053,10.740861922949868,348.5093681440431,31.40883221496546,14.705709637513996,70.68812196157761,-22.298090764922268,96.28941494519624,603.0726156091844,1.274,1.0226540159946436,0.0,8.802612803377363,165.0000707061107,0.0923203119067101,-8.193425463169898e-06,0.2319066541002629,-0.5351244011130215,-0.0225856702066146,4.631204862322562,11.76946561767836,30.734100861372784,32.003837519493935
1.08,31.222178275232,131.01046886881423,20.52483112912393,-1.5409454306038697,-3.993179555060708,15.401019646043668,16.990405214013315,10.851773995478462,261.0015785751465,31.712834377367663,14.82942566406112,70.69194637207998,-23.251716916851272,95.278951975431,614.7856860949478,1.274,1.0226061614050743,0.0,8.823988110459178,165.0000707061107,0.0932141813674093,-8.527449550554297e-06,0.2346742949000185,-0.5420863994096795,-0.0230757679509207,4.279737117728715,11.910803170230402,31.086094861339888,25.36979058492869
1.09,31.222177640614195,131.01047024274345,20.824496215989853,-1.3686115837609991,-3.70825444875292,13.664071393946728,17.17668103894024,10.914226428253334,246.54375332456465,31.85250527852914,14.901992927793428,70.69001905816027,-24.21768691447287,94.2554156103619,620.1950866338224,1.274,1.0225512795791307,0.0,8.845456461989427,165.0000707061107,0.0936250354856043,-8.863460376312562e-06,0.2371832351146918,-0.5486542391579446,-0.0234245181903283,3.952421096610768,12.113155973686869,31.270420607127576,24.51255917075053
1.1,31.222177005500825,131.0104716190412,21.123847210962246,-1.1953728471362828,-3.4188952431416983,31.672518052387336,17.361043517112265,10.972858101943228,413.1890617384087,32.01631870372193,14.981181110249896,70.68208683652374,-25.194628049047736,93.22022329585816,626.5726451996292,1.274,1.0224981043155532,0.0,8.866836337056604,165.0000707061107,0.0941068551434528,-9.20122883682219e-06,0.2394140773745942,-0.5547809720505315,-0.0237657581146312,3.6216107645702023,12.311889944549243,31.479598537057534,37.74861383822257
1.11,31.222176369247503,131.01047300733765,21.425510165549863,-1.0124403696893705,-3.0987404780152743,21.79663112080736,17.69043556627401,11.09042908696769,324.1593910379213,32.46016626598219,15.143587389327038,70.66791989728148,-26.1810362748684,92.17492896332496,644.0469654060745,1.274,1.0224548851875197,0.0,8.887940049363097,165.0000707061107,0.0954117989456008,-9.540326233837432e-06,0.2413625797240301,-0.5604586322803282,-0.0242906250738265,3.2597896294989464,12.416506196363702,31.97365450497468,30.183476540552768
1.12,31.22217573157881,131.0104744228244,21.733605718068905,-0.8396688456521065,-2.804364397516826,5.117697327724213,17.87025975310928,11.140462150558845,172.7328179403806,32.66812066036505,15.234170277885369,70.64731302895777,-27.175351220523886,91.12114395155336,652.306202971492,1.274,1.0223979224661404,0.0,8.908957800080083,165.0000707061107,0.0960233835927853,-9.880052036697873e-06,0.2430349696706571,-0.5657149759512735,-0.0246149001510026,2.9272752404560998,12.608008625380386,32.227787993983924,21.67133836452717
1.13,31.22217509395108,131.01047583714237,22.04042102660944,-0.6731173573932399,-2.5273478682799952,26.215786226108108,17.917616547377715,11.130881227190391,367.5328077894322,32.67726659851096,15.265139235827256,70.62008274657181,-28.176023034880394,90.06046657796665,652.6522664543204,1.274,1.0223460397860296,0.0,8.930172563683943,165.0000707061107,0.0960505993503378,-1.0220254504310872e-05,0.2444111160484959,-0.5704961478192951,-0.0247604787012206,2.615392957121565,12.874153332002036,32.280400452644244,33.64825325459975
1.14,31.22217445596877,131.01047725200516,22.346432939418207,-0.4981585214211009,-2.2168657565645744,12.101215194897982,18.1801801435736,11.209477815598284,239.6953177322812,33.087516442491214,15.413586320952824,70.58607653345977,-29.18138225795917,88.99462060084643,669.1230380489642,1.274,1.0223022138470996,0.0,8.951054022472837,165.0000707061107,0.0972568115582584,-1.0560739222227585e-05,0.2454800820215517,-0.574766079370558,-0.025180249325847,2.2721205614956106,12.998202665300896,32.73937886159515,24.548131337118264
1.15,31.222173817824,131.01047870007793,22.66047599806147,-0.330580057839178,-1.9310397216274884,11.699361453941489,18.24144825943957,11.199166266362328,237.4125115347709,33.182602688393295,15.468588975356097,70.54517590141924,-30.1896829793916,87.92541010160491,672.9540894615625,1.274,1.0222426194541194,0.0,8.971644593886586,165.0000707061107,0.0975366518998191,-1.0900618345219316e-05,0.2462462889155714,-0.5785582585621578,-0.0253306676696018,1.9591212826027031,13.239808261297682,32.87933309943769,24.393581493774356
1.16,31.222173179682525,131.0104801387172,22.97100998946471,-0.1634639459763232,-1.6412115382997496,39.13320784504202,18.322380708479443,11.193939459169732,490.043774385954,33.343791408704845,15.542219178276044,70.49728561278573,-31.199223362819843,86.8545922343895,679.4876215768961,1.274,1.02219674531104,0.0,8.992534823751495,165.0000707061107,0.0980107920681745,-1.1239842062905156e-05,0.2466973570892282,-0.5818263439765765,-0.0254995795316517,1.6493297021952598,13.45889453179037,33.086025756374944,44.63655308920342
