Time,Latitude,Longitude,Altitude,Angle of Attack,Angle of Sideslip,X-Acceleration,Y-Acceleration,Z-Acceleration,Thrust,True Velocity,Ground Velocity,Pitch,Roll,Yaw,Dynamic Pressure,cp,parachute_deploy_gain,Wind Speed,Mach,omega_x,omega_y,omega_z,Cmq,Angle of Attack(total),Angle of Attack(gust),True Velocity(gust),Acceleration
0.0,31.222186000000004,131.010384,3.000000003643237,0.0,0.0,0.0,0.0,0.0,2.2828121974499247,0.0,0.0,69.99999999623421,0.0,113.69999999388332,0.0,15.288,0.0,0.0,0.0,0.0,0.0,0.0,-0.0,0.0,90.0,0.0,0.0
0.01,31.22218600000153,131.01038399999584,2.99999882256592,0.0,0.0,0.0,0.0,0.0,34.24218696174923,7.502283530665459e-11,7.190531319924593e-11,69.99999999623329,-4.83564628150269e-13,113.69999999388072,3.446445726795683e-21,15.288,0.0,0.0,2.204725565824978e-13,-3.659182332138578e-19,7.589415207398531e-19,4.811147140404426e-19,-1.5108918610345807e-31,0.0,89.9999999995224,7.502283530665459e-11,0.0
0.02,31.22218600000288,131.01038399999217,2.999997775701936,0.0,0.0,0.0,0.0,0.0,25.871876237766408,1.5320717031631675e-10,1.4674636035870463e-10,69.99999999623222,-9.67129256300373e-13,113.69999999387804,1.4372842949972735e-20,15.288,0.0,0.0,4.5023593667086093e-13,-7.284483346386986e-19,1.5178830414797062e-18,9.757819552369542e-19,-6.170906918166791e-31,0.0,89.99999999902465,1.5320717031631675e-10,0.0
0.03,31.22218599928065,131.01038400193067,3.000201659671132,18.81500467334555,-0.00012974450181,11.96616230539064,-1.8916256735984712e-05,3.349833086198469,180.34219359854663,0.0882870268161719,0.0553390044312322,69.99999999799445,-4.212591857125379e-12,113.69999999488518,0.0047728553458352,15.288,0.0,0.0,0.0002594525584132,3.2187251995663407e-17,-7.20264389268894e-10,1.2365134327422308e-11,1.6874092354518158e-13,18.815004673776716,89.46786891739345,0.0882666465974854,12.426199017587786
0.04,31.22218599548236,131.0103840121632,3.001799604587872,9.46752327608497,-4.6177622759613696e-05,55.21900012092241,3.931876292165237e-06,3.349616504302861,548.6359724538078,0.3767519978512604,0.1853356633749705,70.00000000507204,-2.4624598767003407e-11,113.70000000019972,0.086915163246288,15.288,0.0,0.0,0.0011071759353184,1.6174128009138757e-15,-1.3693172015529268e-08,2.7753303060112748e-11,1.3689612277852356e-11,9.467523276196548,87.63554493451223,0.3767447442872393,55.32050167054111
0.05,31.222185984749512,131.01038404118162,3.00777936418888,5.376730308971262,-2.257790939128127e-06,80.28807156553681,5.266841443842784e-05,3.348887800834877,761.6984298824644,1.018787885905993,0.4366201147110198,70.00000000894464,-1.1355399380652658e-10,113.70000001523856,0.635552918586145,15.288,0.0,0.0,0.0029939522895272,1.6418815498809788e-14,-9.32122351075408e-08,4.303264669380585e-11,2.5199270302492604e-10,5.3767303089717045,83.57022052969386,1.0187875312530217,80.35788377762394
0.06,31.22218596447235,131.01038409608267,3.0201664202003013,4.296730121134882,2.4863835723705905e-05,60.21296515808257,0.0001057204249726,3.347700952379021,590.4875390737208,1.721098934225416,0.7081674028809783,69.99999995523842,-3.0560354507026086e-10,113.70000004366592,1.8138247671743823,15.288,0.0,0.0,0.0050578622752421,8.328976953118383e-14,-3.2824985336199985e-07,5.923438275930214e-11,1.4991363363716091e-09,4.296730121206683,79.20467073327266,1.7211028398275985,60.305955550063224
0.07,31.22218593493329,131.01038417609837,3.038741944736831,3.8204913578752526,4.8016684030909405e-05,91.4060317508128,0.0001597686613101,3.346072557365335,855.2937749779139,2.4375792548422868,0.9844712334613328,69.99999973536046,-5.939103491363046e-10,113.7000000850886,3.6383156301599167,15.288,0.0,0.0,0.007163413150771,2.709313825263564e-13,-7.906546256197275e-07,7.920022733617308e-11,5.114174483651565e-09,3.820491358176508,74.87999294483174,2.437586797285377,91.46725557277466
0.08,31.222185894468456,131.01038428575305,3.0647976109320942,3.588632851766762,7.220043782492885e-05,19.18449428359557,0.0002119618497595,3.3440615022685813,241.2171988638848,3.1292508166901074,1.2522236515868983,69.99999919480445,-9.914748373602156e-10,113.7000001418522,5.996012698481753,15.288,0.0,0.0,0.0091960591623389,6.80386533246681e-13,-1.5973238302190878e-06,1.0839624626357699e-10,1.3263625118823921e-08,3.58863285249208,70.86684630658345,3.1292621579083604,19.473766155861934
0.09,31.22218584634549,131.01038441616095,3.0957981580345013,3.551302481506045,9.685468678862004e-05,57.102946699906326,0.0002554087225869,3.341892818148368,563.0937377043176,3.701810007254615,1.479132491047967,69.99999812344194,-1.4359264356978275e-09,113.7000002093888,8.390904013834115,15.288,0.0,0.0,0.010878666406854,1.440096519545733e-12,-2.748643691533636e-06,1.5214952332699618e-10,2.6999776649034504e-08,3.5513024828250237,67.68737872952666,3.701825221153239,57.20065357568538
0.1,31.222185790329306,131.01038456796124,3.1319266121977414,3.608446747536112,0.0001234669721807,54.26147302645416,0.0002914860332524,3.3396271157106168,538.7437595981919,4.174070299823608,1.6716491241860567,69.9999963052332,-1.902380107712657e-09,113.70000028805804,10.668380938744466,15.288,0.0,0.0,0.0122665227999911,2.687800116751415e-12,-4.315796035622946e-06,2.1749089204950437e-10,4.7802076800548326e-08,3.608446749645647,65.17160335282355,4.174089693970246,54.36414778470795
0.11,31.222185727066616,131.0103847393952,3.172681775073216,3.633547373470009,0.0001485939126744,42.987553988990406,0.0003293995000288,3.337005588796181,442.8656393052949,4.672024955140527,1.8729475711242067,69.99999349387662,-2.3433348587116544e-09,113.70000037699285,13.365573690709628,15.288,0.0,0.0,0.0137298902182575,4.5789425819531184e-12,-6.340230783164189e-06,3.1157625832417107e-10,7.860218435507205e-08,3.6335473765043056,62.62546922225161,4.672048296217748,43.116880735560244
0.12,31.22218565692512,131.0103849294629,3.2177790417108385,3.650108937861461,0.0001727442530266,46.86777100765684,0.000367618259785,3.334068179146888,475.58594813540446,5.17479364099247,2.0758708919414386,69.99998941286465,-2.702771525550512e-09,113.70000047573096,16.396890189902592,15.288,0.0,0.0,0.0152074069417046,7.288473386564583e-12,-8.86736416607888e-06,4.42271554299792e-10,1.217615295152289e-07,3.6501089419435786,60.16906436414164,5.174820775596283,46.986210423745625
0.13,31.222185580265183,131.0103851371844,3.2669395832841857,3.7280113734654137,0.0001995014041665,51.64515456841877,0.0003986198234033,3.3311573548369657,515.9156326236895,5.579364582999854,2.2451120211463422,69.99998375846928,-2.9114380666036422e-09,113.70000058383452,19.060875702782603,15.288,0.0,0.0,0.0163963474924215,1.100846422415094e-11,-1.1941028436408576e-05,6.179653149059831e-10,1.7678562106638216e-07,3.728011378795934,58.279338776943774,5.579395920607139,51.75247433579817
0.14,31.22218549718016,131.01038536230575,3.320091807147376,3.768719651034081,0.0002242721760019,48.1660778383537,0.0004326225136175,3.32784677779744,486.2390860568404,6.025734265159953,2.428648685938864,69.99997621008868,-2.890941335368725e-09,113.70000070125378,22.232643351545065,15.288,0.0,0.0,0.0177081261985351,1.5941871344608664e-11,-1.560901486259027e-05,8.477542742712431e-10,2.495765160917323e-07,3.7687196576976176,56.27980129251342,6.025769493750979,48.280903250602165
0.15,31.22218540777004,131.01038560455507,3.377159065217065,3.821894709649632,0.000249725644238,46.56959330999435,0.0004643042952466,3.324387732286376,472.54218587214,6.441023336496372,2.6014999612196745,69.99996641132823,-2.546763407193136e-09,113.70000082794672,25.402620271850456,15.288,0.0,0.0,0.0189285691155931,2.2314099732464315e-11,-1.992367942778425e-05,1.1417519574710292e-09,3.4051816697623295e-07,3.821894717796148,54.501255563441134,6.441062563308839,46.68809885900716
0.16,31.22218531193176,131.01038586421257,3.4382223512025254,3.8463320955387794,0.0002733212404609,36.974247749122085,0.0004987816203583,3.3205066466509234,391.1218908297564,6.895451966878468,2.7877331692857847,69.99995397923414,-1.77088415515292e-09,113.70000096417354,29.113317717489338,15.288,0.0,0.0,0.0202640360420561,3.0367358387834494e-11,-2.4945905791363795e-05,1.5114297685186711e-09,4.5643121540033697e-07,3.846332105235269,52.641145594326446,6.895494900078523,37.12304892183151
0.17,31.222185210004127,131.010386140357,3.503019838429153,3.8860314262554336,0.000297865039677,46.520531453299206,0.0005306403365217,3.31650761597812,471.78125980632376,7.314788342774694,2.9619016331667103,69.99993849340957,-4.3039914767238207e-10,113.70000110959404,32.761746921137856,15.288,0.0,0.0,0.0214963781445172,4.0366633128431416e-11,-3.0713078585132897e-05,1.96747427715988e-09,5.961228045584824e-07,3.886031437653654,51.00464968745696,7.314835131305714,46.63860064094784
0.18,31.22218510147516,131.01038643438045,3.571950002194137,3.9107265153396016,0.0003214293682635,38.895647526122765,0.0005639254295027,3.312149448254175,407.10156721191447,7.754626295791602,3.1430587898572058,69.9999195084231,1.6149322372810674e-09,113.70000126508234,36.81988229018681,15.288,0.0,0.0,0.0227889722876034,5.2593391349219385e-11,-3.731786027786564e-05,2.525509173087448e-09,7.6786585232224e-07,3.9107265285284982,49.36615848311875,7.754676785798701,39.036415444581515
0.19,31.222184986476247,131.0103867459258,3.644912152926752,3.920599115663931,0.0003437679584038,43.86258669386953,0.0005989384366483,3.307389681300437,448.9531328318269,8.219206165926856,3.332657190859447,69.99989653019398,4.538529095696477e-09,113.70000143063515,41.36350714675367,15.288,0.0,0.0,0.02415428010977,6.735860419174937e-11,-4.481243905342629e-05,3.199401151670645e-09,9.773118416308382e-07,3.92059913071168,47.71893898797248,8.21926016487149,43.987104227715655
0.2,31.222184864792144,131.01038707557822,3.722074668489528,3.943376465171875,0.000367328732016,40.28070981710589,0.0006315894240138,3.30251450988504,418.51563019916136,8.65238089736321,3.511445117640573,69.99986902534273,8.534090245934178e-09,113.7000016067622,45.83799876721736,15.288,0.0,0.0,0.025427299120469,8.499785987217288e-11,-5.328041996372527e-05,4.006766070954748e-09,1.2232205148646746e-06,3.9433764822533854,46.2587826635041,8.652438597225508,40.41586552155969
0.21,31.22218473678744,131.01038742234647,3.803156063113743,3.9664546506877016,0.000390962054969,38.67679184347145,0.0006636984664108,3.297405915846789,404.8187610144644,9.079179692250786,3.688002035198235,69.99983642883521,1.3827831253856693e-08,113.70000179318536,50.47126980736161,15.288,0.0,0.0,0.0266815841422463,1.0586558589671407e-10,-6.275155280099118e-05,4.961340042512481e-09,1.5117124669161171e-06,3.9664546699249135,44.88773728276958,9.079241104426773,38.817098210937615
0.22,31.2221846022986,131.01038778667507,3.8882846911135607,3.956175711337521,0.0004112685792646,46.713636108302936,0.0007011135033803,3.291572407481395,472.5421858721365,9.580256326712124,3.889976788904857,69.99979815126248,2.0662823443484168e-08,113.70000199039316,56.195522894218605,15.288,0.0,0.0,0.0281541581291438,1.3033127211465288e-10,-7.330053770532661e-05,6.0817207473359025e-09,1.8632831045819008e-06,3.956175732680424,43.35679625546934,9.580320928629488,46.8294591882524
0.23,31.222184460898035,131.01038816972698,3.977794004014759,3.9879066397329104,0.0004360962274406,38.89105719050748,0.0007308686121188,3.286096544282012,406.3406421461021,9.977039034039262,4.056142701351626,69.99975353557706,2.9316661139418326e-08,113.70000219928508,60.9462612310605,15.288,0.0,0.0,0.0293202403623685,1.5880617816859538e-10,-8.505067486192354e-05,7.393319440773217e-09,2.2514912291167663e-06,3.987906663538912,42.20670487756048,9.97710753587448,39.0296395118868
0.24,31.222184313516166,131.01038856897196,4.070963590490852,4.003523997322975,0.000459165577055,40.0792299321398,0.0007630441688766,3.280134925833028,416.2328240017114,10.408422364424831,4.234121060914368,69.99970190737699,4.010976417051318e-08,113.70000241888,66.32994780718496,15.288,0.0,0.0,0.030588009649109,1.91711512587616e-10,-9.795845222523724e-05,8.904557280909524e-09,2.7052895870113487e-06,4.003524023611085,41.011349410369874,10.408494489985014,40.21323112692186
0.25,31.22218416001652,131.01038898478134,4.167901030441617,4.0261356185860135,0.0004830526730531,41.17760020658354,0.0007934613160587,3.2740610008587527,425.36408079150686,10.816813039390448,4.4041629376391525,69.99964258149416,5.3372865854010094e-08,113.70000264972064,71.63651430352668,15.288,0.0,0.0,0.0317882126436337,2.2947426169209347e-10,-0.0001121037688082,1.0637152702866709e-08,3.217380562698304e-06,4.026135647516394,39.93186687113378,10.816888917126896,41.30755663120434
0.26,31.222184000702686,131.0103894163294,4.26837241014618,4.053359329950934,0.000507503069958,44.80261175215926,0.0008224724146494,3.2678597736729302,455.8015834241788,11.207047269494833,4.567925492611352,69.99957484039399,6.947299261165984e-08,113.70000289176392,76.89781807056055,15.288,0.0,0.0,0.0329350617559806,2.7254099134167665e-10,-0.0001275114371842,1.260720913253598e-08,3.7915697709142366e-06,4.053359361668992,38.945390435244384,11.207126987890645,44.921630958721536
0.27,31.22218383516388,131.01038986473338,4.372698316214008,4.0614460923241,0.0005296455772492,41.029837477288126,0.0008548809954683,3.2610328932384265,423.84219965987256,11.645685385842508,4.748226940060522,69.99949794024376,8.879821051920497e-08,113.70000314600205,83.0342688744587,15.288,0.0,0.0,0.0342241635563461,3.2137296827284217e-10,-0.0001442952656441,1.4842505534226832e-08,4.458527942364847e-06,4.061446126801262,37.8838346421185,11.645768582375233,41.15922617924542
0.28,31.222183663504484,131.01039032970942,4.48079961904222,4.081133040992532,0.0005533279247169,47.27661484082626,0.0008845140695959,3.254218495915602,476.3468732012221,12.047344998676092,4.915789434712848,69.99941106884992,1.1178948978424788e-07,113.70000341275257,88.85982357848233,15.288,0.0,0.0,0.0354045979054623,3.764736350660473e-10,-0.0001625146963723,1.7365685655384934e-08,5.194620655212288e-06,4.081133078439725,36.956255322213885,12.047431915223257,47.38848224631549
0.29,31.22218348566054,131.0103908114315,4.592727908358551,4.1001100265020245,0.0005770279952742,37.989969791857405,0.0009138463939581,3.247164755122801,397.97031042211177,12.446314684600782,5.082367374004485,69.99931338876085,1.3891902435864665e-07,113.70000369260468,94.8417675268915,15.288,0.0,0.0,0.0365771315767517,4.3836067907166327e-10,-0.0001822432988888,2.0202163500922312e-08,6.018074062137429e-06,4.100110067036654,36.07377590258778,12.446405323946324,38.12849176886316
0.3,31.222183301933686,131.01039130907952,4.708251093558373,4.112858061667493,0.0005998635114143,35.655053282557844,0.000944131403186,3.2397207148238625,378.1859457108711,12.860033399289696,5.253940723820665,69.99920403105713,1.707002607527005e-07,113.7000039856728,101.2505662360602,15.288,0.0,0.0,0.03779301412572,5.075709863465428e-10,-0.0002035013069687,2.3370674033523645e-08,6.94335970778e-06,4.112858105337573,35.19685285507256,12.860127625629724,35.80193592228613
0.31,31.222183112488807,131.0103918222051,4.827243246502713,4.136140889545823,0.0006242383343011,37.56633644061071,0.0009716215464757,3.232339252743767,394.1656220930212,13.2364445751808,5.4126574282679245,69.99908210036875,2.0768081583188525e-07,113.7000042923011,107.26326115439352,15.288,0.0,0.0,0.0388992619788015,5.846561731689753e-10,-0.0002263323252403,2.6893437641668458e-08,7.948283231812338e-06,4.1361409365698805,34.43286455705216,13.236542630309057,37.70514091683033
0.32,31.22218291741533,131.01039235056504,4.949637017503345,4.1622282001352975,0.0006491019906456,40.83513712643371,0.0009979686925508,3.224840963348891,421.55939346242695,13.59846554462374,5.566374262777002,69.99894668612772,2.504388718903276e-07,113.70000461297312,113.2095365840355,15.288,0.0,0.0,0.0399632243410653,6.701756367872645e-10,-0.00025078340164,3.0793566854276295e-08,9.047716714467492e-06,4.16222825066026,33.72644865222576,13.598567505326,40.96227562489027
0.33,31.222182716732533,131.01039289410716,5.075419569102976,4.187801887681037,0.0006739743721461,40.48743503284469,0.0010239291638211,3.217136801802925,418.5156301991682,13.956637761217308,5.718704299733134,69.99879684673242,2.995902922462564e-07,113.70000494831164,119.25032483364384,15.288,0.0,0.0,0.0410158804634189,7.647061680070125e-10,-0.0002769136723495,3.509664608790402e-08,1.0253455741189656e-05,4.187801941818244,33.053267359159875,13.956743628864118,40.61505097607
0.34,31.222182510255863,131.01039345333336,5.204736257784645,4.19642921746386,0.0006961879027693,31.814592723444047,0.0010535137542081,3.208669900766693,345.46563688075645,14.367047160772364,5.88887983533068,69.99863160305904,3.557915789971256e-07,113.70000529927128,126.36523219087664,15.288,0.0,0.0,0.042222056531773,8.688448410811866e-10,-0.0003048202762282,3.9835373705550826e-08,1.1618525957862828e-05,4.196429275109305,32.30947868183619,14.367156517712404,31.97598901989736
0.35,31.222182298183583,131.0103940277045,5.337435501771672,4.210915783240843,0.0007193441544952,34.813487415034444,0.0010813034848195,3.200164272309822,370.5765700527033,14.754132934586384,6.050986755458457,69.99844991734221,4.1975736284587617e-07,113.70000566632532,133.26448209504355,15.288,0.0,0.0,0.0433596939127697,9.832256819293898e-10,-0.0003345386312107,4.503361101379695e-08,1.309465610343774e-05,4.210915844572415,31.63649055965014,14.75424592890194,34.96026256388454
0.36,31.222182080444604,131.0103946174141,5.4735747500461605,4.22903876037745,0.0007431682866607,39.2632255716727,0.0011077666085529,3.1915717453569297,407.8625232777193,15.124417129017054,6.2072589919251575,69.99825073022951,4.922382611919288e-07,113.70000605036684,140.03566173682628,15.288,0.0,0.0,0.0444479595865755,1.1084921261805627e-09,-0.0003661511460057,5.0723697896912267e-08,1.4691545926915382e-05,4.229038825557203,31.017264542603208,15.124533865618538,39.39272792946638
0.37,31.22218185710795,131.01039522227452,5.613102797925907,4.249164960780052,0.0007674149135003,37.28328237034959,0.001133274451316,3.1828514669894137,391.1218908297666,15.483077353331511,6.359470679857624,69.99803294268581,5.740349991123437e-07,113.70000645214331,146.75405277514704,15.288,0.0,0.0,0.0455020695186381,1.245311285088233e-09,-0.0003997125883071,5.6934243389647934e-08,1.641828325195534e-05,4.2491650299519,30.439178816713017,15.483197898584232,37.418894813348615
0.38,31.2221816281124,131.0103958424523,5.756069531572451,4.260095806433531,0.0007900626414612,38.9278000801764,0.0011607546399008,3.1735466295306622,404.8187610144602,15.87126705947922,6.521735074464384,69.99779542676283,6.659911329739736e-07,113.70000687263192,154.20298254405043,15.288,0.0,0.0,0.0466429667223463,1.3943646956867835e-09,-0.0004353006984059,6.369875435270817e-08,1.8328108041903096e-05,4.260095879559656,29.83470194713067,15.87139116222873,39.05694584372078
0.39,31.22218139339905,131.0103964781077,5.9025231349944285,4.274091258047817,0.0008133283308351,33.320076729592266,0.0011870382950339,3.164143363712209,357.64062493382744,16.24457853509073,6.678818328235205,69.9975369905506,7.690136753559805e-07,113.70000731287368,161.54010621938565,15.288,0.0,0.0,0.0477401448128051,1.5563705124515804e-09,-0.0004730068442167,7.105463478762673e-08,2.0383860516746246e-05,4.274091335289374,29.274934656826048,16.244706292406182,33.46997636540994
0.4,31.22218115316572,131.01039712870306,6.0523126585892895,4.286421841403391,0.0008363022448449,31.88018820767003,0.0012133780841982,3.1544430614236454,345.465636880754,16.62063299903514,6.836764518435374,69.99725641601981,8.840594270905819e-07,113.70000777359816,169.10340080049767,15.288,0.0,0.0,0.0488453895716005,1.7320643186450851e-09,-0.0005128553637434,7.9027539265021e-08,2.2612406375611563e-05,4.286421922834417,28.730746964325096,16.620764365084565,32.03586915718869
0.41,31.22218090752676,131.01039779392735,6.205351877049411,4.30025870409831,0.0008595777771371,35.882550741685804,0.0012389121673015,3.1445895889870297,378.94687077668647,16.987310563534386,6.99141560549392,69.9969524610574,1.0121301778427253e-06,113.70000825570062,176.64448930727934,15.288,0.0,0.0,0.0499230826371405,1.922193031274436e-09,-0.0005548883906878,8.764667734700782e-08,2.5005077415911235e-05,4.300258789847355,28.21875643368965,16.987445585695873,36.020076248499606
0.42,31.222180656535848,131.0103984736348,6.36160173428776,4.322008670726048,0.0008844838439129,40.34064925656127,0.001261804338223,3.134918999355981,416.2328240017114,17.318628721060172,7.133856886815013,69.99662385300175,1.154276942054023e-06,113.70000876021427,183.59942989625057,15.288,0.0,0.0,0.0508968652507098,2.1275184665783874e-09,-0.0005991661829955,9.694534598491077e-08,2.752657757470936e-05,4.322008761057615,27.772396468009568,17.318767655457478,40.462275036947325
0.43,31.222180400205527,131.0103991677914,6.521055075967404,4.339436441324956,0.0009085827200945,35.541853595187746,0.0012854696362701,3.124839917627212,375.9031395134336,17.662848429084132,7.280642039343927,69.99626930133451,1.3115939750280808e-06,113.70000928827632,190.96736675963504,15.288,0.0,0.0,0.0519085689713619,2.3488101247838237e-09,-0.0006457514522491,1.0695800287133593e-07,3.0255957891170616e-05,4.339436536261635,27.322335771349252,17.662991148924057,35.67895714766603
0.44,31.22218013836212,131.0103998768696,6.683849332059896,4.342209064313268,0.0009296474314902,32.82948243168077,0.0013129688908547,3.113754688841357,353.0750125389216,18.063580761318697,7.446730341918701,69.99588746395321,1.4852372182848018e-06,113.7000098413532,199.7278270846888,15.288,0.0,0.0,0.0530863610987301,2.586862292117705e-09,-0.0006947575786514,1.1773083546077225e-07,3.329010177793299e-05,4.342209163639375,26.81344244367223,18.06372678999575,32.9768158972058
0.45,31.22217987077456,131.0104006014978,6.850166573233225,4.3420317510315165,0.0009500780330031,38.11022602597878,0.001341042003417,3.1022288449712887,397.2093853562869,18.47486275310604,7.616350301328129,69.99547690348253,1.6764536248320808e-06,113.70001042108892,208.92306716049887,15.288,0.0,0.0,0.0542951637545535,2.842521175226318e-09,-0.0007463379956615,1.2932090054593452e-07,3.657529369088674e-05,4.342031854775571,26.30944884471334,18.47501199101448,38.23628058998621
0.46,31.22217959739673,131.01040134180155,7.020045503401754,4.351169003849846,0.0009725797783515,44.3937050866137,0.0013660055515545,3.09098240974522,449.7140588976434,18.844323061800488,7.771531995684422,69.99503610583268,1.8865779683531e-06,113.70001102895836,217.3591612614144,15.288,0.0,0.0,0.0553810645782081,3.1166808800591503e-09,-0.000800596194505,1.417768495237597e-07,4.001824400409673e-05,4.351169112337076,25.873596578896564,18.844475834274814,44.50118229261506
0.47,31.22217931813738,131.01040209802923,7.193559875579052,4.358630093683735,0.0009947969928181,30.22514089990685,0.0013910994973101,3.079396422776949,331.0078106302534,19.2180591098146,7.9280875671397615,69.99456352718363,2.1170044481277104e-06,113.70001166656292,226.0625808853568,15.288,0.0,0.0,0.0564795377574197,3.4102493884459798e-09,-0.0008576351980594,1.551487523304888e-07,4.3718862242359527e-05,4.35863020698899,25.44665981168229,19.218215372160817,30.381603425148434
0.48,31.22217903348153,131.01040286886197,7.370336324605091,4.365514409145237,0.001016880998596,29.779838936311712,0.001416009414045,3.067527859335786,327.2031223011574,19.5915905767454,8.084483592791102,69.99405758812365,2.369198154608765e-06,113.70001233476164,234.93171707892955,15.288,0.0,0.0,0.057577416115756,3.7241711041759195e-09,-0.0009173883913609,1.6944871263079066e-07,4.767297940601472e-05,4.365514527349481,25.03354780044292,19.59175030803913,29.937410312943754
0.49,31.22217874361868,131.01040365378466,7.5502307795521535,4.3786401372577615,0.0010404145545081,37.2489281064929,0.0014385799934191,3.0558405437943126,389.60000969812296,19.93403005898306,8.23012235628909,69.99351671352461,2.644660619562788e-06,113.700013034871,243.21198709852868,15.288,0.0,0.0,0.0585839249886784,4.059374595909599e-09,-0.0009798792959512,1.8470833984680338e-07,5.180951737438081e-05,4.378640260624215,24.667474291142685,19.934193486919103,37.37406598941686
0.5,31.22217844858332,131.0104044527036,7.733219389747018,12.846457319065824,9.165360268980873,38.5338765947154,-0.704156150639863,2.375584494783317,397.97031042210494,22.23626232526301,8.366189013561664,69.99293932307316,2.9449363413826395e-06,113.70001376847225,302.6291132677204,15.288,0.0,5.010313955797237,0.0653500676645567,4.416703151082342e-09,-0.0010538516203957,2.098572043595796e-05,6.215491574628658e-05,15.735962166614224,33.41470158177801,23.66982154972356,38.61345468865865
0.51,31.22217814897515,131.01040526528686,7.9192711763484915,12.739226130330904,9.042328928951427,29.62596734181687,-0.7203141307808195,2.347690671054105,323.3984349720841,22.580949554707143,8.506030429915246,69.99227791069455,0.000154541939422,113.70017552305,312.0784427191473,15.288,0.0,5.030199046457662,0.0663632069505959,4.88003067512457e-09,-0.001281447116554,0.0001891865583784,7.674840449340247e-05,15.578753580374867,32.99018399743581,23.995426507489668,29.727570450212657
0.52,31.222177845050865,131.0104060914459,8.108415788459178,12.629982683587007,8.91891668893503,35.46544492563648,-0.7369373237566522,2.3188884160964287,372.0984511843415,22.934221844579884,8.648822769257876,69.99148436740784,0.0005736022992697,113.70062192810336,321.9137296704788,15.288,0.0,5.050018688752266,0.0674015835490734,5.5226239813814765e-09,-0.0015158664354282,0.0003614090955715,9.220692212346196e-05,15.419754883742822,32.565011471391195,24.329550895508007,35.54881297425846
0.53,31.22217753669064,131.01040693155812,8.300765655894441,12.525310687182456,8.800088029920623,37.20915978694951,-0.7536410971622138,2.2897883460301127,386.5562464348624,23.28400522382999,8.790139621670017,69.99055467603532,0.0012665901061974,113.7013598662928,331.8018753378345,15.288,0.0,5.069775774870159,0.0684297134418204,6.348796600183644e-09,-0.0017574157678264,0.0005378316839791,0.0001085282411922,15.267136389509863,32.15532832652479,24.660891415317803,37.28716505211529
0.54,31.222177223813528,131.01040778587804,8.496398569662185,12.424066907745992,8.684998905349863,32.75710470381823,-0.7704841871144674,2.260305866148949,349.2703242098436,23.631913625411936,8.930551320471649,69.98948470025044,0.0022401233739346,113.70239638491138,341.785066457776,15.288,0.0,5.089484517960248,0.069452339956956,7.362959772858396e-09,-0.0020063436102315,0.0007185901399577,0.0001257495975382,15.11948733829233,31.75833409302733,24.990931707185588,32.844033507899894
0.55,31.22217690671189,131.01040865364467,8.695102625213137,12.32918185123346,8.575546794385254,34.68311189902428,-0.7872651669697383,2.2307365695342067,365.2500005919907,23.97207460370265,9.067993202670367,69.98827024935729,0.0035008441103221,113.70373855721216,351.6885724804643,15.288,0.0,5.109121742465957,0.0704522043076271,8.569559798705075e-09,-0.0022624596685814,0.0009035106684873,0.0001438403000498,14.980268591756827,31.38065848598756,25.314094659556964,34.763691160261175
0.56,31.22217658540344,131.01040953484258,8.896878530342756,12.242631450090002,8.472969093628679,32.41538892691473,-0.8038216278593014,2.201324472379235,346.2265619465787,24.29996444070766,9.200869444643214,69.98690715516467,0.0050552712643722,113.70539332689545,361.36815415991,15.288,0.0,5.128686992555161,0.0714160115329713,9.97293286599248e-09,-0.0025259040957859,0.0010926526368873,0.0001627826800463,14.85179198831264,31.02667978491467,25.626049626839595,32.49999073731031
0.57,31.22217625997624,131.0104104292644,9.101672207635715,12.153585780417115,8.369913960494754,32.061769201418144,-0.8208416952424133,2.171048194171359,343.1828296833023,24.635745281544416,9.336326741496531,69.98539121770808,0.0069099035085687,113.70736761707596,371.4167376991834,15.288,0.0,5.148171601940029,0.0724030168100179,1.1577403088497476e-08,-0.002796708522304,0.0012859991840398,0.0001827216758649,14.721064611878528,30.671314548015715,25.94581715145369,32.1456727363897
0.58,31.222175930425166,131.01041133695583,9.309501772560386,12.055215196501631,8.261825806662749,42.01934175782336,-0.8388265104703008,2.139150384362855,426.1250058573153,24.99343090022561,9.479317243645664,69.98371817325646,0.0090712794830303,113.70966839470556,382.2725797279575,15.288,0.0,5.167575451470593,0.0734544061754574,1.3387307353182633e-08,-0.0030750223515551,0.0014836152129495,0.0002038180515396,14.57993007443466,30.2988418667578,26.28670284047674,42.08211824566755
0.59,31.22217559637092,131.01041225898132,9.52067608117435,11.97292721657819,8.165613745656966,34.183531864436404,-0.8560211689314817,2.108256684700841,360.68438819711065,25.32238581535209,9.611912974545822,69.9818835051738,0.0115463345660341,113.71230305076143,392.3935231822004,15.288,0.0,5.186920616894494,0.0744213650235722,1.5407191658750472e-08,-0.0033615199720727,0.0016859259601838,0.0002257355725304,14.458684407361517,29.967479942134545,26.60069983010816,34.25917934243585
0.6,31.22217525803883,131.010413194761,9.735035055446888,11.872820656381656,8.058723516369817,30.451833597526026,-0.8748322774063926,2.074747337845028,329.4859594986058,25.69131077857776,9.758413172086502,69.9798826119911,0.0143420733858555,113.71527905041268,403.9021578203954,15.288,0.0,5.206193276994641,0.0755058016645171,1.7641726819548004e-08,-0.0036560600321593,0.0018927922643308,0.000249086578348,14.31689396512124,29.59945969540108,26.953002526174437,30.534964835101775
0.61,31.222174915398103,131.01041414441153,9.95261732781997,11.771862676825346,7.952433708653211,35.57772773444977,-0.8941015781979846,2.0403521468277064,372.0984511843297,26.066530979602,9.906903497550296,69.97771073080625,0.0174656517520722,113.7186040243767,415.7775631387537,15.288,0.0,5.225397825185433,0.0766087478497679,2.009564438104276e-08,-0.0039588566349066,0.0021043193826566,0.0002736495160577,14.174781766375768,29.233618719969517,27.31168947590809,35.6474005400371
0.62,31.22217456857795,131.01041510761485,10.173337642705672,11.702952385189452,7.868266379324447,44.08682222730366,-0.9112631480537366,2.008971452848597,442.86563930529206,26.37635551993612,10.032080152642749,69.97536308629678,0.0209243388540878,113.7222857168287,425.7110717333856,15.288,0.0,5.244539407739416,0.0775195058495873,2.2773770596509773e-08,-0.0042699651436619,0.0023205034703244,0.0002986562345248,14.071399060971396,28.94478096265196,27.60841884684504,44.14197844371316
0.63,31.22217421741419,131.01041608484783,10.397337155842733,11.62626229547698,7.779950496913577,25.272882033726315,-0.9293012521838796,1.976079770240696,286.11251274707894,26.70513464795188,10.16373320126072,69.97283489650388,0.0247251378714087,113.72633159939365,436.3807375627738,15.288,0.0,5.263589028345109,0.0784859785276419,2.5680692035425748e-08,-0.0045897230380926,0.0025415306220197,0.000325015727685,13.959353717106286,28.64199791667369,27.923454495021375,25.367046701701625
0.64,31.22217386249432,131.01041707454488,10.624174803015816,11.536395788177243,7.684031395581579,24.82409442939788,-0.9487311093223146,1.9408749334988007,282.30782441796754,27.06633911967591,10.306626475853472,69.97012130424599,0.0288750927720132,113.73074918777668,448.2554780878036,15.288,0.0,5.2825619416844924,0.0795477564633436,2.8821210416421e-08,-0.0049174576377379,0.0027669062132068,0.0003529261285605,13.832271828563012,28.312966287090305,28.269729016345792,24.917920267649603
0.65,31.222173503814627,131.01041807674565,10.853867039221916,11.470002745962615,7.604266854902373,43.39830357310675,-0.9665307160589464,1.9079847177950928,436.7781447787475,27.376777722467,10.431420138538472,69.96721761831223,0.0333810292067689,113.7355457594054,458.58690437694605,15.288,0.0,5.301421856995601,0.0804603415562628,3.2199821055263364e-08,-0.0052533800811359,0.0029967334326711,0.0003813513075848,13.733550359860862,28.040774746909133,28.567749579819427,43.45097628744325
0.66,31.22217314089488,131.0104190927826,11.08679870257149,11.399548355800215,7.522742071830619,37.00806573734205,-0.984946793705709,1.8739692504745635,383.51251517160017,27.698351288768947,10.559927009550533,69.96411892254972,0.0382498473610289,113.74072868503887,469.412999839024,15.288,0.0,5.320209607435952,0.0814056600935889,3.582091881158166e-08,-0.0055983210418476,0.0032315257155365,0.0004111554881469,13.63054636413418,27.76285268174512,28.876628680745828,37.06856903843991
0.67,31.222172773931256,131.01042012215305,11.32283185211572,11.317668130824329,7.43475469373494,25.671832675793027,-1.004676003754312,1.8377398536340104,289.1562440103425,28.04937875406633,10.698604943412647,69.96082014643133,0.0434888661331179,113.746305770781,481.3754357963941,15.288,0.0,5.338937649882772,0.0824375519396294,3.968939940503253e-08,-0.0059521618252511,0.0034711612237609,0.0004426724621088,13.514569539078256,27.46255573362744,29.2139526949607,25.757128228435505
0.68,31.222172403103144,131.0104211643995,11.56184141247514,11.240603066791568,7.350706675676418,31.90525589425096,-1.024303285269722,1.801471935732856,340.8999924858462,28.391473705284422,10.833939712307917,69.95731603999242,0.0491053834311096,113.75228481405216,493.17759127348216,15.288,0.0,5.357536670764116,0.0834431992187755,4.381014217356729e-08,-0.0063148358279017,0.0037155541001348,0.0004753621093398,13.404785890010965,27.17656129356307,29.542955159164524,31.972485859455517
0.69,31.22217202850233,131.01042221930106,11.803769646472356,11.176737153039728,7.2759005182055505,39.149645040123694,-1.043013180477372,1.7664489852904737,401.0140726853634,28.703251210380863,10.95839817993896,69.9536015233844,0.0551065246085841,113.75867341939096,504.0568926035703,15.288,0.0,5.376060989100657,0.0843597507826514,4.818788998242886e-08,-0.0066863639805485,0.0039646768572492,0.0005088450780787,13.311058118662157,26.92346145172157,29.843077732889604,39.20335349533207
0.7,31.22217165000845,131.01042328721104,12.0487222666943,11.113007009040835,7.201943741045136,32.93250411246668,-1.0619783429438685,1.7308484320165003,349.27032420985284,29.01612142945057,11.083043079317273,69.94967136885293,0.061499330378202,113.76547911563344,515.0932731418457,15.288,0.0,5.394513322787843,0.0852795217894623,5.2827228152669053e-08,-0.0070670911724733,0.0042187139148032,0.0005436686746628,13.217949039965829,26.67376904669666,30.144423445453363,32.995052074714636
0.71,31.22217126768692,131.01042436797883,12.296661483502373,11.042139091777916,7.124201791482176,27.16978543804081,-1.081913201451072,1.693535892492931,301.33126406340574,29.348667962687248,11.2144284464283,69.94552032088117,0.0682909618608674,113.77270955322308,526.9550944922864,15.288,0.0,5.412838450119276,0.0862571304077947,5.773291976318599e-08,-0.0074570712429634,0.00447765782905,0.0005802305654724,13.116879049237744,26.41123483227108,30.464853611545657,27.244005592860432
0.72,31.222170881552564,131.01042546159104,12.547588657979585,10.962753452967762,7.041874890163299,33.13632346674116,-1.103038895491718,1.654154016105695,350.79220534145287,29.70573469659968,11.35424691092235,69.94114295747362,0.0754887060557304,113.78037252207012,539.8423467683468,15.288,0.0,5.431091259339689,0.0873068136762472,6.290978680530006e-08,-0.0078564744259249,0.004741576876341,0.0006187303932603,13.006257964531695,26.13274601827081,30.809087156975185,33.19591621278839
0.73,31.22217049161545,131.01042656804785,12.801509125764374,10.906140553449568,6.974586964329204,41.765203138564864,-1.1221489369801132,1.6177681027318436,422.320318528234,30.004657922922384,11.47340446764714,69.93653365325731,0.0831000856500925,113.7884760660914,550.7482457999191,15.288,0.0,5.449275214875285,0.0881856183661773,6.836279913244833e-08,-0.0082655077163905,0.0050105623270119,0.0006574777743795,12.922819253489886,25.907980509167757,31.09751979029772,41.811584340665334
0.74,31.22217009782508,131.01042768751083,13.058473906638556,10.842932369025458,6.903826853341797,26.36855147239536,-1.142193688641555,1.579711898537866,294.48281347105944,30.3221602896951,11.598912378670208,69.93168689721054,0.0911323056896039,113.79702789383326,562.4518173125384,15.288,0.0,5.467342691597041,0.0891190365973753,7.409670991813593e-08,-0.0086843707518875,0.0052846987995882,0.0006980887498794,12.832034286586511,25.671420934158395,31.40398860380019,26.440510639114333
0.75,31.222169700548456,131.01042881901108,13.318212272416057,10.775782422000724,6.831285891635959,30.68844763427487,-1.1629599228074614,1.54031505809327,330.24688556441487,30.651942995376743,11.728565008084123,69.92659709625732,0.099592591911516,113.80603573832109,574.7384226196939,15.288,0.0,5.485313265050733,0.0900885559753036,8.011658686099387e-08,-0.0091126123341001,0.0055636537457529,0.0007404610448613,12.737029234887002,25.428912743015125,31.722458357252417,30.749079083151027
0.76,31.22216929968737,131.0104299628383,13.580811679662496,10.71683722923914,6.764494086188755,32.99169794781462,-1.1831106765404855,1.501709692696276,349.27032420986166,30.96036156760668,11.85051961284425,69.92125860227617,0.1084880769825643,113.8155072406342,586.3478122210497,15.288,0.0,5.503202219689305,0.0909952928618975,8.642708177714513e-08,-0.009550601316227,0.0058476210644808,0.0007838394172263,12.652020074904856,25.207309962438377,32.02045905536785,33.047042475143186
0.77,31.222168895195782,131.01043111914035,13.846319140713776,10.660223309008591,6.699756870412777,30.889554490201807,-1.203258348342982,1.46292148052527,331.7687666960708,31.26304885927909,11.970277097218954,69.91566579162249,0.117825908709429,113.82545005195736,597.8535970104957,15.288,0.0,5.521002009887977,0.0918851933368645,9.303291257882144e-08,-0.0099985925828082,0.006136719652267,0.0008286086974018,12.570102968287244,24.99350351867664,32.3130475632751,30.947577393298264
0.78,31.22216848714808,131.01043228773847,14.114688704910527,10.597453280136294,6.631823352617741,25.48012518517672,-1.2243771556800769,1.422375845241886,286.8734378128899,31.584234204691903,12.0963690358332,69.90981282296877,0.1276132508602914,113.8358718553974,610.1852395434878,15.288,0.0,5.538680904205928,0.0928294699144973,9.993894437381037e-08,-0.0104565980389024,0.0064309132120601,0.0008754449826616,12.481344779852376,24.76874877498276,32.623634071630974,25.54914933841743
0.79,31.222168075642,131.010433468391,14.385856555814383,10.53149325069588,6.562554096087824,35.95953898261554,-1.2461838421143014,1.3805214852316867,373.6203323159534,31.91616407822971,12.226067226680147,69.9036938496794,0.1378572936408904,113.84678035816827,623.0617112200462,15.288,0.0,5.556272515839199,0.0938053345951601,1.0715009116055332e-07,-0.0109246228500238,0.006730161867363,0.0009242169416379,12.389226324942015,24.539545940863327,32.94475520464767,36.00759999752524
0.8,31.222167660468404,131.0104346616851,14.659994633166615,10.478667027759426,6.501896213379487,36.42894734853594,-1.2666826155120745,1.3405888464567437,377.42502064505743,32.21024068772303,12.342269508821545,69.8973028331426,0.1485654029101574,113.85818345960476,634.579724664634,15.288,0.0,5.573790078378368,0.0946699529151472,1.1467103745571709e-07,-0.0114032857156094,0.0070348100807078,0.0009735748038205,12.312770995018548,24.341709208773484,33.22936555291273,36.475606481950216
0.81,31.222167241738788,131.01043586734065,14.937028100185122,10.418219034677032,6.437161832308624,23.93810042171128,-1.2883848430500235,1.2985087052355797,273.9374926939919,32.52788234724338,12.466584277480178,69.89063368385659,0.1597448452822155,113.87008895915228,647.1400503231976,15.288,0.0,5.591224625223339,0.095603840570974,1.2250683850755116e-07,-0.0118925022711968,0.0073447594588796,0.001025328027162,12.22776639643294,24.12958043699684,33.536903513703514,24.007888540255003
0.82,31.22216681965018,131.01043708484647,15.216816556276198,10.354909082098196,6.371245032621677,30.56450647927353,-1.3107458931940867,1.255147037379904,328.72500443277005,32.85532199536708,12.594186013726947,69.88368027890904,0.171402834006817,113.88250460168892,660.2166668329021,15.288,0.0,5.608534968083824,0.0965665347696062,1.306626119735808e-07,-0.012392078953131,0.0076598450691121,0.0010791256750846,12.13975395103868,23.913631517766945,33.8540535885428,30.618336094626734
0.83,31.222166394195344,131.01043831424244,15.499376162158327,10.307063103648945,6.3151899395707245,38.666275781322526,-1.3313630280770148,1.2144360740226148,395.68750322465047,33.135431383251806,12.704978920226775,69.87643635723339,0.1835465972651426,113.89543815631264,671.5038406430206,15.288,0.0,5.625755972817249,0.0973901271850421,1.3914322015347956e-07,-0.0129022555298817,0.0079801716695864,0.0011331009635029,12.070032742788612,23.7337881536072,34.12541176912202,38.70824544315728
0.84,31.22216596527676,131.0104395558094,15.784791266858084,10.256535716056948,6.258012838208217,24.140438080163825,-1.3525531127037071,1.1725952778749131,275.4593748256452,33.42392245029629,12.81855143527339,69.86889582182259,0.1961831000326809,113.90889710798156,683.2288063573087,15.288,0.0,5.642893296381088,0.0982383631400546,1.479533094713383e-07,-0.0134233501303433,0.0083058902984345,0.0011890955946622,11.99748736144135,23.550323010157165,34.40497548704902,24.206716636309906
0.85,31.22216553319764,131.01044080874803,16.072839477912378,10.194191659998818,6.194265754845177,26.26307657532002,-1.375622781858385,1.1274604529727184,292.96093233939376,33.750706725278505,12.945442640604275,69.86105237944336,0.2093192531435019,113.9228889001218,696.6346420874212,15.288,0.0,5.659933237516294,0.0991991578566932,1.57098095008379e-07,-0.0139548976903397,0.0086366700878909,0.001248233835684,11.9115250064255,23.34336169739256,34.721805457064185,26.323234913515254
0.86,31.22216509779218,131.01044207352308,16.36365740454467,10.141274368473814,6.136649304313505,32.713528239431184,-1.39766526089588,1.0838123646958011,346.2265619465587,34.047690401203965,13.061694305280051,69.85289967686622,0.2229621544380387,113.93742116801288,708.928619970128,15.288,0.0,5.676887352473889,0.1000723725532574,1.6658215397989025e-07,-0.0144974814358672,0.0089728243816945,0.0013081408612761,11.836786986958694,23.15908579225315,35.00979111078811,32.761304114693665
0.87,31.222164659092368,131.010443350065,16.657229834039352,10.092899270360215,6.082191309611081,30.511877904153604,-1.4192837308687498,1.040664209196721,327.964078366998,34.32973739713634,13.172537244500273,69.8444312309157,0.2371187914620259,113.95250144295414,720.7023083463142,15.288,0.0,5.693744612346998,0.1009016943463241,1.7641037887571758e-07,-0.015051202900647,0.0093143690761639,0.0013693161807215,11.767580513484225,22.98677994006605,35.28333244940127,30.56259219279328
0.88,31.22216421714131,131.01044463827333,16.95353269287922,10.038796423007868,6.024789906979508,26.46672042110218,-1.441967137280408,0.995543258231358,294.4828134710418,34.63082401378368,13.289930081053487,69.83564051653322,0.2517960413386918,113.96813714469567,733.3786159377197,15.288,0.0,5.710493876743672,0.1017869860593499,1.865876967799313e-07,-0.0156160841617654,0.0096612715161937,0.0014331269270849,11.692008343227124,22.80416704423373,35.5754527528179,26.524661457835684
0.89,31.22216377202816,131.01044593792383,17.252506797458256,9.97918724816555,5.964613518999573,28.96078230896269,-1.465747113224418,0.9483837620196864,315.028134248087,34.95108218813503,13.413924642122591,69.82652104469504,0.2670007451845279,113.98433564973892,746.9841319939226,15.288,0.0,5.727152603474114,0.1027286360577398,1.971190557280227e-07,-0.0161921410115667,0.0100134956111547,0.0014996921708651,11.610342997713028,22.611728383105792,35.88631013305523,29.013354826822674
0.9,31.22216332368457,131.01044724921545,17.554213031661096,9.934640067723157,5.91372816819383,31.917054487189823,-1.4874995960708617,0.904400548989636,339.37814235421445,35.21979219254166,13.519631991789096,69.81706599242158,0.2827399325160516,114.0011045511056,758.4921943733247,15.288,0.0,5.743727016492692,0.1035187840969161,2.0800922797331042e-07,-0.0167797392301904,0.0103712156861493,0.0015660175757175,11.5463337967169,22.453788618019725,36.14706998974024,31.964495343107917
0.91,31.22216287218763,131.01044857195396,17.858600528838203,9.884460960702803,5.8599588467876496,24.457384424588763,-1.5103367535345336,0.8583973047306506,277.7421810230789,35.5076579374574,13.631937739887965,69.8072686652534,0.2990202308721564,114.0184510202106,770.9192608316229,15.288,0.0,5.760212198959335,0.1043652438378782,2.1926314807092578e-07,-0.0173788416683198,0.0107343622224688,0.0016351394378688,11.476066662357011,22.28565567991014,36.42653421092424,24.519005198701745
0.92,31.22216241774663,131.01044990559154,18.16551832846712,9.828890373735744,5.803470551850541,28.981485420837025,-1.5342795049296458,0.8103215822595867,315.02813424806214,35.814623110009094,13.750839932937248,69.7971224182235,0.3158482135173255,114.03638216531192,784.2830159884968,15.288,0.0,5.776600391100208,0.1052678502412428,2.308860476949309e-07,-0.0179891180688811,0.0111026921811527,0.0017071410093186,11.399828869659466,22.107856894528847,36.72467214519966,29.033379614921028
0.93,31.2221619602764,131.01045125036865,18.47503872021152,9.786878229987218,5.755256154421482,34.33830022348779,-1.5562616255930677,0.7653370324761634,359.1625070654728,36.07288406658305,13.852460634351392,69.786620396573,0.3332304382373276,114.05490509425064,795.6111509688859,15.288,0.0,5.792899891488203,0.1060273120303287,2.428823829398225e-07,-0.01861100985571,0.0114764226504758,0.0017788405970942,11.33944310859344,21.961029550201832,36.975398097935766,34.3820673209008
0.94,31.222161499670992,131.01045260657855,18.78724857253337,9.733146562463649,5.700651749366889,25.119429894720422,-1.5803899080803907,0.7165156555300589,283.0687504837787,36.37303236033853,13.96869661556434,69.77575581827169,0.3511732122802689,114.07402665160056,808.8819133803426,15.288,0.0,5.809110463039899,0.1069099002573268,2.552566595752594e-07,-0.0192448311498948,0.0118556922361052,0.0018546707327245,11.265796196140109,21.79093569867292,37.2670119783309,25.1792927855799
0.95,31.222161036227902,131.01045397343728,19.101930227376567,9.681399358974804,5.647590007475395,32.32390674093242,-1.6044397975477922,0.6676039994373673,342.4218736174873,36.665932773334205,14.08226409853348,69.76452165359484,0.3696830466486938,114.09375390508036,821.9368592613127,15.288,0.0,5.825225622115942,0.1077711942087475,2.680143735055577e-07,-0.0198901170846274,0.0122401797808386,0.0019322359423401,11.194661105502783,21.62690982602977,37.55161831105959,32.37058648156558
0.96,31.22216056965561,131.01045535173296,19.4193104382764,9.636467491890704,5.5988171692614905,31.685025519781547,-1.6275439085487016,0.6200818959846072,337.09533515678345,36.932996292575474,14.186595564553416,69.7529108560477,0.3887662873345044,114.11409375419817,833.9285209974868,15.288,0.0,5.841254332133692,0.1085565556240635,2.811594576788145e-07,-0.0205477475609121,0.0126303552580046,0.0020105996582764,11.131574113674544,21.47923591524472,37.81105747834525,31.732857465428317
0.97,31.22216009997836,131.01045674140929,19.739377108901124,9.588569938902868,5.548705838425759,20.51801140045668,-1.6513729617051147,0.5711070697429977,245.02188719299323,37.21043362558042,14.294453654863336,69.74091620951556,0.4084293484732838,114.13505317770034,846.4783481155074,15.288,0.0,5.857190065111992,0.1093724176727319,2.9469684482707505e-07,-0.0212178236921265,0.0130262280094219,0.0020916983661078,11.065291136948955,21.32699356778265,38.080660558596286,20.59227980999266
0.98,31.22215962749163,131.01045814168705,20.0619139096861,9.529762859240996,5.492759221975232,29.574446089183844,-1.677420108423399,0.5181106512320535,319.5937466429581,37.52941893049924,14.416854127320017,69.72853047483115,0.4286784776007061,114.15663898367067,861.0266993469418,15.288,0.0,5.873032256283393,0.1103104108511309,3.086322847863987e-07,-0.0218997408496961,0.0134273971760125,0.0021773630665865,10.986714066605645,21.153254644499643,38.390898553809706,29.62650904762667
0.99,31.222159152049688,131.01045955296303,20.387036802202235,9.490176338018111,5.44808176416569,32.260316242149166,-1.7001748918528736,0.4705296291349643,341.6609485517054,37.77365769898032,14.512777551721642,69.71574622649086,0.4495200054946549,114.17885807706736,872.2429286408488,15.288,0.0,5.888792631595822,0.1110287104264243,3.2297000180481856e-07,-0.0225941559822494,0.0138341965997494,0.0022609535360455,10.93036797377172,21.02209390800213,38.628151366586536,32.308512761163335
1.0,31.222158673653475,131.01046097523945,20.71474974849569,9.4399868602547,5.397742116622938,28.939869576155267,-1.7251041322919665,0.4189911966751169,314.2672081822764,38.05836051672354,14.622859329740578,69.70255626239096,0.4709597091428816,114.20171677999654,885.4129261997558,15.288,0.0,5.90446650743314,0.1118659556003851,3.377147902768272e-07,-0.023301103993923,0.0142465963156559,0.0023491966797471,10.862076449022668,20.87006531567703,38.90498224246798,28.994268208992953
1.01,31.222158192488774,131.01046240802884,21.04491892267314,9.391915453022095,5.34893861908736,30.24002543175236,-1.749850801748565,0.3675354610209685,324.9203161036979,38.33409789571285,14.729676996104516,69.68895309165099,0.4930035960042967,114.22522166793524,898.2607621759886,15.288,0.0,5.920051693633122,0.1126768576399911,3.528719644244448e-07,-0.0240203347332946,0.0146644031779626,0.0024391771043101,10.796404678620302,20.72416351525616,39.17308727350084,30.292840709588752
1.02,31.2221577084804,131.01046385153532,21.377605262703607,9.346922914292064,5.302190039981479,25.344769802347795,-1.7741973815044505,0.3165417951348382,284.59063161540416,38.596584611239166,14.83171185247816,69.67492928641073,0.5156573605857486,114.24937899121896,910.575180008556,15.288,0.0,5.935551893580185,0.1134488206266624,3.68445904235838e-07,-0.0247521982843283,0.0150877689762011,0.0025306250682663,10.734440389505323,20.586386879353167,39.42826243757721,25.4087648536997
1.03,31.222157221699085,131.01046530557443,21.71276000785314,9.294870926685746,5.251822917929753,20.816579819624785,-1.8001590131171328,0.2625139114862105,247.30469339049705,38.8869818816256,14.943509384801189,69.6604774125512,0.5389264874295844,114.27419478443926,924.2991452872031,15.288,0.0,5.950964342220159,0.1143028317558327,3.844415100150256e-07,-0.0254966312991821,0.0155166075122412,0.0026262630016131,10.66460270102576,20.43526255853723,39.71078159122739,20.89592020976919
1.04,31.2221567322092,131.0104667699798,22.0503397280223,9.250066756027044,5.205814474683575,32.75622109373132,-1.8248751738767028,0.2104113367534665,345.46563688072297,39.14680728736741,15.044415170345466,69.64558978148757,0.562816620116384,114.29967526040664,936.6615437645904,15.288,0.0,5.966291165734617,0.1150669904449333,4.008636430650794e-07,-0.0262536888683881,0.0159509008900985,0.0027222234706888,10.603218810091546,20.301009155621085,39.96341008156812,32.80768907851137
1.05,31.22215623972331,131.01046824551233,22.39056156573169,9.19964372883874,5.157004878287607,19.990007277831868,-1.8509506754258933,0.1557022983454627,240.45625879819983,39.42901267739674,15.153127612785054,69.63025874067999,0.5873331195044161,114.32582633976324,950.1837665655167,15.288,0.0,5.981540578026094,0.1158969417407161,4.1771585500631453e-07,-0.0270242818689973,0.0163911139057847,0.0028222336400173,10.53561023224919,20.156457634561686,40.23797980758389,20.076121452520173
1.06,31.22215574448228,131.01046973153768,22.73325025992744,9.144544885586658,5.105939401004132,28.2324333389782,-1.8782734166980408,0.0985618521708099,308.17968365593924,39.730496611022346,15.268578395673332,69.6144763127303,0.6124815942680893,114.35265421590232,964.7382412121608,15.288,0.0,5.996706240449657,0.1167835698891704,4.350040207423252e-07,-0.0278079090751251,0.0168369108971656,0.0029261792949631,10.462860974282018,20.003589684683647,40.53147454392476,28.295015774981035
1.07,31.22215524636996,131.0104712283643,23.07849574288935,9.101126733459273,5.061618311801544,33.145657545850774,-1.903300337916204,0.0451949187355911,348.5093681440308,39.98119470506402,15.365969621784233,69.59823432932109,0.6382676927424842,114.38016513453763,976.9191876162272,15.288,0.0,6.011796636405438,0.1175209281352791,4.527323850330776e-07,-0.0286051702811983,0.0172885773172507,0.0030289667612889,10.403582793661942,19.876834274171443,40.775238084660366,33.2002892894596
1.08,31.22215474528361,131.01047273626125,23.42637632621772,9.0555008706622,5.016373017055578,22.499239339616626,-1.9289881222845384,-0.009573343513184,261.00157857466235,40.23994569659183,15.4661118732719,69.58152472360545,0.6646966660982062,114.40836492741884,989.5719233282276,15.288,0.0,6.02681267630288,0.1182819664661823,4.70905414309557e-07,-0.0294164432441691,0.0177462696675566,0.0031349255944993,10.341958798907552,19.74692080241701,41.02690943003118,22.58178154367306
1.09,31.22215424150188,131.01047425449394,23.7766885487302,8.99795984054173,4.964921939993737,20.741484626097208,-1.9575757663292703,-0.0697076672749003,246.54375332474407,40.55011973338054,15.5844007719079,69.56433931900706,0.6917736749470642,114.43725933911696,1004.8523698301065,15.288,0.0,6.041745699285239,0.1191941683939046,4.895293511629755e-07,-0.0302410364658377,0.0182095477679365,0.0032475353715844,10.26696869712572,19.593439342539217,41.32903219006485,20.833774178828552
1.1,31.222153735102022,131.01047578285895,24.129378318355435,8.94693580430282,4.917332520906592,41.04230153149002,-1.9849396442564888,-0.1279500908821405,413.1890617385841,40.83097675522024,15.692244588649611,69.54666983052184,0.7195037818865605,114.46685402013384,1018.7856165290564,15.288,0.0,6.056598531236079,0.1200202051526789,5.086091437850745e-07,-0.0310789851330259,0.0186783791081822,0.0033605236980571,10.19955231521555,19.455095661188818,41.60244166401206,41.090471786277234
1.11,31.22215322567413,131.01047732242904,24.484748987080764,8.90858350642138,4.87689150717351,30.20300646518554,-2.0095076111143606,-0.1814920520207454,324.1593910376397,41.05325986373004,15.779223373983625,69.52850780590073,0.747892030706572,114.49715461210666,1029.8731559805976,15.288,0.0,6.071384958293635,0.1206740769521994,5.28147503352149e-07,-0.0319317121205205,0.0191534961897326,0.0034714058674304,10.146667759312942,19.3447742627746,41.81839550208708,30.270326389718903
1.12,31.222152713278486,131.01047887303892,24.84275629116947,8.84720199764731,4.824292408172453,11.75296607598338,-2.0397745602369968,-0.2454140483519149,172.73281794065943,41.378997701472336,15.902831069079896,69.50984488597864,0.7769430655078599,114.52816634021976,1046.2451080836847,15.288,0.0,6.08609867681744,0.1216320590227717,5.481498598180352e-07,-0.0327990689816263,0.0196347574495176,0.0035938677186883,10.06784107069456,19.18762688728907,42.13590068351585,11.931182669582036
1.13,31.22215219851795,131.01048043311127,25.20296173206664,8.798632938820612,4.778885342281363,35.499948184713965,-2.067187677556445,-0.3045409551078892,367.5328077900705,41.64529349111593,16.005310923727745,69.49067209693199,0.8066621332808503,114.55989508362522,1059.7180562376022,15.288,0.0,6.100720100584716,0.1224153234280551,5.686242977752074e-07,-0.0336795110356298,0.0201212603527431,0.0037139605202502,10.00368927628972,19.05869849118362,42.39508897943772,35.56138820694372
1.14,31.222151680712628,131.01048200441502,25.565862188368666,8.75902156458303,4.738538391660269,19.91800209257301,-2.0925247335089456,-0.3602215969557824,239.69531773195544,41.867858228058246,16.092167545530813,69.47098103233705,0.8370533992190095,114.59234557975044,1071.0378789138704,15.288,0.0,6.11527383999913,0.1230700510620907,5.895715757634455e-07,-0.0345752902621308,0.0206141806605586,0.0038329841061162,9.949820836691018,18.949914754237327,42.61133787895884,20.030856864323173
1.15,31.22215116035561,131.01048358565475,25.931097357703035,8.696308372986474,4.686120064840599,19.640522660692245,-2.1239134036057914,-0.4270076183020108,237.41251153546767,42.198289956584986,16.217332978125235,69.45076322943324,0.8681208320272654,114.6255223660431,1087.9722240426695,15.288,0.0,6.129745439273022,0.1240418623144983,6.109996121769168e-07,-0.0354848449610163,0.0211126078567558,0.0039647240572188,9.869981658090362,18.79417885196313,42.9335635888761,19.7596425584389
1.16,31.22215063758702,131.0104851764631,26.298567420630143,8.659075664619953,4.647531695991296,50.46472497512063,-2.148937797283701,-0.4826588890088912,490.0437743845894,42.40580696096712,16.298746294019907,69.43000962531816,0.899868957212895,114.65943058684752,1098.660315996813,15.288,0.0,6.144140959947184,0.1246523754354286,6.329135143070901e-07,-0.0364081225075217,0.0216164600771439,0.0040877420983096,9.819082146584709,18.693016133180908,43.13503924231303,50.51276432818043
1.17,31.222150111506327,131.01048677916813,26.668923261603183,8.609775847435893,4.602785654030969,9.429215980473517,-2.177241799562297,-0.5444710068855572,153.70937929486794,42.66923005309345,16.399962791582084,69.40871168147419,0.932301283177693,114.6940743137732,1112.3128022077692,15.288,0.0,6.158479111427644,0.125427235000411,6.553126306957179e-07,-0.037348063489096,0.0221272656124877,0.0042191728312313,9.754696533534082,18.568035509231564,43.3914565312473,9.69262320208092
1.18,31.222149583291007,131.010488390704,27.041311842801868,8.544499467709581,4.5498795884153616,24.846112940544288,-2.210108228980951,-0.6148153472738594,280.02501822196746,43.010462060022256,16.52891735500924,69.38686040531722,0.96542165373261,114.72945798612416,1130.1341643764856,15.288,0.0,6.172729399713168,0.1264308260905645,6.782095579738579e-07,-0.0383008288256732,0.0226428962714861,0.00436125184264,9.672441218117374,18.41099223640448,43.72440456753308,24.951791610009394
1.19,31.22214905240556,131.01049001245326,27.416120803206155,8.514692529654218,4.515888551641117,42.96712900829556,-2.23343526014018,-0.6682003853668976,428.4078130529292,43.17414997327711,16.59453506347901,69.36444653196583,0.9992339868976848,114.76558613753728,1138.711593979058,15.288,0.0,6.186916430283777,0.1269125295357526,7.016045938357829e-07,-0.0392686995162538,0.0231645216955197,0.0044883174219807,9.630307791985157,18.32925442108488,43.88276988188146,43.030325353542885
1.2,31.22214851838135,131.01049164560953,27.79368278285708,8.456517568395334,4.4672528012879535,4.962658650788766,-2.264770685559304,-0.7363739454305017,117.1843741360236,43.47746030404711,16.709894500608904,69.34146148927493,1.0337409559600117,114.80246198443965,1154.725439407113,15.288,0.0,6.2010418678930925,0.1278046697037246,7.254999493250258e-07,-0.0402530699875584,0.0236928207389288,0.0046329826395519,9.556351699742024,18.18969703347821,44.17846398957988,5.504490324264929
1.21,31.222147982406447,131.01049328709612,28.17314423427881,8.399934529045247,4.419717026581516,34.61458402039676,-2.2959211823842147,-0.8045303835837994,359.92343213200894,43.77226758677538,16.82226413093502,69.31789577499097,1.0689461894927783,114.84008977486604,1170.3955425910713,15.288,0.0,6.215082661013828,0.1286718248959874,7.499086162565877e-07,-0.0412500745055661,0.0242256771408873,0.0047797529393048,9.484334030384682,18.0546827498928,44.4658268142161,34.699970462796315
1.22,31.22214744356612,131.01049493925973,28.555158616640348,8.36756501842155,4.3850036598834174,25.227858766870497,-2.320145281560272,-0.8603550883448084,283.0687504825761,43.940245588835495,16.889256390097824,69.29374032259504,1.104852417359637,114.87847281265203,1179.352386880819,15.288,0.0,6.229066637660366,0.1291661655719718,7.748277056165468e-07,-0.0422632448986743,0.0247649053335549,0.0049157642492004,9.439674385677744,17.971410774402386,44.62836814135071,25.348927846493858
1.23,31.222146902214764,131.01049660116797,28.939467388693487,8.308860088233665,4.336850971446416,10.161529851016704,-2.352242829841093,-0.9308533897535232,159.79687382222795,44.24254531378562,17.004278742442217,69.26898650141733,1.1414614805895464,114.9176134630986,1195.59146389365,15.288,0.0,6.242963431660011,0.1300553659455924,8.002650523483108e-07,-0.043291137826322,0.0253096774889448,0.0050697763351156,9.365540635521054,17.83453621244475,44.923125958350816,10.471686744591725
