Time,Latitude,Longitude,Altitude,Angle of Attack,Angle of Sideslip,X-Acceleration,Y-Acceleration,Z-Acceleration,Thrust,True Velocity,Ground Velocity,Pitch,Roll,Yaw,Dynamic Pressure,cp,parachute_deploy_gain,Wind Speed,Mach,omega_x,omega_y,omega_z,Cmq,Angle of Attack(total),Angle of Attack(gust),True Velocity(gust),Acceleration
0.0,31.222216000000007,131.010392,3.000000004412624,0.0,0.0,0.0,0.0,0.0,2.2828121974499247,0.0,0.0,71.99999999612658,-1.0292491154817412e-14,119.99999999354436,0.0,15.288,0,0.0,0.0,0.0,0.0,0.0,-0.0,0.0,90.0,0.0,0.0
0.01,31.22221599999862,131.01039200000284,3.0000009727369523,0.0,0.0,0.0,0.0,0.0,34.24218696174923,5.916279387578309e-11,5.734623670548936e-11,71.99999999613168,-5.86671995824671e-13,119.9999999935449,2.1432944861733093e-21,15.288,0,0.0,1.7386402909615473e-13,-3.4220131069073734e-19,7.115076756936125e-19,5.488773498207866e-19,-1.1574302492039043e-31,0.0,89.99999999962336,5.916279387578309e-11,0.0
0.02,31.22221599999738,131.01039200000537,3.0000018317022668,0.0,0.0,0.0,0.0,0.0,25.871876237766408,1.2265415415436536e-10,1.1895038237325684e-10,71.9999999961369,-1.1836364828043265e-12,119.99999999354544,9.211895886571454e-21,15.288,0,0.0,3.6044858651615574e-13,-6.979551485375437e-19,1.4162390878091906e-18,1.0909784360635388e-18,-4.776231873571785e-31,0.0,89.99999999921916,1.2265415415436536e-10,0.0
0.03,31.22221599921969,131.01039200159065,3.0001883335529382,18.80143492628821,-0.0001350810307892,10.931161642028636,-1.75114298675875e-05,3.026590975169265,180.34219359854663,0.0798232026864394,0.0478175828508887,71.99999999765336,-5.341802909786072e-12,119.99999999436793,0.0039016003969354,15.288,0,0.0,0.0002345795854893,3.788270153300133e-17,-7.771883375645477e-10,1.1422790048099072e-11,1.7057759223764537e-13,18.80143492675591,89.51882325913425,0.079801984207741,11.342422482672777
0.04,31.222215995131297,131.01039200995308,3.001692634342189,9.19442604083399,-4.49173898918486e-05,52.29595764159784,6.445392950801871e-06,3.026413589912948,548.6359724538078,0.3504174083926908,0.1601447499964056,72.00000000319055,-3.111420077280171e-11,119.99999999870242,0.0751892535633216,15.288,0,0.0,0.0010297854387864,2.0082066977226968e-15,-1.520937588847922e-08,2.5623342884322286e-11,1.4654248781413086e-11,9.19442604094277,87.798916624545,0.3504103527855857,52.383455068075136
0.05,31.222215983575865,131.01039203366796,3.0074067499493786,5.158590039700252,1.707592688632746e-06,76.26884281015512,5.843947534199429e-05,3.0258124765658088,761.6984298824644,0.9592973585397016,0.3772700771701255,72.0000000004862,-1.3608731808076822e-10,120.0000000109612,0.5634958029902841,15.288,0,0.0,0.0028191251099456,2.086299069701397e-14,-1.0551247853743037e-07,3.973493515691201e-11,2.783064866637575e-10,5.158590039700515,83.94063169874748,0.959297626767734,76.32884071402438
0.06,31.222215961742712,131.0103920785344,3.019291017943491,4.109521257467909,3.140103977270004e-05,57.06876634333886,0.0001151069734147,3.024834864051463,590.4875390737208,1.6257536642597354,0.6118982818704327,71.99999992547217,-3.5903296759057166e-10,120.00000003412836,1.6184272268450337,15.288,0,0.0,0.0047776672697797,1.0694899894620088e-13,-3.741090980393931e-07,5.521401959501359e-11,1.6723176417636091e-09,4.109521257587776,79.78719176344794,1.6257585967235286,57.148873286519276
0.07,31.222215929936205,131.01039214392435,3.0371334573469446,3.649087515174788,5.707077112564807e-05,86.89643797254193,0.0001728541558773,3.0234947746384675,855.2937749779139,2.3057260079826607,0.8506307413593818,71.99999965378231,-6.907496536790437e-10,120.00000006788592,3.255354923652711,15.288,0,0.0,0.0067759305364855,3.495199904512709e-13,-9.036515915819006e-07,7.594816279105379e-11,5.728932851326001e-09,3.6490875156204896,75.6601668283889,2.305734972638426,86.94902215090157
0.08,31.222215886364623,131.01039223353447,3.0621840248716574,3.4254446680114707,8.413075603463509e-05,17.831756866644035,0.0002285946601282,3.021841001032126,241.2171988638848,2.961944911520492,1.0819695676346892,71.99999900671328,-1.141745983122182e-09,120.00000011415082,5.371998197385977,15.288,0,0.0,0.0087043901031071,8.800530155962314e-13,-1.829098470920821e-06,1.0943386634701918e-10,1.4896287129277132e-08,3.4254446690434226,71.81713637501419,2.9619581267487467,18.085991154451033
0.09,31.22221583454733,131.01039234010327,3.0919888289029,3.389560809024919,0.0001118726864415,54.09031716446879,0.0002748660999733,3.020060228038602,563.0937377043176,3.504225426410036,1.2780161667917422,71.99999774508822,-1.634190085504106e-09,120.00000016921716,7.519080503822694,15.288,0,0.0,0.0102980157586766,1.865782139518716e-12,-3.1503298654458527e-06,1.6284478329871028e-10,3.03536411425607e-08,3.389560810868955,68.76526501308032,3.504242999330529,54.17456206384468
0.1,31.22221577423132,131.0103924641528,3.1267248829165366,3.4447939461814814,0.0001419149103147,51.372195336549765,0.0003131602029306,3.0182021883815127,538.7437595981919,3.950569597142709,1.4443465951180965,71.99999562056465,-2.1287748602259068e-09,120.00000023339832,9.55649523509932,15.288,0,0.0,0.0116097108366932,3.485956000178229e-12,-4.949356763187612e-06,2.4573266549165286e-10,5.3761299442583966e-08,3.444793949101151,66.34639928474206,3.9505918890846927,51.460781166288626
0.11,31.222215706113143,131.01039260424562,3.165907002780892,3.4691423802630394,0.0001702373452339,40.591037561894986,0.0003534470100582,3.016051659024047,442.8656393052949,4.421478635995476,1.6182620895289603,71.99999235067894,-2.5564479031457968e-09,120.00000030601664,11.970509656144712,15.288,0,0.0,0.0129935974697161,5.942887149865172e-12,-7.273722517324353e-06,3.67769289312894e-10,8.842679949465076e-08,3.4691423844348632,63.88798785789768,4.421505376815134,40.70293476011277
0.12,31.222215630588888,131.0103927595646,3.2092596514826863,3.4852659299808075,0.0001974376474727,44.30042894095728,0.000394069215595,3.013641598889868,475.58594813540446,4.896982486381051,1.793579340340896,71.99998761802138,-2.8337988279882726e-09,120.00000038673312,14.683611096353944,15.288,0,0.0,0.0143909889875706,9.464337642181618e-12,-1.017558359402848e-05,5.395790443954697e-10,1.3700793350599625e-07,3.4852659355662303,61.5068242157714,4.897013499814194,44.40281567867803
0.13,31.222215548046687,131.0103929293088,3.256512891171917,3.5606043721293616,0.0002276507019012,48.86766833507025,0.0004268800875964,3.0112558910133567,515.9156326236895,5.278566579338586,1.939796541405244,71.99998107389406,-2.8573058577484587e-09,120.00000047523812,17.061052093156064,15.288,0,0.0,0.0155123760833565,1.4300406003001044e-11,-1.3705268062305584e-05,7.724776992181392e-10,1.989112774124932e-07,3.560604379397528,59.67313531776262,5.27860233862722,48.960358155653
0.14,31.222215458587108,131.01039311327068,3.30759734332425,3.6000732663755977,0.0002555702913645,45.540290862247225,0.0004629468001456,3.0085404980032777,486.2390860568404,5.70011779273801,2.098362647205908,71.99997235012626,-2.508533681468686e-09,120.00000057154703,19.894788765881632,15.288,0,0.0,0.0167512184495524,2.071534240530911e-11,-1.7917736259613292e-05,1.0787346240473087e-09,2.8081526258393346e-07,3.6000732754351943,57.72385750323359,5.700157937625502,45.639559681930805
0.15,31.222215362317904,131.01039331122794,3.3624387479639086,3.651605404442164,0.0002842753491325,44.01308509501,0.0004965057129938,3.005703619811542,472.54218587214,6.091938849578711,2.2476968067377374,71.99996103728932,-1.6446954747148112e-09,120.00000067569304,22.723773683610247,15.288,0,0.0,0.0179026934683374,2.9002783512213203e-11,-2.287326399669318e-05,1.47199345427166e-09,3.831202693354572e-07,3.651605415492516,55.98561718911576,6.091983503446133,44.115597174664394
0.16,31.22221525912812,131.01039352340948,3.421115382839859,3.67540086436193,0.0003108411545024,34.83804992586084,0.0005330990866742,3.002517946501868,391.1218908297564,6.521183188362317,2.4085903880902046,71.99994669525161,-1.0153513453738144e-10,120.00000078796704,26.03872642002185,15.288,0,0.0,0.019164148528834,3.9478358970291335e-11,-2.864207894220033e-05,1.9677461746207517e-09,5.135466997084602e-07,3.6754008774883777,54.15946979122355,6.521232015176687,34.96719658394182
0.17,31.2222151493826,131.01039374906244,3.4833737923187487,3.7139589864597298,0.0003384978477213,43.96471427482637,0.0005668629535037,2.999235483723449,471.78125980632376,6.916861975403744,2.559060925010733,71.99992884100092,2.3206494032971838e-09,120.0000009081849,29.29426197817256,15.288,0,0.0,0.0203269651395979,5.248754693205839e-11,-3.5267097947693114e-05,2.580363454062817e-09,6.706952682968329e-07,3.713959001863866,52.549031795895466,6.916915146521327,44.06689817851128
0.18,31.22221503253009,131.01039398932429,3.549599475912623,3.7380363034619775,0.0003650282082698,36.67395661481795,0.0006021794701355,2.9956556354306425,407.10156721191447,7.332140201215607,2.71556808256092,71.99990696207136,5.837017536380516e-09,120.00000103716444,32.917216366714264,15.288,0,0.0,0.0215473823438242,6.839750892601699e-11,-4.285557247677198e-05,3.331016495775474e-09,8.639362741436378e-07,3.738036321259578,50.93050624815799,7.332197539712479,36.796100973258795
0.19,31.22221490871209,131.01039424390297,3.619694897703461,3.747799769666444,0.0003901520189829,41.42208371271829,0.0006393759928961,2.991742733214697,448.9531328318269,7.771071983754382,2.879366399937307,71.99988049019642,1.0709144790974043e-08,120.00000117502664,36.97605053227239,15.288,0,0.0,0.0228373144884866,8.761416506509219e-11,-5.146771415177372e-05,4.238406957677133e-09,1.0996552116864756e-06,3.747799789945131,49.29705748437159,7.771133268690212,41.529983675580546
0.2,31.22221477769685,131.01039451327668,3.693822889232993,3.7700519460961166,0.0004166800650969,37.99697972290605,0.0006740224661302,2.987733789228414,418.51563019916136,8.179966026035371,3.0338260708461373,71.99984881140107,1.723179577184912e-08,120.0000013223286,40.969302182777255,15.288,0,0.0,0.024038975990988,1.1057590044953188e-10,-6.120032215177249e-05,5.3263847350253015e-09,1.376394225587184e-06,3.7700519690893857,47.8457752505109,8.180031477986942,38.11426270718793
0.21,31.222214639876928,131.01039479663547,3.771710975053407,3.7926098867321474,0.0004432924407074,36.46301043881366,0.0007080907240332,2.983530483977461,404.8187610144644,8.582757448615462,3.1863584283669346,71.99981127559042,2.5745201416596626e-08,120.00000147900325,45.103059028532826,15.288,0,0.0,0.0252227064089584,1.3774582723633048e-10,-7.20875523136271e-05,6.61341033873124e-09,1.7010673350603349e-06,3.792609912601061,46.47936953648762,8.582827080829217,36.584868250565684
0.22,31.22221449507626,131.01039509434258,3.8534832466471007,3.782921298925821,0.0004660920499522,44.14577847155813,0.0007479176313898,2.978724032883548,472.5421858721365,9.056569122268344,3.360845972992861,71.99976720416048,3.661811567390422e-08,120.00000164562512,50.21995530074818,15.288,0,0.0,0.0266151520780326,1.6960703048385348e-10,-8.421592474264931e-05,8.124635526119773e-09,2.0969540034515424e-06,3.7829213275976334,44.9464484092354,9.056642335836344,44.24615863872642
0.23,31.22221434283448,131.01039540734791,3.9394622486964206,3.813874679301352,0.0004940771488601,36.66675459308932,0.000779455230549,2.974212905336642,406.3406421461021,9.430647902846331,3.5044030163419806,71.99971583979395,5.0272885112871524e-08,120.00000182313076,54.45382429059888,15.288,0,0.0,0.0277145095638672,2.0669790509245914e-10,-9.77285871729516e-05,9.894576563683824e-09,2.5339062472561444e-06,3.813874711257219,43.79476959007253,9.430725512303388,36.78718303164376
0.24,31.222214184153326,131.01039573358457,4.028950821673608,3.829256049377765,0.0005200487408944,37.802126339316736,0.0008136255607606,2.9692962675112065,416.2328240017114,9.837806876534357,3.658163422426286,71.9996564062533,6.718950080713476e-08,120.0000020109434,59.25679777340223,15.288,0,0.0,0.0289110855155543,2.4956955046738006e-10,-0.0001125744417092,1.1934277804843484e-08,3.0448209172448607e-06,3.829256084638984,42.59361542722471,9.83788856559955,37.91856374864305
0.25,31.22221401888584,131.01039607335582,4.122052964664892,3.851417709838087,0.0005469594058717,38.85163035360012,0.0008459008130282,2.964283881833675,425.36408079150686,10.22297576958679,3.8050691648373967,71.99958811418384,8.786880969336211e-08,120.00000220974424,63.98709205399403,15.288,0,0.0,0.0300430411774988,2.987811646313829e-10,-0.0001288461362054,1.4273117985167728e-08,3.621333387698252e-06,3.8514177486178034,41.50703126619192,10.223061685769354,38.96455005232871
0.26,31.222213847358866,131.0103964259872,4.218542267117083,3.8780574625554745,0.0005745172425185,42.3164797140743,0.0008766626387865,2.959162938653076,455.8015834241788,10.590779679138215,3.946551912391076,71.99951013710364,1.1286401474734325e-07,120.00000241975916,68.67355887153568,15.288,0,0.0,0.0311239685467471,3.5491769188178554e-10,-0.0001465721578858,1.6932703957058654e-08,4.267712643344226e-06,3.8780575050466,40.51245375834074,10.590869924095635,42.41981967733593
0.27,31.22221366913008,131.0103967923915,4.318728802515264,3.886188503202341,0.0005994342651313,38.70936050721014,0.0009111181036949,2.953518013741325,423.84219965987256,11.004860953238978,4.102320296019413,71.99942161756776,1.4276417094868828e-07,120.0000026420792,74.14786134434608,15.288,0,0.0,0.0323408987462391,4.1858405402174807e-10,-0.0001658847815307,1.995072923688136e-08,5.018832267232506e-06,3.886188549362022,39.43841359495857,11.00495511215316,38.8218734782956
0.28,31.22221348431185,131.01039717233687,4.422535913956003,3.90556090261878,0.0006261175699806,44.68030766832924,0.0009425767186621,2.947879457547137,476.3468732012221,11.38358114165448,4.247086834352694,71.999321619057,1.7823531611327881e-07,120.000002877279,79.33831935330025,15.288,0,0.0,0.033453914386159,4.904408325040897e-10,-0.0001868529238516,2.3357766479368094e-08,5.847713054408178e-06,3.9055609527288775,38.49894431917428,11.383679491972384,44.77744842575601
0.29,31.222213292835256,131.0103975659655,4.530013412817602,3.9242599519377537,0.0006528240665589,35.802573724660256,0.0009737210635801,2.942037024315898,397.97031042211177,11.759725774384751,4.391004157029451,71.99920917567837,2.1999186079018322e-07,120.00000312617878,84.66717879828003,15.288,0,0.0,0.0345593650464213,5.711677680739745e-10,-0.0002095620322847,2.7188189988316943e-08,6.77505090435382e-06,3.9242600061534456,37.60352534239979,11.759828319749328,35.92324968749781
0.3,31.222213095024976,131.0103979726075,4.64093665799555,3.936939025755682,0.0006785438093183,33.570228713727204,0.0010059102294455,2.93586442972183,378.1859457108711,12.149968255527943,4.539237002744259,71.99908328532703,2.6880857935396905e-07,120.00000338923812,90.3787563598417,15.288,0,0.0,0.0357062504417728,6.614698865958865e-10,-0.0002340353597042,3.1467140861055e-08,7.817263716758327e-06,3.9369390841381695,36.71173884615234,12.150074840940263,33.698361337808635
0.31,31.22221289105846,131.01039839189684,4.755183729044857,3.9598342215431432,0.0007060286581592,35.396825578217346,0.0010350810412898,2.9297385597941448,394.1656220930212,12.504537499407316,4.6763673222047455,71.99894291513503,3.255120771695107e-07,120.00000366712923,95.72967338626896,15.288,0,0.0,0.0367483036680869,7.620720834468404e-10,-0.0002603234137215,3.622454560346964e-08,8.948994505138873e-06,3.9598342843844345,35.934338386209795,12.504648402129598,35.5178635353378
0.32,31.222212681031937,131.01039882363492,4.872689374180126,3.985461429033668,0.0007340760463279,38.52097867048992,0.0010630242168685,2.9235095146848846,421.55939346242695,12.84534566718622,4.809181081594425,71.99878701464397,3.909756427278764e-07,120.0000039606604,101.01782231644016,15.288,0,0.0,0.0377499198995686,8.737098716736534e-10,-0.0002884807530145,4.1491545539590986e-08,1.0187112828155184e-05,3.98546149652875,35.21473736963424,12.845460975581933,38.631757748577954
0.33,31.22221246496604,131.01039926777932,4.9934410812554,4.010606629086,0.0007621365968788,38.18822026147908,0.0010905599149574,2.917102431053817,418.5156301991682,13.18247167592885,4.940798912752974,71.99861449732019,4.661299779655886e-07,120.000004270781,106.38859400029033,15.288,0,0.0,0.0387407190563976,9.971421990244511e-10,-0.0003185760672934,4.7302669734505256e-08,1.154498667827874e-05,4.010606701382261,34.52805863348922,13.182591392065536,38.299473293007864
0.34,31.222212242662028,131.01039972474007,5.117579377337869,4.019339771238816,0.0007871574969313,29.898022638335373,0.0011220389395318,2.910051232417875,345.46563688075645,13.569536737955724,5.0878303926024735,71.99842423285973,5.519675040347761e-07,120.0000045987411,112.72655675097128,15.288,0,0.0,0.0398782837956187,1.1331556132162459e-09,-0.0003507224668667,5.37022358302301e-08,1.308298593306914e-05,4.019339848191799,33.76700548046532,13.5696603843662,30.039310197084795
0.35,31.22221201433324,131.01040019407705,5.2449575244483055,4.033762873683395,0.000813261106463,32.76415525156106,0.0011515840876071,2.902959820469776,370.5765700527033,13.934300103976534,5.227895396154902,71.99821502296155,6.495674834876441e-07,120.000004945438,118.8669740701126,15.288,0,0.0,0.040950312688979,1.2825853697215452e-09,-0.0003849609961885,6.072234695821837e-08,1.4746020857580124e-05,4.033762955530055,33.07785186209504,13.934427850732408,32.89250745069162
0.36,31.22221177990305,131.01040067594835,5.375631006350063,4.051723629010647,0.0008401329464575,37.01692984301412,0.0011797030485285,2.8957873473716007,407.8625232777193,14.282998147928636,5.362923567977223,71.9979856440668,7.600645476620651e-07,120.00000531213882,124.88900300695136,15.288,0,0.0,0.0419751331662584,1.4462801652534363e-09,-0.0004213876232777,6.84067806399068e-08,1.654507199147348e-05,4.051723715967022,32.44322602189087,14.283130115703262,37.13002398000203
0.37,31.222211539445663,131.01040117020102,5.509550188388412,4.071639898917391,0.0008674922629137,35.12417761390579,0.0012067983861697,2.88849906286036,391.1218908297666,14.620581431527652,5.494447309446232,71.99773482653193,8.846681943540367e-07,120.00000570002652,130.86067091914967,15.288,0,0.0,0.0429672939311924,1.6251202388969355e-09,-0.0004600660652957,7.679415042686734e-08,1.849041957573993e-05,4.071639991174516,31.85023865502424,14.620717696893658,35.24274792557624
0.38,31.222211292895075,131.01040167697127,5.646763233102716,4.08264881385344,0.0008930259828975,36.695642158537446,0.0012360471443664,2.880711738179021,404.8187610144602,14.986392916850402,5.634654729559426,71.99746126698146,1.0246533537040716e-06,120.0000061105033,137.4891296153862,15.288,0,0.0,0.0440424171304414,1.8200057922063743e-09,-0.0005010869196581,8.592980519823866e-08,2.0642694281337543e-05,4.082648911356968,31.228847973200924,14.986533193043764,36.808540518115166
0.39,31.22221104018777,131.0104021963902,5.787316652586672,4.096641430700089,0.0009192713382325,31.335681548387896,0.0012640110027448,2.872831219844713,357.64062493382744,15.337978856701952,5.770390286512262,71.99716358743511,1.1813915463769678e-06,120.00000654506955,144.01394309468844,15.288,0,0.0,0.0450757388736732,2.031886352449547e-09,-0.00054455673306,9.586443829735616e-08,2.295945663566148e-05,4.096641533664766,30.65298398882095,15.338123255506089,31.4670954954126
0.4,31.222210781536543,131.01040272801887,5.931064331106764,4.109028969993624,0.0009451871856381,29.95928076777898,0.0012920492774571,2.8646905607053603,345.465636880754,15.692185018814769,5.906873567965718,71.99684037970908,1.3563276523471372e-06,120.00000700500496,150.74021066990193,15.288,0,0.0,0.0461167659598875,2.2617341782092324e-09,-0.0005905037520737,1.0663253249436129e-07,2.5471259834659164e-05,4.1090290785164525,30.09246700352443,15.692333488470696,30.095929256306363
0.41,31.222210517064383,131.01040327160345,6.077922766619747,4.122888296344507,0.0009714525997821,33.78425365340317,0.0013192264430821,2.85640971467756,378.94687077668647,16.03742529732769,6.0405139809190125,71.99649020751959,1.5509747261474075e-06,120.0000074917568,157.44375780268788,15.288,0,0.0,0.0471314487675864,2.5105374204052982e-09,-0.0006389770219162,1.1827345344180344e-07,2.816813594418537e-05,4.122888410595805,29.56469007160549,16.037577892745222,33.904791300285986
0.42,31.22221024682894,131.0104038270252,6.227854084363214,4.14444025865494,0.0009995884754813,38.04468161607466,0.0013435485656724,2.8482703202464488,416.2328240017114,16.348862540904037,6.163613566771559,71.99611159893284,1.766920641656551e-06,120.00000800692096,163.6157044470786,15.288,0,0.0,0.0480467946810589,2.779304965995011e-09,-0.0006900467934588,1.308321832549104e-07,3.100973487310896e-05,4.144440378988911,29.104646754454564,16.34901955589459,38.15115260238947
0.43,31.222209970843565,131.0104043942566,6.380851271439565,4.1618082623168045,0.0010268052928652,33.45815353250911,0.0013687230309017,2.8397750580998298,375.9031395134336,16.67263197205097,6.290467308135904,71.99570306121484,2.005818691215035e-06,120.00000855220898,170.15779512382937,15.288,0,0.0,0.0489983878509763,3.0690566816849196e-09,-0.0007437862329608,1.443552931671376e-07,3.4086145072160934e-05,4.161808388761201,28.640125213458976,16.672793262249197,33.57845085853367
0.44,31.22220968892116,131.01040497368373,6.537047157143216,4.164954087655709,0.0010505545842624,30.86574023822051,0.0013980747538988,2.830419582421933,353.0750125389216,17.050421620730056,6.433992917638883,71.99526304125902,2.269416145406482e-06,120.00000912964636,177.9537948947602,15.288,0,0.0,0.050108743779844,3.380847125286677e-09,-0.0008003278134917,1.589055036683518e-07,3.750784460406397e-05,4.164954219916419,28.113519280259386,17.050586641458253,30.99524475496968
0.45,31.22220940081287,131.01040556582012,6.696617751072218,4.165241899529329,0.0010735835484822,35.912216710755274,0.0014280646808282,2.820677244966047,397.2093853562869,17.438293672974723,6.580571293039616,71.99478987454265,2.5595995397253085e-06,120.00000974147088,186.13940823302417,15.288,0,0.0,0.0512487363629523,3.7158016249566814e-09,-0.000859850913876,1.745604864109677e-07,4.121350642664912e-05,4.1652420376426775,27.591357195572936,17.43846231108416,36.02281959036367
0.46,31.222209106468902,131.0104061707686,6.859600379555308,4.174585124444534,0.0010989881252456,41.916816790010685,0.0014546917035209,2.811153314474766,449.7140588976434,17.786187321601275,6.714685486378061,71.99428180697711,2.8783880229668832e-06,120.0000103898448,193.6374175079873,15.288,0,0.0,0.0522712438446989,4.0751091178509895e-09,-0.0009224765531151,1.9138630415982226e-07,4.50966024037632e-05,4.1745852688465686,27.13985967570823,17.786359950252297,42.01097612387663
0.47,31.22220880579083,131.01040678873238,7.026066274755745,4.1823089530633855,0.0011240727220223,28.37640408484148,0.0014814747534716,2.801325368441072,331.0078106302534,18.138167428286582,6.849989708801916,71.99373704967608,3.2278903746588286e-06,120.00001107707628,201.37401505997488,15.288,0,0.0,0.0533057667609836,4.459978104761035e-09,-0.0009883252835099,2.094509673354327e-07,4.927107017839778e-05,4.182309103852639,26.69716826759888,18.13834399721685,28.514342615617974
0.48,31.222208499300592,131.0104074186346,7.195654207463586,4.189479568102716,0.0011490100608361,27.95074823096412,0.0015080719422187,2.7912412472910484,327.2031223011574,18.48995085190441,6.98515976370584,71.99315377257649,3.6103201777021456e-06,120.00001180491516,209.25751230436188,15.288,0,0.0,0.0543397174489847,4.8716620260348906e-09,-0.0010573190976925,2.2877013380347535e-07,5.373205427420879e-05,4.189479725385959,26.268461765425428,18.4901313379827,28.089773168283216
0.49,31.222208187201936,131.01040806005494,7.368224738812109,4.202723284133339,0.001175611380853,35.08821363242469,0.0015321405723077,2.781292092003844,389.60000969812296,18.812014261754847,7.111044804193205,71.99253015042137,4.027946338669921e-06,120.0000125755114,216.60722913930897,15.288,0,0.0,0.0552863302793499,5.311396446020465e-09,-0.0011294854492155,2.4938633613154685e-07,5.8398320167141767e-05,4.202723448262914,25.88860807032205,18.81219892635871,35.1982716047702
0.5,31.22220786953184,131.01040871291724,7.5437546994244835,4.220815778795054,0.0012036252596423,36.05491615971072,0.0015540388599792,2.7714444106710974,397.97031042210494,19.10875420627192,7.229005658018125,71.99186435180009,4.483102820610566e-06,120.00001339126192,223.4908652241728,15.288,0,0.0,0.0561585257949344,5.7804122391526605e-09,-0.0012048912160576,2.713531252030471e-07,6.327866493526626e-05,4.220815950099865,25.54902500917784,19.108943271285572,36.161276053538906
0.51,31.222207546379583,131.0104093770373,7.722184419225251,4.232567510615346,0.0012298790840397,27.54004661432325,0.0015777580800203,2.761017323676155,323.3984349720841,19.430597746636646,7.354673636736509,71.99115452520388,4.978202222778502e-06,120.00001425458936,231.07869697977367,15.288,0,0.0,0.0571045034845869,6.2799518101633574e-09,-0.0012835871653678,2.947201005874635e-07,6.854585242460463e-05,4.232567688976395,25.189423168613605,19.430790935591396,27.678103017910345
0.52,31.22220721779528,131.01041005236988,7.903530222922002,10.643483448645403,0.0001674670223291,33.20975283266513,0.0014165743716442,2.3121888792422847,372.0984511843415,20.84331481866284,7.480189822190199,71.99038381674825,1.8878605574533062e-05,120.00002921935868,265.89710068409323,15.288,0,2.5142908288922965,0.0612564571686205,6.825613381557991e-09,-0.0014603342276031,1.2948984909720684e-05,8.365292766402721e-05,10.643483449947723,25.541319310910257,20.843341124321192,33.29014723047473
0.53,31.22220688374195,131.0104107389647,8.087915828464515,10.564452223827336,0.0002032254863956,34.87484310487249,0.0014389176919516,2.290134125510518,386.5562464348624,21.173095165149984,7.603300242876973,71.98948765383348,4.170036865622612e-05,120.00005357068734,274.3727874209459,15.288,0,2.523964309221692,0.0622257786816664,7.462609965415678e-09,-0.001694872620784,1.2953779512972393e-05,9.862245672695704e-05,10.564452225759831,25.216123423404333,21.173127087734738,34.94995562190007
0.54,31.22220654411849,131.01041143700704,8.275416944499828,10.488135700342724,0.0002385137716739,30.619571915419208,0.001460968402351,2.267719793057481,349.2703242098436,21.500963025508927,7.725651145441637,71.98845520199706,6.452889879548216e-05,120.00007793479531,282.93087455237867,15.288,0,2.5336163516011534,0.0631894858158317,8.196021161397097e-09,-0.0019368944140355,1.2959688815920886e-05,0.0001144485890958,10.4881357030244,24.901380680191064,21.50100049116457,30.703432047212278
0.55,31.222206199227145,131.01041214587335,8.465828296815046,10.417121883878142,0.0002733910967478,32.458891727883525,0.0014823279284319,2.2451591604490906,365.2500005919907,21.821215009690444,7.845458457360323,71.98728221333845,8.73657087593224e-05,120.00010231290372,291.41669863640374,15.288,0,2.543235034636244,0.0641308166785028,9.028639837113826e-09,-0.0021862190269423,1.296676553416214e-05,0.0001311025810666,10.417121887426044,24.602481023846032,21.821257953863498,32.5364471639961
0.56,31.222205849075003,131.01041286554923,8.659150215795085,10.3531649685404,0.0003079681230671,30.2909948573026,0.0015026898685567,2.222628068951518,346.2265619465787,22.129465534460905,7.961344528945002,71.98596445842507,0.0001102123837301,120.00012670662596,299.70249962559166,15.288,0,2.55281971828822,0.0650368823097726,9.963210745948104e-09,-0.0024429969126206,1.2975069052527089e-05,0.0001485677085424,10.353164973070928,24.32297505469488,22.129513909980552,30.372429063808852
0.57,31.22220549374511,131.01041359586367,8.855330065904537,10.286753944542085,0.0003420000878706,29.952137905947303,0.0015234236919583,2.1993867926399604,343.1828296833023,22.445332241462545,8.07947983040856,71.98449767221098,0.0001330705894373,120.0001511175771,308.31340708043007,15.288,0,2.562365771359007,0.0659653374720703,1.1002494850534924e-08,-0.0027072696745998,1.2984657008134749e-05,0.0001669859599675,10.286753950166036,24.04252339889896,22.445385962710724,30.032779919969848
0.58,31.22220513322032,131.0104143368522,9.054385023519307,10.211876292215402,0.0003752501607292,39.4656002410831,0.0015454675895842,2.1748804657642804,426.1250058573153,22.782425392872057,8.204140424672001,71.9828775219412,0.0001559420735356,120.00017554756464,317.63762955800354,15.288,0,2.5718728244328424,0.0669561821612939,1.21492768662376e-08,-0.0029791972887065,1.2995591509532666e-05,0.0001865148092712,10.211876299036774,23.748376004640967,22.782484337029462,39.525481778440245
0.59,31.22220476708026,131.01041508938235,9.256613431034523,10.150917855528984,0.0004085763898848,31.97761680239715,0.0015653901274524,2.151010522413613,360.68438819711065,23.091541984573407,8.319849064777022,71.98109941677754,0.0001788286824834,120.0001999989326,326.3093130988857,15.288,0,2.5813551934131054,0.0678648121143701,1.340646335446126e-08,-0.0032594687712335,1.300795730415234e-05,0.0002068261393991,10.150917863665374,23.487742398911774,23.09160616360265,32.04988026621836
0.6,31.222204395555387,131.01041585297887,9.461860137800414,10.074015751364955,0.0004408073879157,28.41125729546464,0.0015878202002121,2.1251393883870926,329.4859594986058,23.43941924639775,8.447585427946393,71.97915867700908,0.0002017323653564,120.00022447343092,336.20853501919635,15.288,0,2.590803548770189,0.068887364364412,1.4777071510016952e-08,-0.0035479524362279,1.3021813346805416e-05,0.000228518699118,10.074015760909534,23.19755513449152,23.439488488260327,28.49062584518529
0.61,31.22220401860044,131.01041662773542,9.67016215622142,9.996113944759612,0.0004724837280241,33.30803031716942,0.0016104747631985,2.0985206636749654,372.0984511843297,23.79333165547996,8.577062681714844,71.9770504539234,0.0002246630016306,120.0002489839928,346.4310977226298,15.288,0,2.600219181678833,0.0699276608189299,1.6264166690764672e-08,-0.003844874790501,1.3037232973443414e-05,0.0002513771973755,9.996113955812488,22.90930760950768,23.793405873050403,33.374071899889245
0.62,31.222203636342257,131.01041741339054,9.881436705542123,9.946244558415987,0.0005050420925342,41.43706973330086,0.0016285595715301,2.074013845365005,442.86563930529206,24.083721567227894,8.686432387405146,71.97476989043507,0.0002476070776606,120.000273511119,354.931658142001,15.288,0,2.609601772565802,0.070781273990316,1.7870884999881013e-08,-0.0041503028002909,1.3054284430732013e-05,0.0002746521420676,9.946244571109244,22.683658765001983,24.083800899054275,41.488941709392996
0.63,31.222203248592866,131.01041821033226,10.095819952344833,9.889312072241488,0.000536914178633,23.46088656085021,0.001647723898899,2.048299858823416,286.11251274707894,24.3924748941292,8.801417269613397,71.97231211151708,0.0002705746532201,120.00029806808274,364.08294507669547,15.288,0,2.6189446281638897,0.0716888633536049,1.9600254157167875e-08,-0.0044645878132697,1.3073051849117964e-05,0.000299231910306,9.88931208667165,22.44689543015661,24.39255923241116,23.550132340344334
0.64,31.222202855972824,131.01041901728047,10.3128850629245,9.820523666042526,0.0005676834076254,23.031538637921823,0.0016688536073486,2.0207867083722526,282.30782441796754,24.73262549203771,8.92612767572651,71.96967220377616,0.0002935680624912,120.00032265661308,374.30014258354254,15.288,0,2.6282511935688744,0.072688735310799,2.1455454937079443e-08,-0.0047870600884579,1.3093565838442668e-05,0.0003253124743321,9.82052368228927,22.188997460930267,24.732714663538854,23.120020625767015
0.65,31.22220245846721,131.01041983426623,10.532647637721864,9.772263067349348,0.000599201140496,40.77667085496056,0.0016864184256566,1.9948842193698035,436.7781447787475,25.023518785767568,9.03523071923159,71.96684526530213,0.0003165975379745,120.0003472899756,383.14851312109687,15.288,0,2.637497171046652,0.0735438477302303,2.3439515460748592e-08,-0.005117943376155,1.3115901254096396e-05,0.0003518813975913,9.77226308554135,21.977372804970663,25.023612908062617,40.82543878400436
0.66,31.2222020555492,131.0104206623766,10.755479488122068,9.720230547249953,0.0006301820968785,34.670759164674315,0.001704522565374,1.9680478504435108,383.51251517160017,25.32518106838252,9.147563243927369,71.96382643475687,0.0003396499240067,120.00037194974512,392.4336234390521,15.288,0,2.6467138334080995,0.074430616986358,2.555539413224556e-08,-0.0054580893687502,1.3140176051575544e-05,0.0003797837342448,9.72023056748161,21.7612656159256,25.325280057154814,34.72657132948602
0.67,31.22220164741853,131.0104215011998,10.981246914606116,9.6578859455002,0.0006601256174409,23.83984633994555,0.001724362408936,1.9394668480509725,289.1562440103425,25.65534181651535,9.268700558569666,71.96061042105407,0.0003627356984049,120.00039664921104,402.72379183941206,15.288,0,2.655900892867861,0.0754011502978401,2.7806394599026016e-08,-0.0058073886770219,1.3166454846813707e-05,0.0004093477826945,9.65788596784622,21.527149027073943,25.655445508804856,23.918607989185524
0.68,31.222201234257007,131.01042235036087,11.209828656727634,9.599612844583294,0.0006899358111835,29.79455030729268,0.0017434006535369,1.910749920983965,340.8999924858462,25.97681860032819,9.386973065077798,71.95719190051216,0.0003858654363794,120.00042140178442,412.8707033894887,15.288,0,2.6650249268498767,0.0763461687075511,3.019581886493924e-08,-0.0061657844750188,1.319480415735142e-05,0.0004400464403661,9.599612869144115,21.304822621511548,25.97692697519198,29.85575650211832
0.69,31.22220081615278,131.01042320967832,11.44116858526026,9.552848838938203,0.0007202002788193,36.71491538728997,0.0017602397246703,1.882855107199608,401.0140726853634,26.268906380032025,9.495875652849362,71.95356568597806,0.0004090263251984,120.00044618873116,422.1983011721037,15.288,0,2.674113278024027,0.0772048195502698,3.2726909319313435e-08,-0.0065333085932841,1.3225296088257048e-05,0.0004715087186087,9.552848865834576,21.109315938827244,26.269019508827277,36.763163062351055
0.7,31.222200392966503,131.0104240794397,11.675368620628989,9.506033845288954,0.0007501545861081,30.774937734607896,0.0017769395270117,1.854423961119844,349.27032420985284,26.56203155524576,9.604961489382516,71.94972643283796,0.0004322370283938,120.000471034889,431.66347778791646,15.288,0,2.683168210016976,0.0780665263277833,3.540284875593272e-08,-0.0069103219390645,1.3258028595946956e-05,0.0005042714314673,9.506033874615552,20.916713460098503,26.5621493892526,30.830758731404625
0.71,31.22219996475836,131.01042495952117,11.912391924042296,9.45271912922208,0.0007792733430853,25.26930991096232,0.0017947040984898,1.8246036089910425,301.33126406340574,26.874186501939327,9.71988996203472,71.94566881111747,0.0004554847807035,120.00049592154356,441.8587883558554,15.288,0,2.6921615745538623,0.07898416933406,3.8226932600632526e-08,-0.0072968900267245,1.3293080327846012e-05,0.0005387261269474,9.452719161051409,20.713870913987115,26.87430890990981,25.33509828137962
0.72,31.222199531534194,131.01042584991075,12.152239515066189,9.391658754329336,0.0008073826100596,30.96891572159474,0.0018138274500921,1.7931190200605265,350.79220534145287,27.210030006140386,9.842123163773527,71.94138719281302,0.0004787889264459,120.00052087423296,452.9610746187881,15.288,0,2.7011178626991086,0.0799714414777866,4.1202530969895286e-08,-0.0076931967002887,1.3330540616133036e-05,0.0005750700702108,9.391658788722529,20.49820580358974,27.2101568295042,31.02078367935457
0.73,31.22219909329449,131.01042675060785,12.394916266546328,9.350653792645888,0.0008368687291392,39.21164436049428,0.0018289530993025,1.7637711807516847,422.320318528234,27.489603139887063,9.946537515526297,71.93687587162628,0.0005021442837799,120.00054588466276,462.3061387265721,15.288,0,2.710040420158886,0.0807933400719577,4.4333105123652266e-08,-0.0080994638965938,1.3370504407487344e-05,0.0006116451422308,9.350653829762022,20.32625996687671,27.489734594919632,39.251292279070285
0.74,31.222198649975656,131.01042766174376,12.640471217451296,9.303651795381144,0.0008655521035787,24.50318583803256,0.0018450506854272,1.7330494365973623,294.48281347105944,27.787142628601075,10.056458585847732,71.93212920938933,0.000525554319065,120.00057095649676,472.3568955151052,15.288,0,2.7189153799538888,0.0816680499936773,4.762202262979592e-08,-0.0085159059658669,1.3413068973840249e-05,0.0006500388201961,9.303651835289353,20.14491115731495,27.787278589207563,24.56439659277349
0.75,31.22219820196191,131.01042858252603,12.888642330708803,9.252967792407954,0.0008935575061074,28.62970613610177,0.0018617024678992,1.7012058712078564,330.24688556441487,28.09653251708233,10.169980324470131,71.92714148169453,0.0005490229322014,120.00059609347264,482.922655443198,15.288,0,2.727734506199213,0.0825775963197911,5.1072845567773686e-08,-0.0089420733267695,1.34582707132294e-05,0.0006901526313193,9.252967835177587,19.95885628482323,28.09667287676716,28.68020533960159
0.76,31.22219774913885,131.01042951319087,13.139513896074211,9.209428106779685,0.0009219332745979,30.829731282716423,0.00187674453504,1.66984484161208,349.27032420986166,28.385253190954405,10.276876155032754,71.92190695367522,0.0005725535687548,120.000621299206,492.8868266016876,15.288,0,2.7365136495227502,0.0834264019013969,5.468892502574391e-08,-0.0093783529134839,1.3506222535095036e-05,0.0007312452816487,9.209428152527853,19.78989288489226,28.385398007894526,30.87492050648442
0.77,31.22219729144823,131.01043045385876,13.393131098175,9.167825231301864,0.0009502293654499,28.821539196602924,0.0018911802367689,1.63822814196423,331.7687666960708,28.66842801495773,10.381896819047691,71.91641979168865,0.0005961497895423,120.00064657736884,502.75783605278446,15.288,0,2.745253746043101,0.0842589151810948,5.847368357242305e-08,-0.009825015704306,1.3557030654036996e-05,0.0007736958877294,9.167825280125736,19.627389782869518,28.66857727663741,28.868060493961227
0.78,31.222196828961103,131.01043140438316,13.64944925434558,9.120603851907235,0.0009776622920191,23.654277080017767,0.0019065466983913,1.6051558123101066,286.8734378128899,28.969473022538608,10.492410510824069,71.910674089101,0.0006198162651703,120.00067193298356,513.3594829232679,15.288,0,2.7539407928892934,0.0851439579394439,6.243063452216236e-08,-0.0102820846881416,1.3610778487618225e-05,0.000818171292459,9.120603903862984,19.45614061325241,28.969626593372315,23.70867674491698
0.79,31.222196361773577,131.01043236456607,13.908406393721323,9.07036971069398,0.0010044536520436,33.664451047606484,0.001922334990781,1.570968390542807,373.6203323159534,29.28087423188833,10.606061144719924,71.90466384133511,0.0006435559449369,120.000697368629,524.442255826595,15.288,0,2.7625755456447094,0.0860594463016037,6.65633486455263e-08,-0.0107495755540835,1.3667548742387328e-05,0.0008645438403737,9.070369765845248,19.281378163332043,29.28103201109903,33.70108618006473
0.8,31.222195889653136,131.0104333348874,14.170168505753024,9.031709126734777,0.0010322475779118,34.11279898178537,0.0019354698728613,1.5381221879644924,377.42502064505743,29.55570567464268,10.70807859316346,71.89838281229913,0.0006673810127084,120.00072289991977,534.3198976019729,15.288,0,2.7711741644635746,0.08686746021201,7.087531320997285e-08,-0.0112281326720716,1.37274954687086e-05,0.0009114851901584,9.031709185233936,19.132211450267437,29.555867819713043,34.14745785534919
0.81,31.222195412710978,131.01043431511795,14.434662982983486,8.986105772164986,0.0010589958979108,22.181755083444248,0.0019498260984608,1.5035094776566993,273.9374926939919,29.85328276108255,10.817125948843197,71.89182486188251,0.0006912807780289,120.00074851052076,545.1196517399408,15.288,0,2.7797322253407715,0.0877423337393703,7.537021419414154e-08,-0.0117176802711141,1.379069739190316e-05,0.0009607788954862,8.986105834052903,18.9715340826486,29.853449107769197,22.232651734175345
0.82,31.2221949311498,131.0104353048397,14.701753841186749,8.93783524661458,0.0010851249689865,28.511419502135343,0.0019645231202349,1.4677839497508118,328.72500443277005,30.16031849335741,10.929035017629907,71.88498364086568,0.0007152743534136,120.00077422505464,556.3759603321575,15.288,0,2.7882458628488727,0.088645015249109,8.005181351225407e-08,-0.0122180305650516,1.385721836403406e-05,0.0010120820154771,8.93783531195082,18.80788453384269,30.160488944388938,28.54917574307953
0.83,31.22219444495395,131.01043630408515,14.971456468164108,8.903235667173163,0.0011126388560073,36.25010714942013,0.0019759947636041,1.43397162378495,395.68750322465047,30.42166182382156,11.02644690070929,71.87785281394319,0.0007393604283072,120.000800040172,566.0452235669271,15.288,0,2.796705517755397,0.089413408644931,8.492374735885278e-08,-0.0127294404923936,1.3927174666584551e-05,0.0010635540795007,8.903235736135986,18.67369781703219,30.421836596724354,36.27845844115784
0.84,31.22219395401205,131.01043731308428,15.243852172467626,8.866104988141482,0.0011396290414169,22.375910682631744,0.0019877210402842,1.399165239923551,275.4593748256452,30.69109244223387,11.126282487265565,71.87042608966296,0.0007635402909021,120.00082595617972,576.1009549173417,15.288,0,2.8051195240671185,0.0902055791722734,8.998956418663421e-08,-0.013252246838345,1.4000696462420236e-05,0.0011170119803757,8.866105060798619,18.536667095858544,30.691271454745078,22.41961298053021
0.85,31.222193458640984,131.0104383311835,15.518725735655297,8.818266896932755,0.001164972085454,24.40378348599223,0.0020015378231258,1.3616921683036565,292.96093233939376,30.997462107924527,11.237645975158417,71.8626971059096,0.0007878215886673,120.00085198165633,587.6445484312673,15.288,0,2.813485925826749,0.0911063266765399,9.5253118036769e-08,-0.013785981847305,1.4077812716702292e-05,0.0011735682268038,8.818266973275826,18.380606376886856,30.99764510131178,24.4417441685032
0.86,31.22219295865648,131.01043935876322,15.796209000706035,8.778739569811611,0.0011911340290119,30.56520423424736,0.0020132243000228,1.3252341511112693,346.2265619465587,31.27507724274373,11.33984083016868,71.85465929457384,0.0008122073053292,120.00087811922651,598.2017023323133,15.288,0,2.821810474250699,0.0919225682077736,1.00717982647527e-07,-0.0143312555355958,1.415869101172387e-05,0.0012308795611462,8.778739649987138,18.24310334846457,31.275264345639467,30.593920302726755
0.87,31.222192454085967,131.01044039576692,16.076287046705694,8.743169853641998,0.0012176027676889,28.462675633466016,0.0020237080236604,1.2890177913031122,327.964078366998,31.538290559567,11.43738507119876,71.8463060643094,0.0008367020978431,120.0009043735574,608.2967286807589,15.288,0,2.830092742373865,0.0926964881331745,1.0638790624776425e-07,-0.0148881860956478,1.4243439409800352e-05,0.0012894401424075,8.743169937766618,18.115454244549923,31.53848182016248,28.4918492761981
0.88,31.222191944969115,131.010441442113,16.35893637923749,8.70235852875232,0.0012431168159527,24.599550172575626,0.0020350636447689,1.2511340099415695,294.4828134710418,31.819869618167125,11.54061075645635,71.83763073478445,0.000861321966977,120.00093076492432,619.1903560610746,15.288,0,2.838330741596125,0.0935243959247816,1.1226668284107813e-07,-0.01545680968031,1.4332155895364964e-05,0.0013506030124954,8.702358616857047,17.979516347758853,31.82006488649994,24.631346068483182
0.89,31.222191431394727,131.0104424976184,16.64409957081576,8.656477744191976,0.0012676420191704,26.98214376068528,0.0020472778976089,1.211526120865804,315.028134248087,32.11992380989979,11.6495635379236,71.82862667322814,0.0008860547240685,120.00095727459096,630.9057869001649,15.288,0,2.8465232305336285,0.0944066136322184,1.1835813458627849e-07,-0.0160371527621077,1.4424937447415907e-05,0.0014144882279886,8.656477836300542,17.8356472490182,32.12012293064251,27.00932952990826
0.9,31.22219091328368,131.0104435624466,16.93183526813314,8.623981803893054,0.0012938831730966,29.806105018647013,0.0020560607344415,1.1742651920761515,339.37814235421445,32.37028153534635,11.74273668611663,71.8192868665404,0.0009109221177317,120.0009839307906,640.7615599571836,15.288,0,2.8546638101921444,0.095142771867874,1.2466604712158737e-07,-0.0166296033793159,1.452193521100686e-05,0.0014781344246553,8.623981900221647,17.719985943277102,32.370484778039895,29.82922726708357
0.91,31.22219039071268,131.0104446364394,17.22209409623653,8.586313025296889,0.001319149444365,22.68219343044068,0.002065696482175,1.135290144025666,277.7421810230789,32.63910469299179,11.841634087326463,71.80960455388662,0.0009359258135777,120.00101073385,651.4301646571522,15.288,0,2.862760928285553,0.0959332114131793,1.3119427370005197e-07,-0.0172341327663345,1.4623242331236182e-05,0.0015445470012103,8.586313125870266,17.596096667636495,32.639311904501945,22.710587548413407
0.92,31.22218986389888,131.01044571914912,17.51472991851343,8.543679291338803,0.0013434034630095,27.003676137591228,0.0020761625515175,1.094554477333675,315.02813424806214,32.92632996595061,11.946254555666416,71.79957291973132,0.0009610599706604,120.00103767352428,662.9271968818235,15.288,0,2.870810752443393,0.0967777466071431,1.3794684917987424e-07,-0.0178504094114275,1.4728903912679797e-05,0.0016138113243325,8.543679396172832,17.46439367154641,32.9265409872731,27.025850194919233
0.93,31.222189332746467,131.01044681077343,17.809812432548988,8.513127682135789,0.0013693243981423,32.120315098489954,0.0020834025342947,1.0561119205808138,359.1625070654728,33.16663205321342,12.035961048885456,71.78918496311253,0.0009863383649789,120.00106476695436,672.6197603498819,15.288,0,2.8788174135759936,0.0974843720221339,1.4492744589289852e-07,-0.018478899655342,1.4839088108523732e-05,0.001682776440625,8.513127791451105,17.35805896651459,33.166847146186875,32.13767288954881
0.94,31.22218879713845,131.0104479115539,18.10742543360568,8.471917410257126,0.0013933435137668,23.316764807868044,0.0020928100859212,1.0145080395181687,283.0687504837787,33.44728878021379,12.138323049237007,71.77843371347922,0.0010117773105856,120.00109203479296,684.0318162987418,15.288,0,2.8867808091169453,0.0983096169280325,1.5213977687994533e-07,-0.0191199373549211,1.49539482896911e-05,0.0017558358597856,8.471917523999776,17.232796690653128,33.44750764610111,23.338824992864033
0.95,31.22218825738577,131.01044902084925,18.40735832225505,8.432378768455985,0.0014173818864255,30.198047125671494,0.0021014542403945,0.9726935005087904,342.4218736174873,33.72096232237432,12.238401039886206,71.76731210606783,0.0010373627444708,120.00111945518348,695.2514002908299,15.288,0,2.8946977378923533,0.0991143446452346,1.595880789419509e-07,-0.0197730512995166,1.5073507426545492e-05,0.0018306177633751,8.432378886717126,17.112560156005785,33.72118496420038,30.213708598355126
0.96,31.222187713174804,131.01045013930647,18.70983014139378,8.398874560581037,0.0014422292970222,29.58874495381341,0.002108239260096,0.9318342973957764,337.09533515678345,33.96975900175862,12.33051793906703,71.7558128893954,0.0010631146471525,120.00114705395303,705.5280217679382,15.288,0,2.9025743925136487,0.0998459610999398,1.6727584250493868e-07,-0.0204391621057934,1.5198020152969096e-05,0.0019061933786836,8.398874683520445,17.005772511025963,33.96998554660681,29.60341445752997
0.97,31.22218716452721,131.01045126688112,19.01482902291245,8.362596560846352,0.0014664198720902,18.92533071678988,0.0021152935898758,0.8896901846938108,245.02188719299323,34.22855379081181,12.42570703060024,71.7439287305193,0.0010890359648001,120.00117483296783,716.2979592597751,15.288,0,2.9104099972983923,0.1006069725647884,1.7520708683683905e-07,-0.0211183816301565,1.5327613024281613e-05,0.001984485200691,8.362596688503775,16.895330347889796,34.22878413550664,18.946231705515427
0.98,31.22218661175204,131.01045240293575,19.322145676968407,8.316360972724345,0.0014886264374528,27.575349692320348,0.0021244100009019,0.8442129359269333,319.5937466429581,34.527346280941295,12.533493891969975,71.73165226231131,0.0011151332536619,120.00120279873695,728.8366381027331,15.288,0,2.9181992566511394,0.1014855563836391,1.8338625954641e-07,-0.0218100879053717,1.5462283240595337e-05,0.0020673141564686,8.316361105019265,16.767345903925985,34.52758011383526,27.58826943916664
0.99,31.22218605469092,131.01045354779717,19.63189206050564,8.287365691658575,0.0015136878299519,30.141396768790056,0.0021288412414953,0.8028951954716673,341.6609485517054,34.754191141019994,12.618410039466704,71.71897593228064,0.0011414132573744,120.0012309584714,738.4230518127224,15.288,0,2.925948072858823,0.1021526740967755,1.918170807081693e-07,-0.0225149715088607,1.5602258030614708e-05,0.0021480853296263,8.28736582893078,16.674298651426085,34.754428910548285,30.152088557851247
1.0,31.22218549334209,131.01045470146914,19.944071865753887,8.248688799993753,0.0015368155035108,26.971753553817976,0.0021352489330053,0.7582802069598872,314.2672081822764,35.01998887179854,12.71559350940636,71.70589242452988,0.0011678827102255,120.00125931920526,749.7385829226404,15.288,0,2.9336541046271454,0.1029342935153298,2.0050354067408722e-07,-0.0232330764768331,1.5747655120713595e-05,0.0022334829736189,8.248688942165579,16.5642187323846,35.0202302742133,26.982410626173632
1.01,31.2221849278986,131.01045586355363,20.258555584705768,8.211817495303809,0.0015600594540647,28.214667630253345,0.0021407771053792,0.7135849103603373,324.9203161036979,35.27716197247207,12.80997795235897,71.69239413142711,0.0011945485921392,120.00128788802408,760.7676096806287,15.288,0,2.941316262657799,0.1036905706630241,2.094499439203052e-07,-0.0239641522556473,1.589853674901833e-05,0.0023206118829829,8.211817642475726,16.459220120866835,35.27740702603804,28.223690004903442
1.02,31.22218435827832,131.0104570342201,20.57540199873594,8.177625163399346,0.0015836168222505,23.541394769867267,0.0021451830733362,0.6691123138269537,284.59063161540416,35.52159159203896,12.90024943720542,71.6784735170777,0.0012214179452236,120.0013166723765,771.323125582225,15.288,0,2.948936417778054,0.1044093987686436,2.1866013166937e-07,-0.0247085705676386,1.6055082120200784e-05,0.002409204268971,8.177625315692335,16.360950150395926,35.52184034598767,23.550901970010816
1.03,31.22218378455366,131.01045821331928,20.8945638557098,8.136938467852055,0.0016057175550601,19.218886797408288,0.0021507888610526,0.6220574274162848,247.30469339049705,35.79287704352202,12.99899049388308,71.66412304622115,0.0012484979105802,120.00134567965188,783.1256033162598,15.288,0,2.956513191057641,0.1052071729866577,2.2813822018804693e-07,-0.0254662733142195,1.621739151339296e-05,0.0025019710314198,8.136938625219079,16.251775772872232,35.79312926904572,19.22895134427489
1.04,31.222183206789904,131.01045940071663,21.215999052204367,8.102707242076276,0.0016288743244057,30.621789835660064,0.0021542883253164,0.5764028649580484,345.46563688072297,36.034758594832525,13.088333327508602,71.64933492805103,0.0012757958600721,120.00137491749254,793.7212938228472,15.288,0,2.964047659914009,0.1059185275136644,2.378883562604555e-07,-0.0262373260776579,1.6385589077122066e-05,0.0025950638880239,8.102707404708386,16.156514750853628,36.03501445781305,30.62721433044514
1.05,31.22218262468292,131.01046059703947,21.539917391051983,8.063281264592113,0.0016508153719042,18.432959639992752,0.0021586420338594,0.5284908248189026,240.45625879819983,36.29817141685063,13.18445618258154,71.63410141681229,0.0013033192356952,120.00140439401493,805.3428001329147,15.288,0,2.971543959712194,0.1066931782186329,2.4791403911803784e-07,-0.0270226832245468,1.65599821865648e-05,0.0026921953522972,8.063281432462787,16.05284342883629,36.29843072632284,18.44053438220419
1.06,31.222182038484178,131.01046180176925,21.86614933967574,8.019507814543468,0.0016716436180607,26.305413032183846,0.0021636477287536,0.4784608966058833,308.17968365593924,36.58012389549218,13.286436361099655,71.61841443901342,0.0013310757604656,120.00143411703688,817.8770495370006,15.288,0,2.978998914580494,0.1075223322096729,2.582199927520018e-07,-0.0278218312040975,1.674058667587722e-05,0.0027932552760773,8.019507987628941,15.942370805927991,36.58038647665764,26.309764048823016
1.07,31.22218144806967,131.0104630151618,22.194781738386204,7.986220674969619,0.0016944492871051,30.998676376052828,0.0021654354969094,0.4313235155775168,348.5093681440308,36.813247758719406,13.372813630458106,71.6022656925203,0.0013590810924191,120.00146410571789,828.3087253224708,15.288,0,2.986416794245179,0.108207969591423,2.688101723985985e-07,-0.0286354024526859,1.692765374505649e-05,0.0028931667184132,7.986220853560987,15.853441801907184,36.81351392219098,31.001677079336478
1.08,31.222180853330784,131.0104642374411,22.525890198505763,7.95082975247108,0.0017166594618656,20.834589281610544,0.0021672521983543,0.3828936853002761,261.00157857466235,37.05412380687104,13.461597229156656,71.58564710593676,0.0013873281719135,120.00149434769736,839.1570610255645,15.288,0,2.993798063629147,0.1089164017724617,2.796886267204609e-07,-0.0294637973172428,1.712139473190563e-05,0.0029962461578943,7.950829936601488,15.761971360364148,37.0543934591087,20.83810746696124
1.09,31.22218025455896,131.01046546800632,22.859277943607843,7.904514799149206,0.0017363085731322,19.158306909909125,0.0021714328690202,0.3299459235201753,246.54375332474407,37.3444347455759,13.566116133736182,71.56855038898726,0.0014158324307181,120.0015248613124,852.3305006999946,15.288,0,3.0011383793281263,0.1097701508792185,2.908603393491965e-07,-0.030306302021293,1.732178276045556e-05,0.0031059692622854,7.904514988636864,15.651110536117528,37.34470748428875,19.16114800010271
1.1,31.22217965183399,131.01046670669285,23.19489260891848,7.864009504716439,0.0017569858935472,38.54445659407734,0.0021735764942235,0.278376087424844,413.1890617385841,37.60656541546365,13.661620497157005,71.5509671863771,0.0014446021464129,120.00155565516415,864.310107969843,15.288,0,3.0084391676300126,0.1105410758563439,3.023296704331184e-07,-0.0311629606174501,1.7528949620749344e-05,0.00321607892634,7.864009699756317,15.552766618437833,37.60684140216239,38.54546188727276
1.11,31.222179044726538,131.0104679543861,23.53302736281845,7.8349190582710495,0.0017800552901533,28.1966760998726,0.0021721415345543,0.2304733823818443,324.1593910376397,37.81241375898079,13.739084954966192,71.53288897981996,0.0014736457843155,120.00158673860348,873.7696321758782,15.288,0,3.015707360089229,0.1111465724336104,3.1409989786003494e-07,-0.0320352635501717,1.774335663228881e-05,0.0033240910676801,7.834919259218993,15.477614116157811,37.81269336941187,28.197618086982313
1.12,31.222178433300684,131.01046921095397,23.873639353801234,7.784785320609014,0.0017981953228814,10.582585517175168,0.0021757502794871,0.1739212050007573,172.73281794065943,38.11768125720432,13.848297108791115,71.51430735794509,0.0015029718449659,120.00161812049195,887.9057800506657,15.288,0,3.0229397962545472,0.1120443125513188,3.261756600845277e-07,-0.0329230607335769,1.7965109984441996e-05,0.003443679132846,7.78478552701056,15.363818420236225,38.117963717065074,10.584014812336754
1.13,31.222177818184687,131.01047047510096,24.21630461814652,7.746204807558095,0.0018187314125506,33.25876967586205,0.0021757442462849,0.1211320041224348,367.5328077900705,38.36583701753045,13.939239632826272,71.49521328372546,0.0015325893102301,120.00164980959696,899.4747891527721,15.288,0,3.0301317008415296,0.1127741854991693,3.385630375505284e-07,-0.0338247480182354,1.819397171218942e-05,0.0035609096494141,7.746205019765641,15.273383538283683,38.36612270319263,33.25899033416869
1.14,31.222177198670497,131.01047174828716,24.561503438204355,7.715680607460115,0.0018410172821415,18.383419425470954,0.0021729851482568,0.0710000598399604,239.69531773195544,38.57199373405884,14.016675711691017,71.47559831930572,0.0015625068773948,120.00168181582757,909.1371712286156,15.288,0,3.0372925531828288,0.1133806130685774,3.512643585648211e-07,-0.0347426816253697,1.84306257434392e-05,0.0036770770535828,7.715680825770826,15.199679644634434,38.572282920377226,18.38355666086257
1.15,31.22217657527353,131.01047302944974,24.90888747378237,7.664016662273088,0.001858078782495,18.12119423877561,0.0021753571735371,0.0115760031239152,237.41251153546767,38.88177038416256,14.12732911717431,71.45545398005763,0.0015927333691974,120.00171414791448,923.7677799059732,15.288,0,3.044413711537136,0.1142916354294193,3.642855655996352e-07,-0.0356752338608076,1.867482737990716e-05,0.0038059727520308,7.66401688616621,15.087127943795153,38.88206225049515,18.121198066779733
1.16,31.222175948139206,131.01047431828883,25.258360168545945,7.635461619055096,0.0018804976109917,47.55371195346567,0.0021709034601876,-0.0388350070412671,490.0437743845894,39.073494101701655,14.200100703160116,71.434771171719,0.001623278079685,120.00174681548958,932.8690131352222,15.288,0,3.0514981868407256,0.1148556537204743,3.776313000918904e-07,-0.0366223571566256,1.892669534138997e-05,0.0039261490130331,7.635461849251562,15.019838019375758,39.07378948957559,47.55372786042938
1.17,31.22217531633459,131.01047561672814,25.610550727230503,7.595809591481729,0.0019001026256853,8.377064306444282,0.0021688252993335,-0.0945140717949191,153.70937929486794,39.31892329982451,14.290061134758556,71.41354135614364,0.0016541500233513,120.00177982905504,944.59297181285,15.288,0,3.058554738632793,0.1155775466773557,3.9130323516166804e-07,-0.0375871268444232,1.9187131009846087e-05,0.00405475193367,7.595809827744441,14.932857838372172,39.31922176724695,8.377597746840872
1.18,31.22217468108373,131.01047692224373,25.964634480014546,7.541467071241585,0.001915780935115,23.09942951694172,0.0021701736668046,-0.1574051890570755,280.02501822196746,39.63906061716548,14.404095570084056,71.39175553728637,0.0016853586138047,120.00181319722104,960.0048179065722,15.288,0,3.0655583602547782,0.1165190524393374,4.0530979139580733e-07,-0.0385655333558907,1.945528367662008e-05,0.0041940293712428,7.541467313170401,14.819263039250732,39.639361547331006,23.09996591147602
1.19,31.22217404183191,131.0104782359794,26.32098612987861,7.519379820473965,0.0019394361236082,40.40282474509115,0.0021620846155633,-0.2064109445987544,428.4078130529292,39.78873666068462,14.463252331627512,71.36940445055397,0.0017169135137371,120.0018469307804,967.2353012362264,15.288,0,3.07253101764095,0.1169594956593085,4.196532612577142e-07,-0.0395599689595188,1.973189162005465e-05,0.0043182720329495,7.519380069150904,14.768279853495011,39.78904130659846,40.4033520581549
1.2,31.22217339809871,131.0104795589255,26.6799272597272,7.471301574398157,0.0019563187858919,4.121832580140212,0.0021604475764034,-0.26787510198167,117.1843741360236,40.07247147330697,14.565564857704196,71.34647956323155,0.0017488239756573,120.0018810400194,981.0454343365084,15.288,0,3.0794735503603614,0.1177940149016122,4.343367939308717e-07,-0.0405718913062308,2.0017488845652863e-05,0.0044601587079294,7.471301829070446,14.669275307078813,40.0727787711432,4.1305284839231815
1.21,31.22217275111408,131.01048088854628,27.04063270679933,7.4245679222692385,0.0019732673122302,32.434235154780865,0.002157847405941,-0.329481864844347,359.92343213200894,40.34803873320113,14.665318004517808,71.32297139230657,0.0017810999874278,120.00191553416934,994.5501199236564,15.288,0,3.0863743812578446,0.1186045344492058,4.493691397481218e-07,-0.0415972594414435,2.0311169488772327e-05,0.004604166607443,7.42456818302276,14.574054739955626,40.34834869330565,32.435908697478936
1.22,31.222172099936007,131.0104822267838,27.403734193066537,7.399853578578226,0.0019959078651826,23.47549569239893,0.0021485223780624,-0.3809856480306492,283.0687504825761,40.50188291571971,14.725741141034776,71.29887092160172,0.0018137512786284,120.00195042453214,1002.1139213770788,15.288,0,3.0932474919437727,0.1190572529260056,4.647509818504746e-07,-0.0426397744722514,2.061405452065424e-05,0.0047373868187611,7.399853846250709,14.521997995622158,40.502196432193976,23.478587110045495
1.23,31.222171444935263,131.01048357287354,27.7689818082494,7.35098084592535,0.0020119136054634,9.095108631550652,0.002145188900348,-0.4449082260700647,159.79687382222795,40.784657775715566,14.827858973178689,71.27416960137177,0.0018467873308447,120.0019857207436,1016.12017595012,15.288,0,3.100084957434695,0.1198889775635909,4.804883504200108e-07,-0.0436979222605787,2.0925898357668803e-05,0.0048886743307305,7.350981119736544,14.425303129851589,40.78497380636563,9.105984238464691
