Time,Latitude,Longitude,Altitude,Angle of Attack,Angle of Sideslip,X-Acceleration,Y-Acceleration,Z-Acceleration,Thrust,True Velocity,Ground Velocity,Pitch,Roll,Yaw,Dynamic Pressure,cp,cg,parachute_deploy_gain,Wind Speed,Wind Direction,Mach,omega_x,omega_y,omega_z,Cmq,Angle of Attack(total),Angle of Attack(gust),True Velocity(gust),Acceleration
0.0,31.222216000000007,131.010392,3.000000004412624,0.0,0.0,0.0,0.0,0.0,2.2828121974499247,0.0,0.0,69.99999999623412,0.0,119.9999999935444,0.0,1.274,1.0271675151847728,0,0.0,0.0,0.0,0.0,0.0,0.0,-0.0,0.0,90.0,0.0,0.0
0.01,31.22221599999084,131.01039200000497,3.000002745347096,0.0,0.0,0.0,0.0,0.0,34.242186961749226,3.465174813755316e-14,2.8705476994166025e-14,69.9999999962611,-2.1713911667908447e-11,119.99999999352175,7.352495975525499e-28,1.274,1.0271659134330349,0,0.0,0.0,1.0183245502395064e-16,-3.3305335486039093e-18,7.169286865560398e-18,5.624298769768554e-18,-7.715917190115602e-34,0.0,89.99999999999979,3.465174813755316e-14,0.0
0.02,31.222215999994315,131.0103920000094,3.0000030495639742,0.0,0.0,0.0,0.0,0.0,25.871876237766216,3.8197434737535036e-11,2.4171837235633357e-11,69.99999999628672,-1.1921727947863515e-11,119.99999999353136,8.93414285188691e-22,1.274,1.027164492361118,0,0.0,0.0,1.1225230367947217e-13,-6.657678965418802e-18,1.4338573731120796e-17,1.1241821275959074e-17,-1.7010872994127372e-30,0.0,89.99999999975682,3.8197434737535036e-11,0.0
0.03,31.222215999994315,131.0103920000094,3.0000030495639742,0.0,0.0,9.81877837424427,-2.5122800045972096e-05,3.3498614629347925,180.34219359854663,1.2659015405517447e-10,1.1364406173918436e-10,69.99999999631459,-1.6431898037347223e-11,119.99999999352724,9.812605835254651e-21,1.274,1.0271551940870716,0,0.0,0.0,3.720154642239108e-13,-9.991600645811728e-18,2.150108433310316e-17,1.6859343782149594e-17,-8.453698244545225e-30,0.0,89.99999999919412,1.2659015405517447e-10,10.374487003414373
0.04,31.222215999994315,131.0103920000094,3.0000030495639742,18.83801224594347,-0.0001111777826462,48.68248476615645,-1.016330065874988e-05,3.3497854396877287,548.635972453808,0.1556173050466994,0.0975908358443652,69.99999999633813,-2.0932768807056278e-11,119.99999999352085,0.0148286043323172,1.274,1.027133720825283,0,0.0,0.0,0.0004573186944143,-1.3322134194415637e-17,-1.04744143520903e-11,1.336824254131964e-11,5.0626055458604615e-15,18.83801224625964,89.06236267790787,0.1555998412814392,48.79759610369246
0.05,31.22221599164764,131.01039201704114,3.002326315126219,5.772385609593056,-4.395076213712875e-06,71.20344550265034,4.905512691849684e-05,3.349217396035405,761.6984298824663,0.8326471944351852,0.3620326097059287,70.00000001316391,-1.0866255162484559e-10,120.00000000231074,0.4245281043148827,1.274,1.027093426565204,0,0.0,0.0,0.0024469331205246,-5.0245994431125096e-18,-7.32924164976824e-07,2.217344936947165e-11,1.895424184525467e-09,5.772385609594774,84.74112356985832,0.8326465040582279,71.28217104309611
0.06,31.22221596664444,131.01039206837547,3.015081730143309,4.056581213689704,3.169093567502233e-05,53.16249142470188,0.0001203825427859,3.3481235983850643,590.4875390737236,1.657216205300742,0.6755452977614796,69.99999964391398,-3.9285905645317736e-10,120.0000000287861,1.6816755551786196,1.274,1.027050317124926,0,0.0,0.0,0.0048701272653724,3.095757869075056e-13,-7.483541766772344e-06,3.074135420506017e-11,3.8518749565858254e-08,4.056581213813337,79.59316473687034,1.657221183301277,53.26781792157489
0.07,31.22221592883117,131.0103921460222,3.034593611434361,4.115662018628709,6.450869598349036e-05,81.18203554989698,0.0001593212642178,3.347059402768047,855.2937749779172,2.099899704220947,0.8579771146174259,69.99999543281565,-8.233801910783518e-10,120.00000006883089,2.700101932075157,1.274,1.027003201295312,0,0.0,0.0,0.006171060252819,3.4704292086287e-12,-2.6327204536316785e-05,1.9541142932033486e-10,1.7170712165327165e-07,4.115662019133419,76.90111966094352,2.099909837223217,81.2510043180746
0.08,31.22221588914193,131.01039222747755,3.0542761843835606,3.459696193892355,8.037433511260004e-05,16.298214211652088,0.0002413456836072,3.344878926597744,241.2171988638792,3.051964775152957,1.2149999716613011,69.99998042886442,-1.0128995578004475e-09,120.00000011111383,5.703497661025892,1.274,1.0269597189470347,0,0.0,0.0,0.0089689344021769,1.458982438104473e-11,-5.702803872814215e-05,7.043261397829576e-10,5.405702492731987e-07,3.459696194824858,71.30331929508368,3.051977400323993,16.63790856991177
0.09,31.2222158241468,131.01039236098703,3.0886872184095737,4.313676956300389,0.0001337561018991,50.35975918308536,0.0002293282821279,3.344215841840564,563.0937377043203,2.893161298572128,1.191209213966114,69.99994788602814,-7.098432023887522e-10,120.00000018106356,5.125380275808925,1.274,1.026918932011013,0,0.0,0.0,0.0085022553945842,3.8672912027154325e-11,-0.0001115933708951,2.016054215232918e-09,1.0027525988343615e-06,4.313676958370176,72.2316578138625,2.893182308931483,50.47067588835877
0.1,31.2222157788302,131.01039245392113,3.109877853389092,4.035124630954496,0.0001457499816535,47.804664812504015,0.0002878217657545,3.341734392237128,538.7437595981891,3.5677148583138303,1.4531247507621967,69.99988403958329,1.9248461973355822e-09,120.0000002323013,7.7939962029572305,1.274,1.0268846934974103,0,0.0,0.0,0.0104845969583028,8.579678749070606e-11,-0.0001726817043215,3.984565639703107e-09,1.913455350430327e-06,4.0351246335824245,68.43243098813296,3.567737752667411,47.92132267234452
0.11,31.222215703308,131.01039260899836,3.148841432727305,4.043401107254707,0.0001752764476999,37.67622367577205,0.0003286462930162,3.3392563999062723,442.86563930529127,4.034183355956686,1.6436552022667772,69.99978525353545,7.302513231814865e-09,120.00000031883242,9.96528118825134,1.274,1.026848594915519,0,0.0,0.0,0.0118554331868328,1.5870341853361987e-10,-0.0002596204409236,7.232030302688121e-09,3.252930323390323e-06,4.04340111104746,65.92012987243639,4.034210888316708,37.82391391539392
0.12,31.222215627491828,131.01039276462643,3.186995101203875,4.17874459224363,0.0002066711490009,41.15991989399172,0.0003576945202315,3.336766085769504,475.58594813540793,4.361857560629481,1.7865750500940407,69.99963665601238,1.781774420198147e-08,120.00000041104812,11.649831899889556,1.274,1.0268114448194128,0,0.0,0.0,0.0128183893919737,2.682972478760441e-10,-0.0003710216542429,1.2215991071490164e-08,5.026311388647148e-06,4.178744597345269,64.21681651392016,4.361890024457652,41.29495143136631
0.13,31.22221554594398,131.01039293200228,3.2277173449026786,4.202734874672792,0.0002327160860324,45.44886120763352,0.0003953741266062,3.333578629398489,515.9156326236897,4.792165672014363,1.9646716520715424,69.99942424225341,3.613383418913551e-08,120.00000051758742,14.061726603124043,1.274,1.026779572895131,0,0.0,0.0,0.0140829618979635,4.248908088871395e-10,-0.0005056103199642,1.908859219307828e-08,7.5253154423526356e-06,4.202734881104192,62.048594618540655,4.792202226971676,45.570952718869485
0.14,31.222215454191247,131.01039312033683,3.2737880595608355,4.184830647080848,0.000257138757548,42.32232525579263,0.0004369426767266,3.329727443445437,486.2390860568421,5.269261304374574,2.158791628597544,69.99913473613935,6.515851355725497e-08,120.00000064630268,17.000925061330125,1.274,1.0267449573927567,0,0.0,0.0,0.0154850332441425,6.382432869666793e-10,-0.0006690086306358,2.8426433029675884e-08,1.0948547100483978e-05,4.184830654966803,59.74181173116622,5.269301695636157,42.45310707234106
0.15,31.222215353826755,131.0103933263496,3.3242182719560263,4.21963947489699,0.0002846467688673,40.886944113003565,0.0004726792395108,3.325585650885676,472.5421858721398,5.6781946837482895,2.329510773545807,69.99875162806286,1.0876776246115984e-07,120.00000079954532,19.742017654108928,1.274,1.0267115958081523,0,0.0,0.0,0.0166867950518804,9.204756288136623e-10,-0.000865746478554,4.08948221429571e-08,1.526771148078443e-05,4.219639484480408,57.84996018384879,5.678239395958187,41.02196629910223
0.16,31.222215247130432,131.01039354534575,3.3775922280208457,4.253495568077899,0.0003118339050386,32.26872905470846,0.0005078415214353,3.32090791922544,391.1218908297597,6.081244877834229,2.4981889727471702,69.99825581174558,1.7187028096464329e-07,120.0000009800088,22.644030778355887,1.274,1.026675762255412,0,0.0,0.0,0.0178712695992133,1.2856146928958252e-09,-0.0010961187242953,5.6923362293832417e-08,2.0702404729358337e-05,4.253495579487569,56.06022383757386,6.081293860589489,32.43916312841722
0.17,31.22221513260033,131.01039378041813,3.4348437275053194,4.364838523348639,0.0003448792023946,40.840448242802736,0.0005326487904353,3.3162727284953744,471.78125980632416,6.362544479165355,2.6250789114832647,69.99762801982864,2.5997588617291615e-07,120.00000119506798,24.78723182122683,1.274,1.0266409836796937,0,0.0,0.0,0.0186979513961862,1.747791994374917e-09,-0.0013624931601664,7.706724512977917e-08,2.6923621797558364e-05,4.364838536947241,54.85936171416122,6.362598652663785,40.97486885600156
0.18,31.222215014088988,131.01039402363364,3.4935801365785646,4.353948305387995,0.0003681615230806,33.992183768165326,0.0005718025428208,3.310131992647221,407.1015672119096,6.81502088160835,2.810667639293692,69.99684761766231,3.794979223522764e-07,120.00000144728236,28.437950785509614,1.274,1.0266048342046536,0,0.0,0.0,0.020027681385988,2.3221419748804155e-09,-0.0016616990447559,1.0147209890543081e-07,3.517105786247627e-05,4.353948320923495,52.99157233768714,6.815078712285162,34.152972512863755
0.19,31.22221488419521,131.01039429023237,3.558399965607869,4.432620772533925,0.0003996774584738,38.45149959021069,0.0005986099513107,3.304145139297767,448.95313283182486,7.1223367465208405,2.946425726785696,69.99589577323147,5.440084577183829e-07,120.00000176148238,31.060341085698347,1.274,1.026566130444714,0,0.0,0.0,0.0209308229359413,3.022391489754689e-09,-0.0020041563310821,1.3135864879722746e-07,4.433199397898183e-05,4.432620790516937,51.77883352025967,7.122399527709208,38.59320142454953
0.2,31.222214751373183,131.01039456280608,3.624052454705669,4.443889400961181,0.0004246617145652,35.23432408779927,0.0006337972852267,3.2968110145188256,418.5156301991588,7.530482904611057,3.1167566004785483,69.99474776398331,7.478025600151903e-07,120.00000211715036,34.72195181863731,1.274,1.026529240027363,0,0.0,0.0,0.0221302820454282,3.866698391504749e-09,-0.0023849544920781,1.668144671071589e-07,5.57780533277244e-05,4.443889421210987,50.22448880200342,7.530549610317194,35.38822625098952
0.21,31.222214608673173,131.01039485566503,3.6948551453492566,4.493351735844891,0.0004538195602194,33.79371564104691,0.0006629296043866,3.2891790438445727,404.8187610144608,7.868284042829251,3.2629204975089228,69.99338155599101,1.0150082652278477e-06,120.00000255293388,37.906665490338085,1.274,1.0264923657015164,0,0.0,0.0,0.0231230169900677,4.871073773182836e-09,-0.0028117605859743,2.089322918608601e-07,6.870935089180403e-05,4.493351758715364,48.992529909481824,7.868355328639073,33.95340801819282
0.22,31.22221446109996,131.01039515850383,3.767700382407304,4.5412639153933885,0.000482649303782,41.008966751568416,0.0006914639179131,3.2808061382386606,472.5421858721387,8.20057841132235,3.4071691679735228,69.9917708347139,1.3454961520984431e-06,120.00000305929996,41.175744234065135,1.274,1.0264494137127138,0,0.0,0.0,0.0240995709751246,6.054779813287368e-09,-0.0032829112061357,2.580881224843564e-07,8.3609968899004e-05,4.54126394098788,47.82515604752711,8.2006542256977,41.13999323561041
0.23,31.22221430675399,131.0103954752338,3.843768625625224,4.52371495179584,0.0005047555656171,33.98493478127787,0.0007294889663961,3.2705214710765107,406.340642146096,8.647938096586296,3.5908865300848416,69.98989017772566,1.7539876018835507e-06,120.00000365514876,45.79040229326471,1.274,1.0264133390858623,0,0.0,0.0,0.0254142776666487,7.436335125872812e-09,-0.0038001790077148,3.1489825108822685e-07,0.0001020628978177,4.523714979897577,46.31461705147579,8.648017383405135,34.14194053232237
0.24,31.222214142622448,131.0103958120587,3.92493179063287,4.57837522350066,0.0005351929930195,35.051650311058864,0.0007555049947555,3.26053011385611,416.2328240017099,8.954297884844461,3.72617527247482,69.98771316795013,2.25257161141768e-06,120.0000043564586,49.09180568115741,1.274,1.0263750048312463,0,0.0,0.0,0.0263146218848643,9.034877387788232e-09,-0.0043732521010013,3.809642748985157e-07,0.00012161410144,4.578375254714954,45.32798984252032,8.954381952763216,35.20297212911011
0.25,31.22221397517227,131.0103961556623,4.0071748888306855,4.6034117733065,0.0005618935542827,36.03738579534623,0.000785606492708,3.249069743648399,425.3640807915084,9.311611941121669,3.8789349536029696,69.98520781816889,2.8559738498748624e-06,120.00000517181904,53.08749562138344,1.274,1.0263373768840591,0,0.0,0.0,0.0273647110956883,1.0873791100894836e-08,-0.0049950711786164,4.5609738277273444e-07,0.0001444478241125,4.603411807525074,44.2165428352526,9.311700203154778,36.183554686886296
0.26,31.22221379934012,131.01039651647062,4.09364247475714,4.621386912291471,0.0005881033207375,39.29107511182762,0.0008162761165496,3.236407051295005,455.80158342417656,9.67833954512075,4.034902068846398,69.98234620927953,3.5784678110229355e-06,120.00000612171208,57.350948423913096,1.274,1.0263006300381676,0,0.0,0.0,0.0284424679130479,1.2973286442992724e-08,-0.0056712051373577,5.414206381221602e-07,0.0001704578711045,4.621386949630312,43.12063533194282,9.678431924174348,39.42414126789902
0.27,31.222213616776543,131.01039689108487,4.183310605341074,4.617158109135719,0.0006115457810536,35.90419462403674,0.0008503454714941,3.221982799915672,423.8421996598744,10.088790784535757,4.205862468567124,69.97909721779352,4.436165972465058e-06,120.000007221354,62.31798301949865,1.274,1.026260090595354,0,0.0,0.0,0.0296487219805601,1.5355910600537293e-08,-0.0064045199323113,6.379142666348734e-07,0.0002006609239367,4.617158149547818,41.94410287616451,10.08888684592241,36.048472443180565
0.28,31.22221342607797,131.0103972823952,4.277051150896916,4.642105655370123,0.0006389739579882,41.51133203546672,0.0008785747638736,3.2071101123224945,476.3468732012228,10.432377224420517,4.35383399240675,69.97542808435722,5.446665372087172e-06,120.00000849080963,66.63429581008447,1.274,1.0262212716723291,0,0.0,0.0,0.0306584788590473,1.8045308789081613e-08,-0.0072006835403936,7.469524967369969e-07,0.0002332868227611,4.642105699250441,41.0023231023774,10.432477594215127,41.63503624837164
0.29,31.22221323001776,131.01039768469093,4.373143569786686,4.62134615173668,0.0006600657405645,33.17552944492765,0.0009148746278066,3.1894209319791806,397.9703104221098,10.876662296046485,4.536381530986506,69.9713027936179,6.629751536885327e-06,120.00000994797426,72.43000748232016,1.274,1.026183007522519,0,0.0,0.0,0.0319641703260467,2.1067646517035105e-08,-0.0080566154554079,8.688043379161898e-07,0.000272130659453,4.621346198772975,39.83162628795024,10.876765978930557,33.32848872465723
0.3,31.22221302403368,131.01039810736614,4.4744193758467325,4.664362353358112,0.0006905183788532,31.08096762732793,0.0009381960428197,3.172549142946348,378.1859457108735,11.168362145070317,4.66647911311536,69.96668711012893,8.005507138509574e-06,120.00001161892672,76.36634300732833,1.274,1.0261430389738484,0,0.0,0.0,0.0328214509167604,2.4447409007156216e-08,-0.0089829108229115,1.0056222251461646e-06,0.0003115527202986,4.664362404357781,39.09908960432563,11.168470611443622,31.242464973103964
0.31,31.22221281503337,131.01039853619727,4.576593712520673,4.700143580504286,0.0007196683316923,32.79732593144512,0.0009620705970519,3.154230688182399,394.1656220930229,11.470279728974068,4.800072153432283,69.96154070456518,9.597499105113692e-06,120.00001352112182,80.55022837857167,1.274,1.0261054058068628,0,0.0,0.0,0.0337087616009043,2.8214060606649844e-08,-0.0099686353219717,1.1565909895184251e-06,0.0003550834484269,4.700143635477137,38.36463422765983,11.47039277421126,32.94865339301887
0.32,31.222212598991007,131.01039897947376,4.68216432480395,4.718667719113184,0.0007464384342556,35.7316568886908,0.0009885845337584,3.133859770838664,421.5593934624264,11.808280530415894,4.946054328851105,69.95582953472353,1.14278227255889e-05,120.00001568218067,85.36654007972253,1.274,1.026068246703101,0,0.0,0.0,0.0347021168382987,3.2392058795580455e-08,-0.0110163301561155,1.3226102501723267e-06,0.0004039614423012,4.718667778018562,37.5686120062341,11.808397780690962,35.8688218659563
0.33,31.222212376029034,131.0103994369436,4.791055524254013,4.72141404831576,0.0007708346814671,35.42013590291081,0.0010176135371143,3.1111955852784385,418.5156301991632,12.181577273013426,5.104163223586657,69.94951809396906,1.351997394754887e-05,120.00001812674968,90.84831229869296,1.274,1.0260310883392356,0,0.0,0.0,0.0357992034445943,3.700677535501642e-08,-0.0121310534481307,1.5051409581878843e-06,0.0004588955105349,4.721414111097893,36.7208578211118,12.181698355442045,35.55651229220977
0.34,31.222212145785647,131.0103999093516,4.903491659547144,4.73024573449122,0.0007962944975467,27.63851074646407,0.0010446307681611,3.0871492806781062,345.4656368807584,12.53557620048282,5.2556261014174765,69.94256797855994,1.5899658158227497e-05,120.000020882338,96.20413272674828,1.274,1.0259901535019136,0,0.0,0.0,0.0368395817555172,4.208561016221623e-08,-0.0133180771902383,1.7057647550599631e-06,0.0005184333231541,4.730245801363397,35.94841996438923,12.535701282129995,27.810389570354005
0.35,31.222211909310875,131.01040039453565,5.018822212845608,4.780248518778662,0.0008286678570753,30.332092807652543,0.0010618579815451,3.063967690608957,370.5765700527057,12.774786382148209,5.367579971644358,69.93493776125636,1.8594985713558667e-05,120.00002397748868,99.9096898192772,1.274,1.025950003202184,0,0.0,0.0,0.0375426220587071,4.7658312175989686e-08,-0.0145774693288123,1.9252724355785177e-06,0.0005782798420984,4.780248590437683,35.44790728185619,12.774916548990808,30.486451961956565
0.36,31.22221166933814,131.0104008868675,5.135354490370708,4.798132156899578,0.0008554457330409,34.32674769697476,0.0010851169437774,3.0374319611165923,407.8625232777224,13.09301701329486,5.506730645516068,69.92658597246795,2.163521613217148e-05,120.0000274401514,104.94818266210537,1.274,1.0259105142325406,0,0.0,0.0,0.0384778908056978,5.3755109608570216e-08,-0.0158991451700967,2.162609490834569e-06,0.0006464142451675,4.798132232978766,34.796094028187134,13.09315138639638,34.46087058603792
0.37,31.222211421355144,131.01040139563804,5.255882891363927,4.797392186816851,0.0008791822061288,32.551601855236584,0.00111162791192,3.0078619428913056,391.1218908297639,13.457513730739372,5.661815946371007,69.91747693543164,2.5047738471809164e-05,120.0000313040604,110.87154396328836,1.274,1.025872170958032,0,0.0,0.0,0.0395491312153729,6.040098808671168e-08,-0.0172926678053148,2.420031948898497e-06,0.0007226353721561,4.797392267189059,34.07332166419882,13.457651832357364,32.69027405888565
0.38,31.22221116634284,131.01040191882743,5.379799334000849,4.811698494594017,0.0009057112478668,34.02947987649063,0.0011338447913587,2.9774881690446744,404.81876101445977,13.77554886562956,5.800899861213392,69.90756948297444,2.886339581486796e-05,120.00003560072224,116.17243393848278,1.274,1.02583050512925,0,0.0,0.0,0.0404838339452728,6.762496638941508e-08,-0.0187646375218858,2.69955777313946e-06,0.0008026686661094,4.8116985796350695,33.46655348088405,13.775691134419684,34.15949264475229
0.39,31.222210906095896,131.01040245274032,5.505993307722699,4.813508003664984,0.000929862892873,29.00025983045028,0.0011579891265804,2.9442136901860865,357.6406249338268,14.124492165837273,5.950648592462506,69.8968186645841,3.311602501056718e-05,120.00004036395212,122.13093644173792,1.274,1.02579027384009,0,0.0,0.0,0.0415093739609825,7.545934774906889e-08,-0.020311592409804,3.0013532510753577e-06,0.0008908380763632,4.813508093268025,32.821616487639595,14.124638228358922,29.149330452482886
0.4,31.222210638473225,131.0104030017851,5.635788650457906,4.841647069358873,0.0009592124397379,27.71178845184976,0.0011749448424961,2.91135549588368,345.4656368807565,14.390874239274588,6.07193451174791,69.8851815212744,3.783947407715338e-05,120.00004563180136,126.77947425345651,1.274,1.0257493418632293,0,0.0,0.0,0.0422922854866381,8.39343718693383e-08,-0.021938519432511,3.3271332720311508e-06,0.0009803271643914,4.841647164150728,32.348088166612904,14.391024912012275,27.864299944624147
0.41,31.22221036681104,131.01040355909262,5.767123077463226,4.86553909860892,0.0009876699832274,31.306062598221665,0.0011918093836199,2.876450850006428,378.9468707766882,14.663028799871563,6.195223154320929,69.87261222561014,4.307011032901644e-05,120.0000514391194,131.6183642808765,1.274,1.025708445186429,0,0.0,0.0,0.0430921644173401,9.308325447883581e-08,-0.0236371933433427,3.6760977501392174e-06,0.0010761942383903,4.865539198612839,31.87689439156756,14.663183942709727,31.437931330109585
0.42,31.22221008906472,131.01040412887247,5.901259531771367,4.867510642114694,0.0010118258958528,35.308283402190774,0.0012128114559048,2.8374461227958245,416.23282400171047,14.9952917972178,6.33928625560071,69.85906967380902,4.884273094936628e-05,120.00005782486392,137.64909586091787,1.274,1.0256701057426505,0,0.0,0.0,0.0440686959134695,1.0293499639582845e-07,-0.0254093547296826,4.049238334851429e-06,0.0011830797791891,4.867510747027452,31.315270489291198,14.995450734457847,35.422111438762386
0.43,31.222209804115888,131.01040471342728,6.038886819939341,4.854590670645608,0.0010330089741511,31.00586934514032,0.0012363751872706,2.794478603999558,375.90313951343126,15.369430568701889,6.497852263156962,69.8445117629242,5.519340856908871e-05,120.00006482835984,144.60167924299955,1.274,1.0256308158337524,0,0.0,0.0,0.0451682983415116,1.135186446762958e-07,-0.0272634397889413,4.449073329427772e-06,0.0013010625065656,4.854590780289497,30.70250814963406,15.369592833372094,31.13154422839874
0.44,31.22220951192321,131.01040531284193,6.180028459770617,4.866912332640401,0.0010595850174406,28.57707721036899,0.0012525768202179,2.752165534925872,353.07501253892326,15.659290812546615,6.627318538707029,69.82889155423543,6.216182865383864e-05,120.00007249162944,150.1053167542629,1.274,1.025586171750536,0,0.0,0.0,0.0460202245100907,1.2486676023179565e-07,-0.0292060158163984,4.8779154055816594e-06,0.001420032405556,4.866912447705031,30.24619499837236,15.659457251771938,28.709297424144207
0.45,31.222209215425703,131.01040592106523,6.322872201489905,4.881836476567178,0.0010866574689855,33.31904824532484,0.0012669045761511,2.7082028218433374,397.2093853562887,15.934249290371609,6.751662050993672,69.81215834018458,6.97909417564726e-05,120.00008085697964,155.42080512416243,1.274,1.0255397023523487,0,0.0,0.0,0.0468283602442113,1.3701614206272197e-07,-0.0312276295846745,5.334643585560923e-06,0.0015449645531859,4.8818365972149325,29.82567893138932,15.934419982127675,33.428929688274074
0.46,31.22220891307435,131.0104065412864,6.468371919199588,4.869610441729251,0.0011078049156487,38.95909776354321,0.0012868374716666,2.6582856015412624,449.7140588976424,16.292139278621757,6.904766425053949,69.79426683863348,7.812149592850748e-05,120.00008996920153,162.4785746623087,1.274,1.02549635315424,0,0.0,0.0,0.0478802236363867,1.499987870203256e-07,-0.0333272350234362,5.819761874615242e-06,0.0016858511402973,4.869610567434908,29.29014635640275,16.292313292210977,39.04968351401366
0.47,31.22220860266524,131.01040717804253,6.6178810515614845,4.838450928223533,0.0011247917292402,26.253747818137555,0.0013104398935566,2.6026193242279367,331.0078106302504,16.710658191447514,7.078951441335346,69.77517236812905,8.719457259907165e-05,120.0000998741591,170.9309671061642,1.274,1.025453319323251,0,0.0,0.0,0.0491102725711187,1.6384464803343264e-07,-0.0355167087264168,6.3368207228363735e-06,0.0018427306558807,4.838451058652396,28.68386015667837,16.710834873319172,26.382435512333956
0.48,31.222208284201663,131.0104078313267,6.771393590864176,4.869339340099417,0.0011561785713505,25.860860976019296,0.0013165328518772,2.5543454292827983,327.20312230115803,16.911139899671,7.177575416403102,69.75482343794755,9.70562828082882e-05,120.00011062072316,175.0543877818846,1.274,1.0254092882449153,0,0.0,0.0,0.0496995461609974,1.7858865391586845e-07,-0.0378054080201581,6.88909442277235e-06,0.0019849793891693,4.869339477030596,28.40887970825325,16.911321511776286,25.986704537635287
0.49,31.22220796480208,131.01040848648364,6.924537656029012,4.881367714530694,0.0011829003785372,32.565703383222065,0.0013261973190012,2.5011623511055703,389.6000096981238,17.169005224738054,7.296160258358563,69.73316318155707,0.0001077573203115,120.000122255028,180.4309832312717,1.274,1.025367445590036,0,0.0,0.0,0.05045746454003,1.942747077649401e-07,-0.0401641298712614,7.47069711110948e-06,0.002140948887153,4.881367857509675,28.058569663954906,17.169191034294997,32.66161128464712
0.5,31.222207637929923,131.01040915697027,7.081324512896956,4.862566137860805,0.001202418260511,33.47759680712428,0.0013425340759632,2.4399894027711366,397.970310422106,17.52898693231981,7.450304424940405,69.71015149227495,0.0001193385310595,120.0001348274002,188.0736471953394,1.274,1.0253278572281015,0,0.0,0.0,0.0515154948878309,2.109295159784217e-07,-0.0426011733481599,8.084173008518589e-06,0.0023184335011768,4.862566286171007,27.57768313050809,17.529175807738486,33.56639745442473
0.51,31.22220730314019,131.01040984370235,7.24202048914867,4.8479762258125,0.001223054804074,25.49162310288008,0.0013562860883156,2.3767006597692686,323.39843497208153,17.86914397471067,7.597652147346554,69.68574349602717,0.0001318441288964,120.00014838524436,195.4407439266201,1.274,1.025286455263166,0,0.0,0.0,0.0525152689856776,2.2858192086249162e-07,-0.0451315948093539,8.734206149830708e-06,0.002503767471626,4.847976379721193,27.13799345359824,17.86933609171003,25.602178740977283
0.52,31.222206962738102,131.01041054193402,7.405210501673173,4.865306299521403,0.0012516517170965,30.733671928447727,0.0013599291289974,2.317711624364424,372.098451184342,18.08534843773428,7.701914987606457,69.65988568649581,0.0001453248538387,120.00016298000436,200.19561780583155,1.274,1.0252426840672306,0,0.0,0.0,0.0531507657929359,2.4726951523704535e-07,-0.0477531686556663,9.421346966092632e-06,0.0026812161964639,4.865306460134566,26.8699055233151,18.085545046726228,30.820940596104087
0.53,31.222206619320115,131.01041124632013,7.569307468221277,4.848802699234936,0.0012715119568563,32.301199055744725,0.0013711327835325,2.2490252325653923,386.55624643486095,18.41963113311156,7.8474319110539055,69.6325258319474,0.0001598315062727,120.0001786629144,207.6614205945027,1.274,1.0251993415311351,0,0.0,0.0,0.0541332845214831,2.67031759303889e-07,-0.0504479325599339,1.0141887756417996e-05,0.0028848299490111,4.848802865552398,26.45837260670532,18.419830861742675,32.37940050117613
0.54,31.22220626697288,131.01041196903336,7.737918664599091,4.831496690588052,0.0012913635058467,28.31291960103712,0.0013809098107221,2.177242866245296,349.2703242098436,18.75116898748492,7.992112829440902,69.60362200959217,0.0001754082864028,120.00019548734956,215.20067397992847,1.274,1.0251561018460285,0,0.0,0.0,0.0551077428911958,2.878941684235108e-07,-0.0532336286085667,1.090122304443916e-05,0.003098869611663,4.831496862756785,26.061835558272342,18.751371834390056,28.396510432451375
0.55,31.222205908994248,131.01041270328463,7.909026079894722,18.22227304405061,23.92206346522504,31.14972295702412,-1.799328987810296,1.1733806144452297,365.2500005919912,24.089588654520423,8.113323699629928,69.57312211246325,0.0001921068626005,120.00021350480982,355.171872308874,1.274,1.025112921033824,0,11.278816046756331,0.0,0.0707969418468491,3.0989272306468813e-07,-0.0561100530405476,1.1700476995263424e-05,0.0041961578129615,29.74335228186028,46.321371547591774,27.739031214257945,31.223703290482472
0.56,31.222205546564343,131.01041344664463,8.081909946161325,27.73445529644477,-0.0579433138980756,29.13769741426408,-0.4127831523016274,-0.3371512141006329,346.22656194657776,26.245346240491884,8.243352958320413,69.54097415464405,0.0002099796112633,120.00023276987916,421.5772823833505,1.274,1.0250709539098009,0,11.31996503450294,300.00012855656485,0.0771326526989991,3.328942889008732e-07,-0.0703538438275002,0.021798850319368,0.0057321121277852,27.73451102147058,33.11434395748787,26.236244527579977,29.142571463019614
0.57,31.222205181621927,131.01041420618407,8.258620404968442,27.47941025470942,-0.0487406185405412,28.869107340615788,-0.4161007698775286,-0.9533113091107523,343.1828296833045,26.52580108059127,8.345146132980362,69.50066143418694,0.0336209205219168,120.03589793637576,430.6279701687967,1.274,1.0250279191823897,0,11.360792541650731,300.0001285565649,0.0779570390194873,3.735572846781462e-07,-0.099379935952886,0.0217179484800427,0.0081834115399618,27.47945011436985,32.81668499408167,26.51814492305776,28.887840018713195
0.58,31.22220480931902,131.0104149695004,8.437335527673055,27.21822674297915,-0.0590215281008845,37.84659004796096,-0.4177486626844291,-1.592757630851405,426.12500585731766,26.814266476217185,8.454371558199353,69.44371080826504,0.066720372867885,120.07124178916943,440.0374173585963,1.274,1.024981594484354,0,11.401752964356744,300.0001285565649,0.0788049727871593,4.2639117181999153e-07,-0.1288129153731164,0.0216465823329019,0.0107222282748731,27.218285847937658,32.50142589963451,26.80499539790258,37.882393919527146
0.59,31.222204433141897,131.0104157456601,8.618873584576836,26.81470015795292,-0.0688656118209296,30.86529916560493,-0.4219353795219952,-2.2881241086593205,360.68438819710633,27.223719892247345,8.611248023119828,69.36988931102857,0.0994442223443783,120.10619949904442,453.5708439128948,1.274,1.0249386802161349,0,11.442455851134214,300.00012855656485,0.0800084873011526,4.915568270577285e-07,-0.1586616029804981,0.0215611690766265,0.0134082300698306,26.814782035738567,32.03308282855185,27.2129025098428,30.952871175117387
0.6,31.222204047894763,131.01041653957887,8.805470860980472,26.543667340694903,-0.0788093804109703,27.56564893712497,-0.4225576406040583,-2.973521645835058,329.4859594986072,27.499877447427,8.715474478537233,69.27895897536527,0.1316937653790787,120.14066914429786,462.8112742116807,1.274,1.024891335813742,0,11.483082036140038,300.0001285565649,0.0808202639376225,5.692051071912079e-07,-0.189067251100727,0.0214608681640569,0.0161395504928077,26.543775842667145,31.71796120628695,27.487498102803876,27.72878265021206
0.61,31.22220366101553,131.0104173367674,8.992754923847988,26.27377702335892,-0.0886310183516141,32.20489341616527,-0.4224952240500678,-3.6744731663824033,372.0984511843332,27.763282530304824,8.814708007221602,69.17060093301144,0.163370912939988,120.1745492235299,471.71124382092233,1.274,1.0248423929069768,0,11.52410740743178,300.0001285565649,0.0815945658991519,6.595645227737267e-07,-0.2198392773563907,0.0213458147634386,0.0189457872829612,26.273915886981744,31.409315171719008,27.749360408050546,32.416591665555686
0.62,31.222203268931047,131.01041814454595,9.182856306450612,25.912365856724616,-0.0980540979004493,39.87019755663386,-0.423829796700555,-4.4236767823636205,442.86563930529206,28.103617790938102,8.944783990995603,69.04460558068075,0.1943816278503286,120.20774228785278,483.3382175586732,1.274,1.0247996097896497,0,11.56456481270652,300.0001285565649,0.0825949672580669,7.627827247046418e-07,-0.2509442332557657,0.0212157478350136,0.0218911249151677,25.912538553236526,31.004039451470337,28.088215496775497,40.11709362823293
0.63,31.22220286968084,131.0104189668923,9.376910509684848,25.460260388998183,-0.1070064728139923,23.03438202895576,-0.4266031420778927,-5.233354056176865,286.11251274707456,28.52701848629594,9.10817168790124,68.90078252130857,0.2246359682841101,120.24015490351958,498.00230156100974,1.274,1.024756158874558,0,11.604905408763813,300.0001285565649,0.0838395018561458,8.789916619158159e-07,-0.2824599392881427,0.0210699363175673,0.0250111569328166,25.460470256506024,30.50231238916479,28.510209958623317,23.6252564086406
0.64,31.22220246233225,131.01041980567393,9.575424149656191,25.248400005325024,-0.1166815088581111,22.664483713717924,-0.4229376800921664,-5.95732955306408,282.3078244179702,28.688439993547995,9.167675013938222,68.73889681114217,0.2540475072690898,120.271696977651,503.644586581973,1.274,1.024708534665538,0,11.64537358562604,300.0001285565649,0.0843141005331851,1.0083583488993087e-06,-0.3144707454106476,0.0209074735564647,0.0280026698950693,25.24865193464429,30.276257001313564,28.670111717664696,23.438162762777235
0.65,31.22220205715816,131.0104206399296,9.7723811398758,24.9539088397979,-0.1259458401030235,39.33828482664076,-0.4204776007872007,-6.723731964312225,436.7781447787504,28.92115675740349,9.256062339997207,68.55866519603265,0.2825334338152173,120.30228180803844,511.8390414538008,1.274,1.0246641738210605,0,11.686060264318025,300.0001285565649,0.084998234028762,1.1511254358693397e-06,-0.3466173328486228,0.0207296584415682,0.0311150124840564,24.95420631627202,29.96276764765621,28.90137324703476,39.910976260204315
0.66,31.222201644897044,131.01042148853188,9.973159024946169,24.43667942075133,-0.1340765036435375,33.620434493158314,-0.422598532343707,-7.623513074214688,383.5125151715984,29.38221566682364,9.437213901961249,68.36001036286518,0.3100216113884952,120.33183362965056,528.2783367916218,1.274,1.0246195561629028,0,11.725738952039167,300.0001285565649,0.0863534650881745,1.307357898923764e-06,-0.3789684045249273,0.0205358436477927,0.0345607546141961,24.43702465886256,29.4038718897351,29.3611549981016,34.476516016282886
0.67,31.22220122124118,131.0104223601846,10.18013849697578,24.047571767664103,-0.1426355281318434,23.465665103553867,-0.4207789325809698,-8.47373564654391,289.15624401033847,29.690521961002208,9.557583164952632,68.14281565356386,0.3364456993612938,120.36028230531667,539.4121829252273,1.274,1.024572383541697,0,11.765510196096718,300.0001285565649,0.0872597719453711,1.4771297077842772e-06,-0.4117850780619773,0.0203240568695468,0.0379468278276211,24.04796964238496,28.9954712019118,29.668116847778503,24.95232833764734
0.68,31.222200796375063,131.01042323417047,10.387474114019982,23.74231647211541,-0.1515249293326447,29.05335451293912,-0.4160327787486857,-9.27779686490932,340.89999248584934,29.886815622746383,9.633090124087156,67.90681480409073,0.3617416862583797,120.38755956000666,546.5573360848023,1.274,1.0245245285832842,0,11.805795064126464,300.0001285565649,0.0878368800286444,1.6606807132336691e-06,-0.4448441245470758,0.0200950890394492,0.0412634841788595,23.742771990919813,28.68804851063908,29.86301417024944,30.501606619882082
0.69,31.222200368796333,131.01042411355184,10.596035647964392,23.31739404028604,-0.1596344859190284,35.533018004366234,-0.413406002151765,-10.167248653572104,401.0140726853658,30.20640688655081,9.760100643705844,67.65186948839725,0.3858560420901795,120.4136077563316,558.2977501995853,1.274,1.024479631064582,0,11.84547824261626,300.0001285565649,0.0887763625965673,1.858161596842377e-06,-0.4779774708237492,0.0198496451160767,0.0448101285648091,23.31790996998749,28.25076030436119,30.18133159258135,36.961320569005565
0.7,31.22219993253031,131.01042501040803,10.809086727579547,22.828469093231973,-0.1671941220899507,29.93425759043698,-0.4115113073933472,-11.11851525989402,349.270324209851,30.59043893534932,9.915089284136064,67.37793769472222,0.4087457339401515,120.43837988643844,572.572220736104,1.274,1.0244351749185203,0,11.884770723020686,300.0001285565649,0.0899052454822295,2.069615244832152e-06,-0.5113058965613361,0.0195864757225335,0.0485430790362475,22.829048598477744,27.74638425274146,30.56417618133756,31.935098256170164
0.71,31.22219948907353,131.01042592166996,11.025705257588935,22.41279218286195,-0.1750826212674318,24.73402299508149,-0.4068167500472572,-12.021273839008703,301.3312640634036,30.868671432461152,10.027461011293852,67.08490820755924,0.4303729152380194,120.46183381487164,583.0230148247215,1.274,1.0243880468141104,0,11.924239284560532,300.0001285565649,0.0907231920052786,2.295145967072296e-06,-0.5448719958658041,0.0193047161070942,0.052199242625233,22.413440780483057,27.33212028802059,30.841169561424746,27.503607365248907
0.72,31.22219904279721,131.01042683849172,11.243490961428932,22.01773127110125,-0.1830097059215108,30.034586380510543,-0.4006467152152903,-12.904681573216871,350.7922053414578,31.10170284001815,10.122088120989186,66.77264540789766,0.4507060291606083,120.48393346946878,591.8464885097311,1.274,1.024337302174265,0,11.963673018378609,300.0001285565649,0.0914082971594278,2.5349183995544208e-06,-0.5785105624224036,0.0190051470730754,0.0558390670770258,22.01845402773721,26.948296843727743,31.072955791516826,32.69201283715772
0.73,31.222198592152207,131.0104277639975,11.4632593342715,21.53472193450096,-0.1901586771118777,37.70297477428826,-0.3958184687822134,-13.870657592988556,422.3203185282354,31.433419925004568,10.259992065215767,66.44110833528804,0.4697240827162578,120.50465349450148,604.5258042830596,1.274,1.024292465384646,0,12.002705042213426,300.0001285565649,0.0923834469111936,2.789020728975912e-06,-0.612131548989323,0.018688096917122,0.0597131423293498,21.535521589663336,26.469603531230216,31.40354992468975,40.17544176674075
0.74,31.22219813313483,131.0104287062346,11.687033079656263,20.98102405424601,-0.196575507126589,23.8230709816286,-0.3918778134953788,-14.918822801760763,294.4828134710563,31.8490659493915,10.435795841834087,66.09030761507161,0.4874151318193656,120.52397762920688,620.6055321100946,1.274,1.0242470321640116,0,12.041485956932382,300.0001285565649,0.0936052751641574,3.0574656604243825e-06,-0.6458110147291208,0.0183524007180284,0.0638302203722827,20.981903379843697,25.91524347088106,31.818188001515765,28.11162665173898
0.75,31.22219766539224,131.01042966587957,11.914875405910092,20.574700560591925,-0.2041092031084069,27.602718932298743,-0.3829791700510428,-15.80173555559216,330.24688556441737,32.03658710607483,10.51493661755726,65.72021028115687,0.5037721990043692,120.54189427679486,627.921318798254,1.274,1.0241984712898409,0,12.080297826153451,300.0001285565649,0.0941566469960383,3.3402976282241684e-06,-0.6796012361659495,0.0179969132498675,0.0675639602613995,20.57566906386816,25.54038104740141,32.00452577523673,31.80804319773604
0.76,31.2221971987281,131.01043062320304,12.141781454184256,20.07319201037196,-0.2106833572286465,29.55454414353136,-0.3756563805486077,-16.785979239799115,349.2703242098581,32.34363905758208,10.647698368338933,65.33075338670137,0.5187931709681616,120.55839639878008,640.001571966553,1.274,1.0241522053390697,0,12.119179879552314,300.0001285565649,0.0950593267374652,3.637691932613564e-06,-0.7131954024372769,0.0176241787216429,0.0715818053104991,20.074252012933627,25.06118291863717,32.310545067795445,33.99090019824655
0.77,31.22219672199055,131.01043160061707,12.373307089047488,19.55140032195497,-0.2169244013135273,27.540257256603144,-0.3678356291239114,-17.78921974427472,331.76876669606884,32.66198937819372,10.787784199154103,64.92204977489466,0.5324890598100698,120.57349065693116,652.6478140666363,1.274,1.0241065975906936,0,12.15731474373356,300.0001285565649,0.0959952225751415,3.949575011265161e-06,-0.7466852997310454,0.0172327424265059,0.0756790739655291,19.55255660939212,24.566022024423557,32.627915054320646,32.78806813339311
0.78,31.22219623957349,131.01043258926452,12.607152485290223,19.040275981258706,-0.2231313859718002,22.545303505468954,-0.3586926322689026,-18.76800876041576,286.8734378128874,32.945078644786044,10.914212408255862,64.49415965491501,0.5448739544225156,120.58718640037544,663.9952397501619,1.274,1.0240588105546735,0,12.195639580139373,300.0001285565649,0.096827491562439,4.27594863261444e-06,-0.7800327187868932,0.0168224289382957,0.0797423794336121,19.041534882401404,24.091380440990047,32.91002933723247,29.336965135971333
0.79,31.222195752087327,131.01043358791233,12.842976904907555,18.55142995142281,-0.2294640534721445,31.76987016888642,-0.3479040111625764,-19.69365894261739,373.6203323159581,33.16899725479221,11.015890426047005,64.04716511027652,0.5559675510884319,120.5994985123567,673.0366561767431,1.274,1.0240083170932772,0,12.233727327952463,300.0001285565649,0.0974858606777771,4.616817774047682e-06,-0.8131498295302779,0.0163936906495233,0.0836910284076282,18.552799088112305,23.65227440480644,33.13295322191305,37.380287456051164
0.8,31.22219526071113,131.01043459418943,13.080182869139056,17.958355354840577,-0.2344717405424495,31.99965894901112,-0.3389457250086264,-20.76835690498979,377.42502064505805,33.549937710087406,11.191947716796475,63.58119851342149,0.5657958795163358,120.610448275092,688.569175118586,1.274,1.0239625010683884,0,12.271517088612248,300.0001285565649,0.0986057335746652,4.972163349991408e-06,-0.845923997485192,0.0159474048618396,0.0880621242847904,17.959835517963292,23.09595839520915,33.51310707800961,38.14993716365161
0.81,31.22219475776052,131.01043562346837,13.322220456058387,17.376966656956597,-0.2394460555082819,20.597942929927683,-0.3285696902277133,-21.81232967452588,273.9374926939922,33.89320506256436,11.353639873266255,63.09645675082827,0.5743914013872286,120.6200635764706,702.7151627297416,1.274,1.0239149950770308,0,12.30896600389955,300.0001285565649,0.0996148935811361,5.341804074578254e-06,-0.8784637519069574,0.0154814721913964,0.0923830900796365,17.3785654132555,22.562778058179823,33.855593073601405,30.002682160368536
0.82,31.222194249421754,131.0104366633443,13.566145038130802,16.870354867147867,-0.2452463639980104,26.30840519825769,-0.3150625664851263,-22.69086332923888,328.725004432774,34.07541907170335,11.44180175581758,62.59307448481439,0.5817864738785833,120.6283716523197,710.2746000087584,1.274,1.0238644186635044,0,12.34661368463758,300.0001285565649,0.100150711029859,5.725698143223567e-06,-0.9106697928980368,0.0149964756515526,0.0962826341014888,16.87208555103325,22.13159329845587,34.036895980563976,34.74344149796779
0.83,31.22219373980367,131.010437705602,13.810141122890336,16.278571304520224,-0.2497841231238286,33.31384443232247,-0.3029163841191543,-23.702739131475056,395.6875032246518,34.39674858671819,11.598632326255052,62.071243239337896,0.5880182686167088,120.63540465174228,723.7165110145089,1.274,1.0238188483711983,0,12.383995942186532,300.0001285565649,0.1010954055767929,6.123837312495406e-06,-0.942327479203712,0.0144949576821717,0.1005668617602313,16.280435741426363,21.60519807614159,34.357512712693364,40.886719500731644
0.84,31.222193218776976,131.01043877047883,14.0585401304813,15.639643674743516,-0.2534695692913644,20.02280881756576,-0.2910022760611037,-24.792824667841515,275.45937482564227,34.79474788812791,11.796149267468875,61.531277492334056,0.5931314417107942,120.64120277737425,740.5437567950783,1.274,1.0237739661568126,0,12.420839406539066,300.0001285565649,0.1022654510210315,6.535932629348557e-06,-0.9735133701868984,0.0139750662418908,0.1050947217729639,15.64164625147613,21.029956246733,34.75493311115567,31.869761691606556
0.85,31.22219268833332,131.01043985397047,14.310301001673098,15.095046207645,-0.2584241093900893,21.632420008251067,-0.2753932473179758,-25.63315028474632,292.9609323393965,34.97108267265428,11.887748836938115,60.97344781561015,0.5971694507993678,120.64580453884273,748.0506288125923,1.274,1.0237227741398531,0,12.457743728348529,300.0001285565649,0.1027840095935419,6.961748848474803e-06,-1.004232083244266,0.0134358013715019,0.1089577082608205,15.09720671811704,20.586492345649365,34.93048964610858,33.542448186953195
0.86,31.22219215883272,131.0104409353912,14.561099643312756,14.49686844841549,-0.2624133137046914,27.09388586443288,-0.2603286344108011,-26.5548519698422,346.2265619465616,35.23823699367143,12.02680037183291,60.39802209535964,0.6001759406224598,120.6492483443112,759.5051457523251,1.274,1.023674789281455,0,12.494607782993564,300.0001285565649,0.1035694997461305,7.401261664779141e-06,-1.0342218141752828,0.0128809499053606,0.1130660436469392,14.499192384406385,20.086766680179466,35.19701735084997,37.93819428192441
0.87,31.222191618981928,131.01044203727847,14.815510982383929,13.856342724003326,-0.2655235675036575,24.77984022073878,-0.2454311824480322,-27.54642004972957,327.9640783669946,35.58044332248642,12.207337124252202,59.80541819975625,0.6022019033547835,120.6515808207523,774.3093001506996,1.274,1.0236288969245204,0,12.530807347344997,300.00012855656485,0.1045755862860723,7.854099761175723e-06,-1.0635036460987517,0.0123094309481502,0.1173935016812143,13.858836768781872,19.544656698527483,35.53873512732568,37.052745854886446
0.88,31.22219107003726,131.01044315710706,15.072846766236571,13.230265083345367,-0.2687070712697338,20.794961298278388,-0.2291346387260545,-28.456092559845228,294.4828134710421,35.866882341044715,12.362759891013102,59.19604187129777,0.6032970036470061,120.6528469494166,786.8071338897751,1.274,1.0235805388426191,0,12.567008253148565,300.0001285565649,0.1054177741764915,8.3198921929441e-06,-1.0920734376834995,0.0117203875798622,0.1215145990559235,13.23294486413278,19.03522115093196,35.82467408771617,35.24531347362425
0.89,31.222190515791947,131.0104442873073,15.331554875673335,12.610887027506656,-0.2718644596667872,22.64858255759785,-0.2117177183438018,-29.291671319800425,315.02813424808807,36.11073595407776,12.499023938991586,58.570301198442685,0.6035098036288737,120.65309035569204,797.5224586199711,1.274,1.0235293752791452,0,12.603108279550552,300.0001285565649,0.106134803786501,8.798363210419782e-06,-1.1198187861830713,0.0111151633036308,0.1254458459751098,12.613769639203234,18.550052898970154,36.0680317448581,37.02708636887063
0.9,31.22218995560745,131.01044542915017,15.59183828200972,11.963519847472512,-0.2742982011600789,24.893098017297383,-0.1941669076121705,-30.161820355107444,339.3781423542166,36.40542035567352,12.66546014910912,57.92866864156832,0.6028905951748398,120.65235666946634,810.571792830398,1.274,1.0234837388140003,0,12.638891316118196,300.0001285565649,0.1070012391408292,9.28917058265404e-06,-1.1466423862980486,0.0104949710615475,0.1294957101797076,11.966618152381852,18.042264833857203,36.36233385957622,39.108048235888226
0.91,31.22218938617125,131.01044658923044,15.854818295300904,11.298877941783688,-0.2761661759849542,17.787837847621553,-0.1761773979114589,-31.039914032990858,277.7421810230785,36.72862647455177,12.851081798457832,57.27167238217572,0.6014905853892865,120.6506926780532,825.0073033644702,1.274,1.023436404813438,0,12.674391097506104,300.0001285565649,0.1079515129152742,9.791828805801784e-06,-1.1725150111075069,0.0098594818230235,0.1335898525654586,11.30220860142493,17.526561732020458,36.68524656104056,35.775892398992305
0.92,31.222188807999217,131.01044776651312,16.120177933972197,10.662126301759471,-0.2784908073782894,21.402187803924765,-0.1566065071838948,-31.74778332024336,315.0281342480675,36.94132898604378,12.979777547448972,56.59985731834571,0.599359451087139,120.6481435078316,834.569254143184,1.274,1.0233859136578225,0,12.709763239088566,300.0001285565649,0.1085770058875855,1.0305840646057902e-05,-1.1973868691966936,0.0092087512720054,0.1372101725279492,10.665720654624671,17.069939366868198,36.89758392456468,38.28837831694731
0.93,31.22218822663597,131.01044894995255,16.385917368670082,9.98936818222312,-0.2797601667003721,25.74095976904519,-0.1372148215259822,-32.53701667813302,359.16250706547066,37.24699415832455,13.16337029921905,55.91379684335156,0.596545664977919,120.64475304192608,848.4157619220098,1.274,1.0233407575091376,0,12.744947139449032,300.0001285565649,0.1094757373598386,1.0830824901914945e-05,-1.2211185535915712,0.0085453984644683,0.1410838429543962,9.993245108730903,16.579124713307852,37.20304970871547,41.488230765506934
0.94,31.22218763349072,131.01045015665576,16.654904307600688,9.296990257967307,-0.2802799835567634,17.008361926792468,-0.1175140564908643,-33.35703001365007,283.06875048378083,37.6040106607106,13.380392531618872,55.21414421133326,0.5930991788526428,120.64056723430636,864.7356856198894,1.274,1.0232914783978162,0,12.779691780590737,300.0001285565649,0.1105254096886897,1.1366101042981886e-05,-1.2437023273780448,0.0078684415465958,0.1450666610004773,9.301177025635049,16.07783500550183,37.55998455943581,37.443152061729364
0.95,31.222187030052133,131.0104513836528,16.926467035793593,8.637235054944616,-0.2814923946624026,22.97540456347756,-0.0962814399302026,-33.947204965399024,342.421873617488,37.81593500306922,13.518165985609892,54.50155707817908,0.5890668814394817,120.63562868566056,874.4870979742537,1.274,1.0232418269359267,0,12.814388462276378,300.0001285565649,0.1111486366008629,1.1911004408316992e-05,-1.26509568161789,0.007177637683015,0.1483897455869893,8.641786055109431,15.65120729160493,37.77171845899183,40.991355307356606
0.96,31.222186424206896,131.01045261524095,17.197996988139288,7.939087454011697,-0.2813223433846231,21.900161043407536,-0.0753301604750634,-34.673364853433384,337.09533515678265,38.16471578599664,13.73923911564171,53.77671742716496,0.5844934935777194,120.62997772321852,890.6692532077737,1.274,1.0231951201821403,0,12.848949276992789,300.0001285565649,0.1121741171208116,1.246508506906581e-05,-1.2851518231412344,0.0064764716653053,0.1521285822356895,7.944038312392085,15.18387709683762,38.12052595318932,41.010546919293475
0.97,31.222185803266004,131.01045387668375,17.47343609267382,7.246682499479985,-0.2810622233231551,11.387755758620049,-0.0535798614482465,-35.301105202390765,245.0218871929888,38.4734356962352,13.941373586166227,53.0403913471944,0.5794251713473926,120.62365692316368,905.1130949256324,1.274,1.0231476260761452,0,12.883049942351343,300.0001285565649,0.1130818612318859,1.30274512522798e-05,-1.303873021944939,0.0057632223405273,0.1555890863156309,7.252101870726108,14.750987299553069,38.42928672249952,37.09247741159651
0.98,31.22218517542475,131.0104551516637,17.75008672487991,6.579183330380052,-0.2814619230344844,18.98491681556272,-0.0308141558676224,-35.681187505606054,319.593746642963,38.63682024800832,14.05958844293768,52.2933435841526,0.5739040015846739,120.61670432419704,912.7926248447862,1.274,1.0230935628253934,0,12.917187041030136,300.0001285565649,0.1135624387337937,1.3597425203722196e-05,-1.32116906591033,0.0050395323164121,0.1583182916485508,6.58517468344469,14.392481083170686,38.592608490345285,40.41751053462169
0.99,31.222184545268487,131.01045643105374,18.02657732922856,5.876617601441005,-0.2802376960703817,20.863981648373247,-0.0083317099151739,-36.239185649255006,341.66094855170127,38.97085500345221,14.285461173014363,51.53639055477937,0.5679713145369653,120.60915757572836,928.6192950090324,1.274,1.0230490803133316,0,12.9510274702198,300.0001285565649,0.1145446005182895,1.4174436170559016e-05,-1.3369205083772275,0.0043090893757671,0.1615865870148205,5.883272220487221,13.993453778266463,38.92683554460079,41.816077962456205
1.0,31.222183898693743,131.01045774293567,18.30693041071887,5.17431686483278,-0.2786544103792207,17.362567951482326,0.0146451255870669,-36.73761295362632,314.2672081822764,39.30067315691239,14.51382040602962,50.77041711555359,0.561669125219412,120.60105588437808,944.3785618642672,1.274,1.022999484445133,0,12.984413731511566,300.0001285565649,0.1155143798329229,1.4757383573779936e-05,-1.3511314377917485,0.0035696796121794,0.1646818295103428,5.181794292628912,13.622311481703727,39.25690239703774,40.63386747382037
1.01,31.22218324359618,131.01045907159144,18.58870749489706,4.479866065030726,-0.2770742257758836,18.000367995216475,0.0381214852793016,-37.10110042249224,324.92031610370094,39.57463194798508,14.711388089710711,49.99630574382608,0.5550348749536468,120.59243331091528,957.5647649216191,1.274,1.0229507481225095,0,13.017833852416612,300.0001285565649,0.1163199821788454,1.5345402830114524e-05,-1.3637337862961385,0.0028224171185014,0.1673720079186519,4.488408802714419,13.29857018694822,39.5311094000086,41.237196240417546
1.02,31.22218258077076,131.0104604154409,18.8716481835181,3.781169618810929,-0.2748746456490771,13.091990029692283,0.0618539348294781,-37.44901917488074,284.59063161543185,39.88102884206011,14.933939033038374,49.21497791642254,0.5481044323566048,120.58332260609149,972.4231594165836,1.274,1.0229039803623294,0,13.050997839200408,300.00012855656485,0.1172209353861408,1.5937675196419134e-05,-1.3746502366492477,0.0020694706860438,0.1700133811610129,3.791133081020692,12.994577362450649,39.83785179931404,39.67156495536068
1.03,31.22218190612969,131.01046178262916,19.1567652450676,3.090658466377553,-0.2727643640882891,8.522311988026852,0.0858510147848155,-37.63455725557909,247.3046933904342,40.11620245524144,15.114481392326924,48.4273994002291,0.5409127817968143,120.57375615603524,983.898554354004,1.274,1.022853416101322,0,13.083881221438602,300.0001285565649,0.11791255243662,1.653319104296254e-05,-1.3838298490124163,0.0013113768453831,0.1721532220822871,3.1026598230596103,12.745897320713354,40.07335689096236,38.587524821391
1.04,31.222181225429257,131.01046316169516,19.442456712308488,2.403929266804928,-0.2705086540239314,18.70830520831856,0.1098927248946403,-37.70032496841046,345.4656368807608,40.31274010670292,15.272980110486184,47.63456512204542,0.5334927058262117,120.56376427136176,993.53555682282,1.274,1.0228049544826707,0,13.11660572931994,300.0001285565649,0.1184906126232523,1.713108739577366e-05,-1.3912058351053218,0.0005506790536838,0.173913958236401,2.4190923729488985,12.5431582416042,40.27024886455013,42.08713892511984
1.05,31.22218053757224,131.010464554828,19.728965801590306,1.7070159352577847,-0.2666557379458151,6.780452836626605,0.1342249574889491,-37.952460710271446,240.4562587980608,40.689752421383325,15.556573591782271,46.83750827206303,0.5258761608127378,120.55337706751556,1012.1780635931676,1.274,1.022755494436122,0,13.148993699295463,300.0001285565649,0.1195991457339043,1.773041628850695e-05,-1.3967296462364365,-0.0002106507273803,0.1762325714847266,1.7277116791394316,12.322304137873305,40.64786638722324,38.5536227995973
1.06,31.2221798311283,131.01046598481307,20.01897981811188,1.0262525040766992,-0.2638789814513233,13.688385516856613,0.1582506085821546,-37.82104234960584,308.1796836557233,40.842047584240014,15.692238355897844,46.03728986622896,0.5180937266271498,120.54262378994784,1019.7406756577072,1.274,1.0227013895379469,0,13.18108110202922,300.00012855656485,0.120047178846545,1.832977886137056e-05,-1.400370753570876,-0.0009747460301663,0.1773483782285756,1.059631479485556,12.205671240810902,40.80059771729543,40.22223496679274
1.07,31.22217912697263,131.0104674100519,20.30737296322076,0.3428744254410057,-0.2596255809297776,17.627361555092158,0.1825947078185415,-37.85563213843631,348.5093681440431,41.162391107559145,15.947010620801093,45.23498836093549,0.5101720999108493,120.53152930502245,1035.771337944552,1.274,1.0226540159946436,0,13.213169717987247,300.0001285565649,0.1209891594528153,1.892853789425993e-05,-1.40207611847181,-0.001736075781867,0.1789521166618401,0.4300784919714068,12.078453181844695,41.12160935623391,41.75890444949288
1.08,31.22217840341189,131.01046887379405,20.59921853743632,-0.3341167498084079,-0.2548185698251008,7.6584148346866385,0.207106552453438,-37.85947380774492,261.0015785751465,41.51157637934208,16.227384092301786,44.43171265873719,0.5021388428925432,120.52012075630051,1053.3894808941595,1.274,1.0226061614050743,0,13.244702517619304,300.00012855656485,0.1220159261524226,1.952525821531106e-05,-1.401811339897208,-0.0024964099774603,0.1804310488604141,0.4201972989011582,11.982452699383588,41.471549703946096,38.626855526997545
1.09,31.222177668233616,131.01047036052776,20.89252828055512,-1.0035540249767652,-0.2506455670512393,5.682177038099841,0.2308736402771414,-37.560865222044605,246.54375332456465,41.69591425538331,16.395205142359245,43.62859132735766,0.4940180060095082,120.50842140045796,1062.7357556997135,1.274,1.0225512795791307,0,13.27621740188237,300.0001285565649,0.1225581603235593,2.011875072049105e-05,-1.39953133658784,-0.0032548485001649,0.1809324117752245,1.0343778114176323,11.971068141905574,41.65654306735311,37.98893305633476
1.1,31.22217693053061,131.01047185212013,21.18527177229751,-1.6667637282603576,-0.2459361116217669,23.48150491988113,0.2544328415089013,-37.22467609027458,413.1890617384087,41.904335678702125,16.583394745631228,42.82677876129844,0.4858318773759747,120.49645304228864,1073.356522083808,1.274,1.0224981043155532,0,13.307507244875788,300.0001285565649,0.1231711870883947,2.070822710070508e-05,-1.3952211344752123,-0.004006992378533,0.1812717131514713,1.68480528073962,11.990136720957528,41.86570424325468,44.01275178171776
1.11,31.22217618123484,131.01047336666716,21.47938493661978,-2.312186849345296,-0.2392359806027996,13.424302196987428,0.2794059852786113,-37.201605993835976,324.1593910379213,42.392935866740025,16.980795229689868,42.02743795606457,0.4776027447286013,120.48423864977536,1098.5018663549622,1.274,1.0224548851875197,0,13.338374891818964,300.0001285565649,0.1246077638502794,2.129250024704342e-05,-1.3888593613704816,-0.0047518644469842,0.1825439857624286,2.3245237808913024,11.968640275385612,42.35535687597815,39.55059349366662
1.12,31.222175405514275,131.0104749337931,21.77776533804433,-2.955520601573525,-0.2335493659881099,-3.396001385262109,0.3028785516884942,-36.77640996210831,172.7328179403806,42.64497967818838,17.209581083140705,41.23174416762978,0.4693510683867753,120.47179972806846,1111.5709488960351,1.274,1.0223979224661404,0,13.369034604858683,300.0001285565649,0.125349031401853,2.186977608978157e-05,-1.380360120578434,-0.0054928365738681,0.182500321269733,2.964725779026268,12.04613495993448,42.608293931158336,36.93411553735698
1.13,31.22217463031276,131.0104764997215,22.0747933286606,-3.601787722719634,-0.2285803036672625,17.602966684487495,0.3244422361263374,-36.01019295022614,367.5328077894322,42.69824093468622,17.29203953882028,40.44092180612307,0.4610936929796905,120.4591535096539,1114.3174743503455,1.274,1.0223460397860296,0,13.399788772511824,300.0001285565649,0.1255060061818812,2.243940860127034e-05,-1.3697495769307455,-0.0062242578993498,0.1813184867820157,3.609024094041591,12.20917758437193,42.66233571979279,40.08370860053091
1.14,31.22217385419652,131.0104780673049,22.37087209466406,-4.208094397283909,-0.2211129046859381,3.4229872135073807,0.3485627470987545,-35.71283234584527,239.6953177322812,43.152104766429126,17.681323167362358,39.656180331747606,0.4528480440888504,120.44631933283486,1138.100437472526,1.274,1.0223022138470996,0,13.430062003860517,300.0001285565649,0.1268405045245853,2.300073548036414e-05,-1.3570867147870669,-0.0069413052001099,0.1815466164404997,4.213889110133681,12.291528938822614,43.11737251879188,35.87819298146093
1.15,31.222173044834552,131.0104797011566,22.672075703800008,-4.82717493157037,-0.2149576630544729,3.0052734419516685,0.3697267382174659,-34.920345005434974,237.4125115347709,43.29062385784552,17.83419548223501,38.878695463239126,0.4446314796907347,120.43331779894312,1145.3856757947688,1.274,1.0222426194541194,0,13.459910342351028,300.00012855656485,0.1272480975077942,2.3551652010771747e-05,-1.3422303753800235,-0.0076490862251047,0.1801303610126517,4.831947354692722,12.485710057060324,43.256858466301615,35.05137460386483
1.16,31.222172244100108,131.01048131761465,22.97037802689423,-5.427231798611817,-0.2081250687619151,30.46712311423996,0.3907909301955031,-34.14785672235058,490.043774385954,43.495298415587406,18.040616419046053,38.10972367989954,0.4364574163940582,120.42016457290217,1156.2087310512347,1.274,1.02219674531104,0,13.48994719563522,300.0001285565649,0.127850146562487,2.4091774484779752e-05,-1.325296548157148,-0.0083409627182035,0.1786935801345365,5.431209019358645,12.683960127945156,43.46260627812949,45.76542829625395
