Time,Latitude,Longitude,Altitude,Angle of Attack,Angle of Sideslip,X-Acceleration,Y-Acceleration,Z-Acceleration,Thrust,True Velocity,Ground Velocity,Pitch,Roll,Yaw,Dynamic Pressure,cp,parachute_deploy_gain,Wind Speed,Mach,omega_x,omega_y,omega_z,Cmq
0,31.2221860000000042,131.010383999999988,3.00000000364323682,0,0,0,0,0,2.2828121974499247,0,0,69.9999999962342088,0,113.699999993883324,0,15.2880000000000003,0,0,0,0,0,0,-0
0.01,31.2221859999997946,131.010384000000556,3.00000016469923247,0,0,0,0,0,34.2421869617492334,9.11367326775851009e-12,8.66229497295429822e-12,69.9999999962370651,-4.92863947922479589e-13,113.699999993882884,5.08594204168408172e-23,15.2880000000000003,0,0,2.67827100510624443e-14,-3.65918233213857746e-19,7.58941520739853104e-19,4.81114714040442593e-19,-1.83541113936281872e-32
0.02,31.2221859999996028,131.010384000001039,3.00000030885429547,0,0,0,0,0,25.8718762377664078,1.96992978605390895e-11,1.88456988716431921e-11,69.9999999962400494,-1.04152381447771591e-12,113.699999993882386,2.37621641206600858e-22,15.2880000000000003,0,0,5.78911013494094702e-14,-7.28448334638698292e-19,1.51788304147970621e-18,9.75781955236953991e-19,-7.93451985123442364e-32
0.03,31.222185999409362,131.010384001586402,3.00018176030779937,18.6493779029494604,-0.000129237623237530007,10.7928899806483045,-1.97644583900689674e-05,3.34983967390763571,180.342193598546658,0.0785672533977095078,0.0490694047558625918,69.9999999976775626,-4.2497891361524094e-12,113.699999994705607,0.00377978965327356543,15.2880000000000003,0,0,0.000230888677896110966,2.88330015245363835e-17,-7.25223402354589416e-10,1.08188208080271277e-11,1.51197624781400831e-13
0.04,31.2221859959356287,131.010384010943454,3.00162780953569674,9.74253989061216075,-4.88763086122285772e-05,51.6475445943311158,1.54548216767323456e-06,3.34965665682309899,548.635972453807767,0.346420694310776434,0.171860503977579737,70.0000000036447574,-2.28205307288861013e-11,113.699999999565534,0.0734838809649275282,15.2880000000000003,0,0,0.00101804013696402693,1.80009747884589399e-15,-1.58734069119923437e-08,2.61929145365345784e-11,1.45916869803439425e-11
0.05,31.222185985910329,131.010384038045004,3.00715844163023283,5.5769968489095687,-4.21135943534799539e-06,75.3242160169835273,4.73080294831520123e-05,3.34902689347595528,761.698429882464552,0.947854334293939504,0.409211128642743283,70.0000000010935537,-1.04766136577077691e-10,113.700000013612069,0.55013262299765131,15.2880000000000003,0,0,0.00278549703395658196,1.95473045844392346e-14,-1.13584749331540247e-07,4.14067569904437612e-11,2.85688606727574374e-10
0.06,31.222185966868647,131.010384089593572,3.01868664272593046,4.48500474963244322,2.31139019787050305e-05,56.3605563030587007,9.71465785775115924e-05,3.34799244711343214,590.487539073720654,1.60618980149218604,0.665693519146445256,69.9999999197690244,-2.82941102348924619e-10,113.700000040305838,1.57971028663545732,15.2880000000000003,0,0,0.00472017413217633904,1.01936766184118274e-13,-4.07864410983111553e-07,5.76522069423461223e-11,1.73837509686130208e-09
0.07,31.2221859390775336,131.010384164863126,3.03600551209402658,4.00448286551149391,4.63712119495135773e-05,85.8192455386477917,0.000147926970097503541,3.34656708333141317,855.293774977913927,2.27788210706903049,0.926660947343454056,69.9999996219982279,-5.49831570978999292e-10,113.700000079276109,3.1772067926123353,15.2880000000000003,0,0,0.00669410445039518576,3.35900025920073467e-13,-9.92070622953462368e-07,7.83315922772719921e-11,5.99658406989250883e-09
0.08,31.2221859009658012,131.01038426812616,3.06033476575187802,3.77263127792190334,7.06371256062416025e-05,17.6076228145981588,0.000196957592070898702,3.34480227118667583,241.217198863884818,2.92612482887636283,1.17954495655796454,69.9999989088305909,-9.15694670892462832e-10,113.700000132739973,5.24285298735243899,15.2880000000000003,0,0,0.00859912396431777512,8.49635706706491564e-13,-2.01744800413265681e-06,1.10032289818440005e-10,1.56647792516492608e-08
0.09,31.2221858556197738,131.010384390989856,3.0892797608365723,3.74258231141200604,9.5325675231994802e-05,53.4176180048964397,0.000237730218002333866,3.34289666486112669,563.093737704317618,3.46187703891102627,1.39384941462988121,69.9999975134546446,-1.31671842773002699e-09,113.70000019638816,7.33844512707370811,15.2880000000000003,0,0,0.0101735644468633635,1.80613395740032365e-12,-3.4856561047658452e-06,1.59232278560273843e-10,3.20202005890100843e-08
0.1,31.2221858028175774,131.010384534057465,3.12301320909491364,3.81071421019783685,0.000121971080758598364,50.732831688561788,0.000271545837515448313,3.34090447591365036,538.7437595981919,3.9029133825176725,1.57567038389986336,69.999995157830341,-1.72222432289554893e-09,113.700000270567642,9.32732681847184431,15.2880000000000003,0,0,0.0114696609641860067,3.37914451533694905e-12,-5.48904943388414521e-06,2.34452541412924053e-10,5.68476506314615152e-08
0.11,31.2221857431700727,131.010384695667796,3.16106164078641116,3.84323765504598036,0.000147145408783231387,40.0848474374385688,0.000307099758177995722,3.33859717034531034,442.865639305294906,4.36819921201157246,1.76578242121538631,69.9999915253729768,-2.07703942468805025e-09,113.700000354470319,11.6837607126815346,15.2880000000000003,0,0,0.0128370221364947634,5.76365694334259916e-12,-8.08162139954488366e-06,3.4437809457680147e-10,9.36754562129998513e-08
0.12,31.2221856770245907,131.01038487487628,3.20315617196047642,3.86558564807459826,0.000171348089099210797,43.7480799143332604,0.000342946594964391399,3.33600966231316054,475.585948135404465,4.83801864946757032,1.95742650583495204,69.9999862600106582,-2.3147200577597177e-09,113.700000447673773,14.3321420062794882,15.2880000000000003,0,0,0.0142177082532951912,9.17772063248746377e-12,-1.13223702306849879e-05,4.98555567062495836e-10,1.45354343598177095e-07
0.13,31.2221856047215205,131.010385070757366,3.24903338361815308,3.95285669440916232,0.000198169826234992146,48.2585391180499741,0.000371981107240517913,3.33344523512332414,515.915632623689476,5.21512035057569623,2.1172615234944101,69.9999789703044399,-2.35265113573284059e-09,113.700000549782459,16.6533950244453948,15.2880000000000003,0,0,0.0153259223232261182,1.38588880633063252e-11,-1.52681962163171846e-05,7.07166414280215559e-10,2.11287244421402401e-07
0.14,31.2221855263490333,131.010385283071088,3.29862557546706325,3.99981420118284792,0.000223008237377726162,44.9721767850953427,0.000403855591455553264,3.33052592490198407,486.239086056840392,5.63167615200940475,2.29059513099545553,69.9999692426645623,-2.0964169591742506e-09,113.700000660771011,19.4199179783547713,15.2880000000000003,0,0,0.0165500839355928395,2.00553635588333716e-11,-1.99811439493909854e-05,9.81252131659242702e-10,2.9859131057555361e-07
0.15,31.2221854420015994,131.010385511560628,3.35186028506811029,4.05975476911301225,0.000248539990764711958,43.4637160193537753,0.000433543226731567866,3.32747422849243879,472.54218587214001,6.01888316560526437,2.45383766868271946,69.99995661705006,-1.43188768134039915e-09,113.700000780625842,22.182048585914238,15.2880000000000003,0,0,0.0176879988684610287,2.80404916713566325e-11,-2.55291719775422389e-05,1.33309260321839681e-09,4.07727088477750495e-07
0.16,31.2221853515819241,131.010385756490507,3.40881389436676407,4.08854462484130732,0.000272210944932510383,34.4023069357135967,0.000465877824565354701,3.32404684464906053,391.12189082975641,6.44303061809316624,2.62971580822363071,69.9999405987561403,-2.27841984783363582e-10,113.700000909623355,25.4183784408083007,15.2880000000000003,0,0,0.0189344747787753703,3.81042963600432359e-11,-3.19913711614788564e-05,1.77662362644707755e-09,5.46937370926295155e-07
0.17,31.2221852554099399,131.010386016990765,3.46923909377793649,4.13347468842419552,0.00029684158695823977,43.4155809381403728,0.000495744973995866601,3.3205135250562221,471.78125980632376,6.83404379119085981,2.79420112365087148,69.9999206448319882,1.67575894446247236e-09,113.700001047478835,28.5969980778046526,15.2880000000000003,0,0,0.0200835795555658371,5.05622819343119236e-11,-3.94162603380559734e-05,2.32482468580976756e-09,7.14768170397066036e-07
0.18,31.2221851530022434,131.010386294375877,3.53351204963262022,4.16207877285686756,0.000320492787063832857,36.2151660219171347,0.000526966735016640565,3.31665933612355879,407.101567211914528,7.2444022294323478,2.96528531587496236,69.9998961790314524,4.45070668055043651e-09,113.700001195059045,32.1341903991183955,15.2880000000000003,0,0,0.0212895378539265934,6.5741708189353534e-11,-4.79243856484647045e-05,2.99669991322666987e-09,9.21230820748327094e-07
0.19,31.2221850444828668,131.010386588308563,3.60153760019172342,4.17456309251139679,0.000342914278589344943,40.9041800427263027,0.00055982867240863632,3.31244583927210501,448.953132831826849,7.67810673790947895,3.14433961722118216,69.9998665624008964,8.30674092292676784e-09,113.700001352409558,36.0967170721845179,15.2880000000000003,0,0,0.0225641073333706747,8.40032927522686365e-11,-5.75836346763551867e-05,3.80911503044151526e-09,1.17316671380156179e-06
0.2,31.2221849296486234,131.01038689934137,3.67347464118590317,4.20078915399145636,0.000366573034254704516,37.5214898208491761,0.000590466919182690893,3.30812712915434881,418.515630199161365,8.08216006412957277,3.31318683933006453,69.9998311045104487,1.34800080829191884e-08,113.700001520067786,39.9955165273270055,15.2880000000000003,0,0,0.0237515420632470921,1.05728805481567758e-10,-6.85028882131185225e-05,4.78351733027568889e-09,1.4690610466811608e-06
0.21,31.2221848088436893,131.01038722653837,3.74905730552401684,4.22722562033261262,0.000390310433246848657,36.0064697775761644,0.000620601272787201603,3.30359776763142721,404.818761014464428,8.48018829437500621,3.47992805775657654,69.9997890742529592,2.02433263776548733e-08,113.700001697833756,44.0315784885794201,15.2880000000000003,0,0,0.0249212734096428447,1.31320595517854955e-10,-8.07208291683553139e-05,5.93661589182972911e-09,1.81631626331753899e-06
0.22,31.2221846819136672,131.010387570319409,3.82840670130281646,4.2176244726165093,0.000410696285369717819,43.5935627685881499,0.000655758920494764063,3.29841875767922987,472.542185872136486,8.94831461811120121,3.67066782999472752,69.9997397083127737,2.88926538075102191e-08,113.700001886238866,49.0266756129506618,15.2880000000000003,0,0,0.0262970098082033268,1.61186003536399267e-10,-9.43348117723774896e-05,7.29106197993283208e-09,2.23980539128825791e-06
0.23,31.2221845484548304,131.01038793178239,3.91183756115468473,4.25320537954326383,0.0004356497720089569,36.207459360748949,0.000683686922722525747,3.29355466128287455,406.340642146102141,9.31799902525197865,3.82760028360492655,69.9996821549030983,3.9766623706965518e-08,113.70000208621326,53.1608354775167555,15.2880000000000003,0,0,0.0273834518362109196,1.95767624418301473e-10,-0.000109505708778552874,8.87784718088286285e-09,2.70740355927931971e-06
0.24,31.2221844093456014,131.010388308538637,3.99866964940866776,4.27135264557773553,0.00045883378920767232,37.3286080087975947,0.000713911697673520317,3.2882529474867046,416.232824001711379,9.7203332459195213,3.9956861712714935,69.9996155408946805,5.32509871046438109e-08,113.700002296918697,57.8502398901668755,15.2880000000000003,0,0,0.0285658473732890855,2.35534745143307651e-10,-0.00012617657385590063,1.07071802425012536e-08,3.25424194465518317e-06
0.25,31.2221842644570167,131.010388700938847,4.08900446593793809,4.29698686981540234,0.000482848983334858658,38.3649566400252979,0.000742483922667206905,3.28284626589867479,425.364080791506922,10.1009615935159527,4.1562806652626314,69.9995389781877293,6.97479781374676735e-08,113.700002518962805,62.4689963611702623,15.2880000000000003,0,0,0.0296844577155840929,2.80933085873043406e-10,-0.000144451636124542286,1.28055329635332884e-08,3.87142965072796435e-06
0.26,31.2221841140756986,131.010389108203611,4.18262110402873155,4.32755423691547136,0.000507438991606541483,41.7865661614553829,0.000769736419800412888,3.27732087646770287,455.80158342417883,10.4644497354123782,4.31094871887776954,69.9994515368878751,8.97024502886333285e-08,113.700002752408935,67.0452443356678742,15.2880000000000003,0,0,0.0307527002093570291,3.32431765373287754e-10,-0.00016436315770221847,1.51925047864838523e-08,4.56355359993810651e-06
0.27,31.2221839578137299,131.010389531387915,4.27982215321117465,4.33742811840656994,0.000529702335486379188,38.2242911032538473,0.000800211178185602123,3.27123004841987974,423.842199659872563,10.8736118498261902,4.48123226393084195,69.9993522521519935,1.13587393208351198e-07,113.700002998306658,72.3900346549699947,15.2880000000000003,0,0,0.0319551720828357214,3.90484337603431509e-10,-0.000186059811616844751,1.79019946498730075e-08,5.36790267753501075e-06
0.28,31.2221837957695953,131.010389970223883,4.38053283172365671,4.35979025650862262,0.000553527510562852902,44.1207307275094038,0.000828072271385077072,3.26514386100193477,476.346873201222195,11.2478718916014184,4.63949182586423614,69.9992400702920463,1.41938296327408329e-07,113.700003257081931,77.4582454645660761,15.2880000000000003,0,0,0.0330550782151640757,4.55595825375374429e-10,-0.000209619220926101062,2.09616181379585756e-08,6.25569396794615011e-06
0.29,31.2221836278828384,131.010390424876022,4.48480177698289584,4.38135974025744623,0.00057737648726709299,35.3536197607625553,0.000855659611391794222,3.2588361863853601,397.970310422111766,11.6195889013503368,4.79682445966682813,69.9991139044831527,1.7532937395312496e-07,113.700003529427192,82.6616578528940948,15.2880000000000003,0,0,0.0341475147840558241,5.28268525040872464e-10,-0.000235137545717689308,2.44023887909330158e-08,7.24907222782668121e-06
0.3,31.2221834544381096,131.010390894570321,4.59240982688131272,4.39617507281761988,0.000600356665334356751,33.1490797613948018,0.000884158719714270942,3.25217107922164672,378.185945710871067,12.0052186882677852,4.95887519756831807,69.998972627127344,2.14383684192303281e-07,113.700003815596887,88.2385269149682756,15.2880000000000003,0,0,0.0352808420099011907,6.09029939588318471e-10,-0.000262641159892275291,2.82471356422800846e-08,8.36561857411674722e-06
0.31,31.2221832755909574,131.01039137888381,4.7032380575360353,4.42235615181669761,0.000624899913490765827,34.9528590290802086,0.000910025197609511073,3.24555398289468222,394.16562209302117,12.3556398803864607,5.10879227158949156,69.9988150759387651,2.59766173767152649e-07,113.700004116072961,93.4639131761651498,15.2880000000000003,0,0,0.0363107024397255479,6.98403788157463991e-10,-0.000292187019282257228,3.25229566712151178e-08,9.57826248689966157e-06
0.32,31.2221830914257232,131.010391877587324,4.81722282885169673,4.45155794779377789,0.000649944303128982049,38.0379859115142835,0.000934821026682707218,3.23882361682650144,421.559393462426954,12.6924793110791878,5.25399282922068878,69.9986400687318024,3.12179641788393281e-07,113.700004431478234,98.6283237403037703,15.2880000000000003,0,0,0.0373006526995305274,7.96905013945712519e-10,-0.000323836613651358495,3.72580440687311147e-08,1.09050644159405278e-05
0.33,31.22218290196043,131.01039239063175,4.9343519698327194,4.48019701204722054,0.000675004219851668761,37.7093551175013246,0.000959261610436717115,3.23189933669563656,418.515630199168186,13.0256844327599097,5.39788776638052958,69.9984463826819052,3.72372687880250348e-07,113.700004762578004,103.87354288045799,15.2880000000000003,0,0,0.0382799263433428877,9.05047894999210997e-10,-0.000357667290238851605,4.24836225249657193e-08,1.23603484615852587e-05
0.34,31.222182707020778,131.010392918491164,5.05476263450916541,4.49049305198152204,0.000697378143373914754,29.5227085089536203,0.000987142430045659337,3.22427911658814059,345.465636880756449,13.4081741031825317,5.55863100914667463,69.9982327456812641,4.41143957445642244e-07,113.700005110463266,110.062177258613033,15.2880000000000003,0,0,0.0394040418267209702,1.02333461745717641e-09,-0.000393806243978271305,4.82396483202145133e-08,1.40087103268591529e-05
0.35,31.2221825067937928,131.010393460657156,5.17831168393457641,4.50711781535187139,0.000720712543856854714,32.3530371383660977,0.00101333646443235357,3.21661305844837253,370.576570052703289,13.7686530554979374,5.71176159517965232,69.9979978091806316,5.19362042776584697e-07,113.700005475786654,116.058400304168075,15.2880000000000003,0,0,0.0404634764462946869,1.15232390415689195e-09,-0.000432299813734132244,5.45552399130644805e-08,1.57912776608867467e-05
0.36,31.2221823012122108,131.010394017312592,5.30505329869157727,4.52767240178778962,0.000744729708600240731,36.5526511043957356,0.00103828652712813154,3.20885713174522058,407.862523277719447,14.1132764952183631,5.85938873702120233,69.9977401961163537,6.07939829707116331e-07,113.700005859608282,121.939407863977465,15.2880000000000003,0,0,0.0414763190843316643,1.29254043868676357e-09,-0.000473255972436325862,6.14699225552327593e-08,1.77198251922661022e-05
0.37,31.222182090341061,131.010394588280832,5.43493909097431604,4.55039311415752579,0.00076918150115683735,34.6835787828593496,0.00106234372950533948,3.20097384516078431,391.121890829766642,14.446930470491731,6.00318739776240751,69.9974584775585669,7.0785096329375243e-07,113.700006262864989,127.771540530283914,15.2880000000000003,0,0,0.042456928843506235,1.4445318520011827e-09,-0.000516746496826029863,6.90186481791334769e-08,1.98053803654614999e-05
0.38,31.2221818741223878,131.010395173719473,5.56801609611825477,4.56315131642791805,0.000792019287104061913,36.2353933787001239,0.00108827974821363053,3.19255015153205646,404.818761014460279,14.8084413239345949,6.1564787166299757,69.9971511865591651,8.20121521966083772e-07,113.700006686723384,134.244380272309172,15.2880000000000003,0,0,0.0435194095147296359,1.60882660749176723e-09,-0.000562873331420229127,7.72423853301427293e-08,2.21128406351508731e-05
0.39,31.2221816525004634,131.010395773780147,5.704329739781131,4.57922628245169783,0.000815489716137310881,30.9425419640016202,0.00111309493143926189,3.18402316666385765,357.640624933827439,15.1559126959619999,6.30488433186772657,69.9968167722787769,9.45855271408966431e-07,113.700007132429306,140.616382889747683,15.2880000000000003,0,0,0.0445406353688629561,1.78596578656278109e-09,-0.000611756345505213715,8.61868943159197994e-08,2.45968452142520012e-05
0.4,31.2221814256617982,131.010396387955836,5.84373750626454935,4.59349479979191955,0.000838670682925170751,29.5834243852937959,0.00113797512888990423,3.17521289611434332,345.465636880754005,15.505969085398343,6.45410901523083158,69.9964536498379317,1.08621525395706341e-06,113.700007600947828,147.185065961143067,15.2880000000000003,0,0,0.045569462889951777,1.97653506559195414e-09,-0.000663427505461186432,9.58835144134294998e-08,2.72901174189528038e-05
0.41,31.2221811937141673,131.010397015953487,5.98615797249314241,4.60939449845229365,0.000862163931524819621,33.360545626359837,0.00116210409424792778,3.16624854525325983,378.946870776686467,15.8471768437686258,6.60022848408685459,69.9960602026584695,1.24241947051318175e-06,113.700008093413757,153.73182724817184,15.2880000000000003,0,0,0.0465722905345462151,2.18109996727848554e-09,-0.000717942131686907965,1.06367950505874699e-07,3.01820283711074823e-05
0.42,31.2221809567080335,131.010397657635991,6.13155423418529733,4.63387609959193458,0.000887317919769279608,37.5676427387571721,0.001183742077125155,3.15743374731593907,416.232824001711379,16.155026338188506,6.73482947265292431,69.9956347739890248,1.41574639558456e-06,113.700008611107208,159.760443802515937,15.2880000000000003,0,0,0.0474770882933877245,2.400206535531791e-09,-0.00077537935552726017,1.17680930846389008e-07,3.32294321368729263e-05
0.43,31.222180714655078,131.010398312971745,6.27991949833728835,4.65367427313455995,0.000911660169575580258,33.0386483003103493,0.00120612360190941372,3.14823214930187856,375.903139513433644,16.4750454055619109,6.87353555569934649,69.9951756835756242,1.60752723178871754e-06,113.700009155418982,166.15023929888028,15.2880000000000003,0,0,0.0484176551665520677,2.63438237315801404e-09,-0.000835821567166909188,1.29864614855892046e-07,3.65287677570896608e-05
0.44,31.2221804673911407,131.010398982407111,6.43138341412837455,4.65757387742934892,0.000932929976641759203,30.4788052564327749,0.00123214974254881528,3.13809943757763454,353.075012538921555,16.8483715860516412,7.03046484016701978,69.9946811832270441,1.81916859536649675e-06,113.700009728069276,173.762989227436179,15.2880000000000003,0,0,0.0495148886868988364,2.88411342836306464e-09,-0.000899417740154189794,1.42975581697416844e-07,4.01983191819108926e-05
0.45,31.2221802146980103,131.010399666535704,6.58611776122768511,4.65827001030579346,0.000953562143933252499,35.4620561517945134,0.00125873275223327787,3.12754579585638304,397.209385356286873,17.2316459864824161,7.19073264961644831,69.9941493995125938,2.05218870761162579e-06,113.700010330973456,181.755888424112015,15.2880000000000003,0,0,0.0506413642318551335,3.14987863732273609e-09,-0.000966369542842942814,1.57083782729145849e-07,4.41725079750487196e-05
0.46,31.2221799565319174,131.010400365476642,6.74415901717088939,4.66907507286434065,0.00097630283571516251,41.3913707355688842,0.0012823814722795761,3.11722412848720953,449.71405889764344,17.5754687869478978,7.33738035579407555,69.9935783582983362,2.30821229426708146e-06,113.700010965912341,189.078525726536213,15.2880000000000003,0,0,0.0516519027755614896,3.43223060675433133e-09,-0.00103681314204437207,1.7224885851047691e-07,4.83373548649469587e-05
0.47,31.2221796928065203,131.010401079464799,6.90557672428163105,4.67806301106434042,0.000998761260684927557,28.0209900204918974,0.00130616618884544979,3.10657060381263461,331.007810630253402,17.9233234115620377,7.48533101007974988,69.9929660462147325,2.5889364060732201e-06,113.700011634803886,196.634049649816575,15.2880000000000003,0,0,0.0526742959306323727,3.73170463860384924e-09,-0.0011108841623615434,1.88532207060213475e-07,5.28148505664365441e-05
0.48,31.2221794239793269,131.010401807256216,7.07001851744381948,4.68642527483421745,0.00102109091231145262,27.6007969606275125,0.00132978852885184593,3.09563681785184297,327.203122301157407,18.2709832353803314,7.63313726727991071,69.9923104035261474,2.89614261094227829e-06,113.700012338884164,204.33305198470137,15.2880000000000003,0,0,0.0536961221459722679,4.04904859899578719e-09,-0.00118849531779471017,2.05948560519311644e-07,5.75998398329450787e-05
0.49,31.2221791502289392,131.010402548365278,7.23734841566291642,4.70156796398202914,0.00104489945272251677,34.6487244505178253,0.00135120419031512233,3.08484494341801163,389.60000969812296,18.589315545984995,7.7707981814672209,69.9916093757078812,3.23165731652504743e-06,113.700013079832303,211.511801733856089,15.2880000000000003,0,0,0.0546317638991248022,4.38486615800834454e-09,-0.00126967773493266863,2.2453662401782158e-07,6.26054017926546362e-05
0.5,31.2221788715876762,131.010403302704333,7.40754387012007864,4.72212438923579736,0.00106996435823571525,35.6033845714535389,0.00137072557486675028,3.0741588573465477,397.970310422105001,18.8826594549893159,7.8998011517407587,69.9908609011483378,3.5973597360057951e-06,113.700013859590555,218.236320199079358,15.2880000000000003,0,0,0.0554939729313439212,4.73968531279909998e-09,-0.00135450679800636423,2.44344941868023912e-07,6.78409867869358833e-05
0.51,31.2221785881337617,131.010404070060673,7.5805467220577798,4.73558879650721298,0.00109346949398930206,27.1956639286467201,0.00139183542187690463,3.06284319292573448,323.39843497208409,19.200774511812984,8.03722958125224807,69.9900628955037689,3.99519228958782199e-06,113.700014680103109,225.647740475438098,15.2880000000000003,0,0,0.0564289867670437692,5.11403675587933804e-09,-0.00144303978709531136,2.65418546512062939e-07,7.34915902759761199e-05
0.52,31.2221782999013868,131.010404850474288,7.75637073941223498,20.7078325033704651,16.846831036340145,33.6394269674072319,-1.43654624526828489,1.74236414120681848,372.098451184341457,24.4494873125239671,8.17571496335670567,69.9892118024353351,1.40010246503539477e-05,113.700025732485003,365.869052460484454,15.2880000000000003,0,10.0257722823219062,0.071854525016458004,5.50585037824175027e-09,-0.00160580353160242597,0.000111620113612491084,0.000104134689303961786
0.53,31.2221780078084805,131.010405644141429,7.93521218936534734,20.5133976495478372,16.6508809474394148,35.2881564866312445,-1.4695594758285011,1.69806158927539586,386.55624643486243,24.772337636124643,8.30545426340462001,69.988148308825231,0.000549882956542012175,113.700596457414221,375.588845277483699,15.2880000000000003,0,10.0639151204624433,0.0728034957452429327,6.17339654744553882e-09,-0.00216774412643742226,0.00062260095236433275,0.000142429782492130351
0.54,31.222177712213206,131.010406451188203,8.11718371184423582,20.324720523250555,16.4601598971330887,31.0909635157496815,-1.5030017706478469,1.65310430346343051,349.270324209843579,25.0938233863144298,8.43426913760449537,69.9867588361152428,0.00189776663932550308,113.70203137574309,385.393858798055589,15.2880000000000003,0,10.1020033754378282,0.0737484625505831631,7.30847823441336565e-09,-0.00274532401215816721,0.00114530640926560276,0.000182716875271845701
0.55,31.222177413399784,131.010407270887328,8.3020859379749421,20.1460881031675498,16.2777707889675405,32.9116423265929399,-1.53652667401736132,1.6079305394933916,365.250000591990727,25.4087345159582263,8.56021807111598321,69.9850345092713155,0.00407556522246311712,113.704349569540327,395.120421279829941,15.2880000000000003,0,10.1399744367869928,0.0746741134537860923,8.90572929062034943e-09,-0.00333807505394245795,0.00167929179472354204,0.000224951884564860279
0.56,31.2221771113963449,131.010408103220669,8.48992014168159059,19.9804098343916294,16.1058221750269475,30.7755215549686163,-1.56985511932291955,1.56289516065191703,346.226561946578727,25.7130458736209349,8.68179623779969312,69.9829665175957132,0.00710083046003866063,113.707569742931909,404.634232178746231,15.2880000000000003,0,10.1778264249146453,0.0755686188235161482,1.09590442138542859e-08,-0.00394626529956980301,0.00222471845033631651,0.000269117830733849907
0.57,31.2221768062970888,131.010408947989049,8.68063590446459621,19.8116650977868574,15.9325445098633516,30.4453124052602284,-1.60415862950257182,1.51649128474887562,343.182829683302316,26.02450448782065,8.80575037219826839,69.9805459566528043,0.0109910207786086556,113.711710510238049,414.48856857114373,15.2880000000000003,0,10.2155570514748302,0.0764841357398633043,1.3462050028725575e-08,-0.00456992218337458778,0.00278154997401043602,0.000315417649563057008
0.58,31.2221764981080518,131.010409805232115,8.87425091079547812,19.6297242918528525,15.7505040468601489,39.8431190753075342,-1.6403064031027228,1.4675988811574241,426.12500585731533,26.3555117733455297,8.93675481064604504,69.9777639060459506,0.0157636232632010313,113.716790515010857,425.091530745625164,15.2880000000000003,0,10.253162295009238,0.0774571113835939296,1.64080372861503867e-08,-0.00520933362717389097,0.00334996245670163804,0.000364116424082040042
0.59,31.222176186482514,131.010410675950681,9.07105713666641122,19.4721879843514714,15.5872453659434793,32.453724909249722,-1.67530350944483164,1.42006715102773962,360.68438819711065,26.6613483598323207,9.0578843472347419,69.9746107855848578,0.0214371306226007821,113.722829487917181,435.006309851855519,15.2880000000000003,0,10.2906967682427304,0.0783561189124551971,1.97899565510675584e-08,-0.00586594251562115501,0.00393107083852280419,0.000414761415300784304
0.6,31.2221758716441435,131.010411559594047,9.27090413879543007,19.288852238088392,15.4059775019571763,28.9363399117551054,-1.71329004538282215,1.36856639084962128,329.48595949860578,27.0027605581454786,9.19207617749244577,69.9710768432601071,0.0280301518466663548,113.729847290831657,446.210036296574913,15.2880000000000003,0,10.3281212988028344,0.0793596879977844089,2.36015337500023869e-08,-0.00653939242640697461,0.00452452215844163785,0.000468290844364313064
0.61,31.2221755535748358,131.010412456268767,9.473828931668967,19.1047980158738504,15.2250560216861253,33.7752551140309052,-1.7522883797036688,1.31563667691475561,372.09845118432969,27.3500046293044612,9.32808797502325859,69.9671521386552939,0.0355615912592048417,113.737864103500954,457.751050240219797,15.2880000000000003,0,10.3654391584890178,0.0803804040046772333,2.7835998611606391e-08,-0.00723010805115975683,0.00513059631300690107,0.000524401386043934852
0.62,31.2221752324075297,131.010413365671184,9.67975166038013057,18.9687023529472896,15.0800528504038809,41.8057334570630559,-1.78782887377917477,1.26703075707686286,442.86563930529212,27.6394158631228848,9.44204095638670715,69.9628264354456491,0.0440506472934632104,113.746900430691241,467.480687613432735,15.2880000000000003,0,10.4026474034333898,0.0812311589980791032,3.24868458002891547e-08,-0.00793816405542973301,0.00574928582101718461,0.000581837866252685881
0.63,31.2221749079970863,131.010414288248143,9.88880601320848562,18.8216526691770341,14.9278501621418922,24.0602544582212516,-1.82510354576521294,1.21605962876767038,286.112512747078938,27.9457994641225902,9.56204794102316669,69.9580897383042242,0.0535156859576881999,113.756975901381011,477.892606837247627,15.2880000000000003,0,10.4397509908493653,0.0821318020835413859,3.75461466827351951e-08,-0.00866425354706255521,0.00638108707503691735,0.000642084260901659015
0.64,31.2221745809084545,131.010415222519072,10.100576464864746,18.6554908221664562,14.7624615563637729,23.6399826659152303,-1.86500126114423703,1.16156425287176157,282.307824417967538,28.2811358901158272,9.69262133796352465,69.9529318561780116,0.0639750999670710974,113.768110185858163,489.420437595153146,15.2880000000000003,0,10.4766404260924162,0.0831175435827699038,4.30086113248416384e-08,-0.00940686090843527792,0.0070247084069294417,0.000705467600322231148
0.65,31.2221742511475,131.010416168518418,10.3150790622190947,18.5246335720389546,14.623620037823061,41.1646958532942833,-1.90225165734340163,1.11035084843257481,436.778144778747503,28.5714714789958961,9.80606642219308178,69.9473428522425564,0.07544665786751939,113.780322292007185,499.510560159702493,15.2880000000000003,0,10.5134255219709853,0.0839710357418415043,4.88663730752541777e-08,-0.0101664010873070455,0.0076804169312321563,0.000770240594501707138
0.66,31.2221739182690783,131.010417127501086,10.5326772908248394,18.3881574679451951,14.4814124153141428,35.1393990545710011,-1.94077932865899205,1.0573444370440539,383.512515171600171,28.8717984986388991,9.92296387249137979,69.9413124573593166,0.0879481865040022265,113.793631315250636,510.056233869725872,15.2880000000000003,0,10.5500331047678593,0.0848538997001407336,5.51092324336979571e-08,-0.0109446408941712234,0.00834956908065054987,0.000837901245994850954
0.67,31.2221735824679456,131.010418098989732,10.7532415311788867,18.235207703522164,14.3279553927579766,24.4486525849367737,-1.98183962692009041,1.00092196286373403,289.156244010342505,29.1985319252367894,10.0494182309771158,69.9348298463189906,0.101498567758935149,113.808057478298082,521.654811624672448,15.2880000000000003,0,10.5865218675785258,0.0858143791964614683,6.17307172947049088e-08,-0.0117412737735455956,0.00903184846985695747,0.000909043182621771116
0.68,31.2221732439228497,131.010419082549646,10.9766543026071943,18.0899206679882241,14.1808175556921299,30.3312956073985767,-2.02295514104156426,0.944283395631895339,340.899992485846269,29.5174770583591162,10.1726759370024027,69.9278841966197291,0.116116426563666955,113.823620738871142,533.102030837854954,15.2880000000000003,0,10.6228950386818379,0.086751976437964326,6.87241796003875555e-08,-0.0125561079763567285,0.00972703028626252172,0.000982727801181668831
0.69,31.2221729027291559,131.010420077969655,11.2028616222793378,17.9644381454889164,14.0487535017783784,37.1672729547218381,-2.06261711482614674,0.889368376858858056,401.014072685363431,29.8093864042804775,10.2856250502525377,69.9204645827217064,0.131819937235442441,113.840340600257932,543.686447779830587,15.2880000000000003,0,10.6590351460940695,0.0876101226876342259,7.60824673676860233e-08,-0.0133891427172176287,0.0104350432136666015,0.00105826720989609237
0.7,31.2221725587806773,131.010421085581015,11.4319636212360489,17.8395454956099968,13.9177988350274955,31.3054045669564758,-2.10293856709126459,0.833449614918283288,349.270324209852845,30.1023647330740758,10.3987100805303108,69.9125602322761353,0.148626820360167389,113.858236086755397,554.41389593339818,15.2880000000000003,0,10.6950508738136492,0.0884714179678082746,8.37966097491623437e-08,-0.0142410762106105933,0.0111563736229667951,0.00113664122104695209
0.71,31.2221722121470791,131.010422105239087,11.6639250921155941,17.704584191320702,13.7802152715874175,25.8722353551938973,-2.14523181154844478,0.774822125335969614,301.331264063405797,30.4130857954585458,10.5181258533939275,69.9041599398679807,0.166555074510509327,113.877326543374735,565.905845828416886,15.2880000000000003,0,10.7309393001700073,0.0893848669480691999,9.18592862838337864e-08,-0.0151119775839295908,0.0118910046141260974,0.00121857451693052382
0.72,31.2221718628500042,131.010423136928949,11.8987477365122736,17.5573351765477597,13.6343836068798918,31.5022583707958823,-2.18988052913173892,0.712973329846639525,350.79220534145287,30.745872297135616,10.6454763750585801,69.8952523678735389,0.185622845913765405,113.897631477058852,578.34508727769844,15.2880000000000003,0,10.7666239363155256,0.0903631747085787973,1.00262823948977646e-07,-0.016002166812296735,0.0126391178949106509,0.001304446053399621
0.73,31.2221715109067226,131.010424180648357,12.1364370069016623,17.4440282390976726,13.5137716160250783,39.6431515898223878,-2.23108676559961339,0.655431888194860757,422.320318528233997,31.0266048451841812,10.7532734171918722,69.8858256481627222,0.205848778808485483,113.919170949751134,588.941297893152296,15.2880000000000003,0,10.8021610096298026,0.0911885018394904823,1.08999595930537316e-07,-0.0169120368743464061,0.0134009476601315777,0.00139117181207124951
0.74,31.2221711562757811,131.010425236547945,12.3770413776363739,17.3214003751517787,13.3870418093745904,25.1233119566630663,-2.27421780503384863,0.595226877575198876,294.482813471059444,31.3241085272857056,10.867038151535267,69.8758681847942427,0.227250531404981387,113.941963988690262,600.275897147941691,15.2880000000000003,0,10.8375728379854337,0.0920631276286095895,1.18061469272408835e-07,-0.0178419678003416994,0.0141767202535021987,0.00148170598376883966
0.75,31.2221707993125293,131.010426303710602,12.6203059624574649,17.1932765645251209,13.2569500014772377,29.1996922240126082,-2.31887523004829132,0.532867700130779332,330.246885564414924,31.6327298631659595,10.9846993156851394,69.8653682086637389,0.249845658956485223,113.96602952907287,612.148324654404405,15.2880000000000003,0,10.8728090332137182,0.0929704363883673834,1.27445035654077818e-07,-0.0187909424590494735,0.014965557915590658,0.00157585282031201144
0.76,31.2221704399297337,131.010427382408182,12.8663135698993898,17.0774707919633357,13.1363192372008672,31.3738274624182019,-2.36259968740822934,0.471545012569070721,349.270324209861712,31.9221809943936243,11.0950608848519696,69.8543139242512439,0.273651291049909928,113.991386072300514,623.387617441347061,15.2880000000000003,0,10.9078186805699655,0.0938214105293842526,1.37141089288146423e-07,-0.0197597004404459937,0.0157679670248304336,0.00167221867852189129
0.77,31.2221700780891673,131.010428472778671,13.1151088517697989,16.9654064039141339,13.0189611021286709,29.3929168341813529,-2.4065300731120618,0.409782577157617289,331.76876669607077,32.2065438913303907,11.2033215965588724,69.8426933301735318,0.29868449383775092,114.018052071861902,634.528202433611909,15.2880000000000003,0,10.9426863046977658,0.0946574376718396227,1.4714129466025108e-07,-0.0207487352619896356,0.0165842584060294403,0.00177151785629550067
0.78,31.2221697138669612,131.010429574651738,13.3666488045126872,16.8446198579966975,12.8958961018786518,24.2927817914942175,-2.45247726498908758,0.345212589293507788,286.873437812889904,32.5076480293294523,11.3175543400202336,69.830494283606896,0.324962115047746192,114.046045768988378,646.43266080502417,15.2880000000000003,0,10.9774010000611781,0.0955426763628202669,1.57439345964325271e-07,-0.0217580212564410444,0.0174143345556797349,0.00187501279953945863
0.79,31.2221693473614792,131.010430687797395,13.6208735618509298,16.7194139389807113,12.7702238018735112,34.1773326759100584,-2.49991548885280901,0.278513463815435014,373.620332315953419,32.81852178660818,11.4351863220214955,69.817704416546789,0.352500942911473769,114.075385362931456,658.839489020647761,15.2880000000000003,0,11.0119551980156718,0.0964566368044540434,1.68029381186342677e-07,-0.0227875180373023657,0.018258086212837598,0.00198246135167768006
0.8,31.2221689783779404,131.010431812769298,13.8779454926567531,16.6137070350577503,12.6590749765108601,34.6212122508465185,-2.54512533430747689,0.21453646123006756,377.42502064505743,33.0952860094898753,11.5400313142308981,69.8043109719389037,0.381318031098995147,114.106089358538483,669.98201712564196,15.2880000000000003,0,11.0463005774963889,0.0972703542859273129,1.78900167986585401e-07,-0.0238384872762040859,0.0191164157466856173,0.00209133111139139663
0.81,31.2221686070269655,131.010432949301389,14.1377943137593611,16.4970427733285945,12.5406035188110234,22.8425886362692587,-2.59279149449445079,0.147158395339950676,273.937492693991885,33.3933741224507301,11.6525402197411747,69.790301146771867,0.411429954314510016,114.138175773277382,682.088358906343728,15.2880000000000003,0,11.0804924254949597,0.0981467527899204661,1.90047093637302005e-07,-0.0249106944819182212,0.0199890599967243732,0.00220502373077427873
0.82,31.2221682335011295,131.010434096909393,14.4002879369146637,16.3764713404077291,12.4198669093707377,29.0926216525019683,-2.64192207725784423,0.0776696022295250005,328.725004432770049,33.7004018728998247,11.7681570327889968,69.7756620162237056,0.442852951978108422,114.171662291453075,694.67111848663933,15.2880000000000003,0,11.1145188156001833,0.0990494340314947708,2.01466838672527095e-07,-0.0260036733650639319,0.0208755756476700464,0.00232287566084805669
0.83,31.222167857797416,131.010435255629858,14.6654418354255593,16.2788201045463019,12.3160178392835125,36.7336184053009092,-2.68799180047061403,0.0119993126826671726,395.68750322465047,33.9647087647971873,11.8678523177329485,69.760380460928431,0.475603062788704622,114.206566408873087,705.592270601060477,15.2880000000000003,0,11.1483882617665486,0.0998265616308029596,2.13151781951247886e-07,-0.0271178753235045318,0.0217762294640059528,0.00244134230744496271
0.84,31.2221674798249147,131.010436425727789,14.9333356775508683,16.1774329424007419,12.2099812036059099,23.0361361049400024,-2.73532834938239588,-0.055528786555901162,275.459374825645227,34.2366252178016097,11.9701713412168811,69.7444434742463102,0.509695472865086541,114.242904738815497,716.916785542710386,15.2880000000000003,0,11.1821026413701681,0.100626062517953321,2.2509331779018007e-07,-0.0282539136969850203,0.0226914132756123911,0.00256391434593507966
0.85,31.2221670998772467,131.010437606446629,15.2037600942514395,16.0588844050232709,12.0921838687443906,25.0383941064970088,-2.78640589431442942,-0.128179207767336961,292.960932339393764,34.5432228740746794,12.0851153018778277,69.7278379680338531,0.545144900295823298,114.280693421924852,729.795669496592609,15.2880000000000003,0,11.2155869323879003,0.101527504183380912,2.37291773577227492e-07,-0.0294107406049193797,0.02362023724231695,0.00269272179832359682
0.86,31.2221667177976769,131.010438798225323,15.4768439849124047,15.9543245655218797,11.9848227653949753,31.121437155822175,-2.83575458982280404,-0.198765036094213976,346.226561946558718,34.822890283369432,12.1899806132406283,69.7105503708631318,0.581966402565654795,114.319948989020261,741.641138359050501,15.2880000000000003,0,11.2489007560472132,0.102349802307981408,2.49735864184328759e-07,-0.0305895249766370732,0.024563515584811825,0.0028232466936497203
0.87,31.2221663336187447,131.010440000997846,15.7525731672443303,15.856599618307726,11.8827739734635269,29.0453723957783581,-2.88452964840965009,-0.268802920163913717,327.964078366998024,35.0890632474861874,12.2897210322751587,69.6925670726804327,0.620174441110299401,114.360687364086644,753.002175863541538,15.2880000000000003,0,11.2820555979951429,0.103132446217736845,2.62419883740212394e-07,-0.0317904263703331497,0.0255212849200789835,0.00295643208951180524
0.88,31.222165947383175,131.010441214669044,16.0309250703555648,15.7506940524863115,11.7753687884751805,25.2308309107073434,-2.93555181801108711,-0.342014173378953179,294.482813471041823,35.3725425223775005,12.3956800683908437,69.6738743897384012,0.659782938678168396,114.4029239264773,765.197650048271385,15.2880000000000003,0,11.315043251314556,0.103965964286318296,2.75339385303006312e-07,-0.033013437406113795,0.0264934543111148453,0.00309488983303861723
0.89,31.2221655591780802,131.010442439026491,16.3118440452194839,15.6369143242379423,11.6628414999935206,27.5822490212950839,-2.98888905897178825,-0.418500501044086537,315.028134248086985,35.6734729481926749,12.5079181117400253,69.654458428057282,0.700805537345463581,114.446673786873319,778.251809942697605,15.2880000000000003,0,11.3478606585359678,0.104850782712638646,2.88490305022417315e-07,-0.0342585293515315081,0.0274799156401283294,0.00323884795869102673
0.9,31.2221651689383783,131.010443674258511,16.5953875306596323,15.5452635198272038,11.5664023921292305,30.3692203108397614,-3.03854101564412993,-0.490340254311503909,339.378142354214447,35.9276472003296306,12.6028134347401135,69.6343048567699583,0.743256030991039873,114.49195224987244,789.35994447102496,15.2880000000000003,0,11.38051988679136,0.105598184597847103,3.01863986647897233e-07,-0.035526402978576628,0.0284811126288661391,0.00338255325546397371
0.91,31.222164776738353,131.010444920181641,16.8815076557967885,15.4455295124414107,11.4646658163571082,23.3346598928801221,-3.09048330734580468,-0.565430587114801875,277.742181023078899,36.1992437731041932,12.7039864519450401,69.6133996404003312,0.78714687982999354,114.538773230197251,801.317434187688264,15.2880000000000003,0,11.4130109110632354,0.106396802035566659,3.15457406358997611e-07,-0.0368169167391815128,0.0294968501469871601,0.00353182850332045377
0.92,31.222164382780818,131.010446176277128,17.170062286289788,15.3380653332079362,11.357892170607597,27.5994300186158092,-3.14476407765739108,-0.643849232705749563,315.028134248062145,36.4882354406114757,12.8114514145799241,69.5917285397083845,0.832490195577466174,114.587150304144288,814.140357323798753,15.2880000000000003,0,11.4453079504414426,0.107246555396910151,3.29271946226001997e-07,-0.0381293145640994174,0.0305264676192027254,0.00368682495221809084
0.93,31.2221639869825935,131.010447442773284,17.4611195231406917,15.2504240675126628,11.2654652085264804,32.6489763526223769,-3.1954358680539241,-0.717719905953422499,359.162507065472823,36.7329504302503409,12.9025186849774922,69.5692771267822678,0.879297694094933524,114.637096660607767,825.07427399664914,15.2880000000000003,0,11.4774126957247447,0.107966178501038776,3.43297466401313705e-07,-0.0394644490160517489,0.0315705189654349114,0.00384140745544489948
0.94,31.2221635892385834,131.01044871994921,17.7547611226519351,15.1458550708264497,11.1615336515987753,23.9553378656328597,-3.2504844256295331,-0.797633036000665707,283.068750483778672,37.0158043113180568,13.0075005042232945,69.5460310481629449,0.927580160521799701,114.688624530833081,837.806168633237235,15.2880000000000003,0,11.5093521495319759,0.108797908420351433,3.57526449576786327e-07,-0.0408229085258129953,0.0326293589013178509,0.00400412295505958409
0.95,31.2221631898376337,131.010450007062246,18.0507821348881627,15.0442811214954091,11.0600999351983216,30.7463265896759594,-3.30558172532370254,-0.877855999895118311,342.421873617487279,37.2921041604144605,13.1099822188600257,69.5219754267336469,0.97734859991980394,114.74174641667237,850.336071903259494,15.2880000000000003,0,11.5411133745576588,0.109610382933497424,3.71963268817108279e-07,-0.0422036530745469457,0.0337021129787760665,0.00417033416836957473
0.96,31.2221627884927635,131.010451304860908,18.3493959750408315,14.9526962876370817,10.9660461123079127,30.1419295510215548,-3.35903152495585289,-0.956132823614065708,337.095335156783449,37.5448988814464997,13.2037036931801612,69.497095343362858,1.02861327931380786,114.796474070656316,861.878898605006725,15.2880000000000003,0,11.5727205014212533,0.110353778699183308,3.86591219429545916e-07,-0.0436084391887223977,0.034790006030720716,0.00433823376196243275
0.97,31.2221623852245962,131.010452613293381,18.6505911507333906,14.8569073628447104,10.869420780703777,19.6112564884582667,-3.41410640819052746,-1.03682075571384402,245.021887192993233,37.8071728289132096,13.3008099472570223,69.4713755203584071,1.08138431737760343,114.852819125208626,873.937172134079674,15.2880000000000003,0,11.6041701716961256,0.111125044606107948,4.01406787064019846e-07,-0.0450374016186454937,0.0358930432784729872,0.00451155684600090898
0.98,31.2221619803199211,131.010453931621356,18.9541639380867615,14.7454151853961299,10.7622111744178266,28.1472057255475789,-3.47374872235639964,-1.12385659268955473,319.593746642958081,38.1073805249931965,13.4118132438215838,69.4448006293113735,1.1356710699169057,114.910792437667396,887.845377359631584,15.2880000000000003,0,11.6354412057780046,0.112007816224103038,4.16418474126811674e-07,-0.0464892124793994665,0.0370101400006047007,0.00469383186015338849
0.99,31.2221615736327998,131.010455260222841,19.2602233713100013,14.6617949573075315,10.674793070658481,30.676570046560407,-3.52708719943070514,-1.20274150167595173,341.660948551705417,38.3394229077620423,13.4976301396230784,69.417354947071459,1.19148277384965628,114.970404779830744,898.664365877643036,15.2880000000000003,0,11.6665566016026787,0.112690240221000451,4.31612557233374461e-07,-0.0479651494911417925,0.038142149501988229,0.00487219711273645818
1,31.2221611651590685,131.010456599102042,19.5687729865001501,14.5629102662010386,10.5770958681979899,27.5430198037198259,-3.58491887117597763,-1.28788975639675307,314.26720818227642,38.608418394383186,13.5969822974593271,69.3890232156307292,1.24882689419337423,115.031665072465742,911.291941860820543,15.2880000000000003,0,11.69750684162711,0.113481287958973179,4.46987157318228602e-07,-0.0494652081630253815,0.0392889732828797036,0.00505967309550106777
1.01,31.222160755077919,131.010457947797761,19.8796866933231975,14.4671408946427871,10.4819111582384004,28.7653442884508834,-3.6425773528043246,-1.37307724807934117,324.920316103697928,38.8692576455884407,13.6932732263418284,69.359789572716025,1.30771114049731718,115.094582539700326,923.619368592033084,15.2880000000000003,0,11.7282873586912775,0.114248370640185157,4.62544909379876044e-07,-0.0509887884069835234,0.0404500680292600237,0.00525059566655973562
1.02,31.2221603433099446,131.01045930650605,20.1930216109396348,14.3758536790045799,10.3901700616868471,24.1467008839494603,-3.69962420319671681,-1.45771827390356479,284.590631615404163,39.1180113892343826,13.7850487609322609,69.3296382856087519,1.36814206481304912,115.159165212825926,935.450920799219602,15.2880000000000003,0,11.7589052610991125,0.114979938801402976,4.7827778731891906e-07,-0.0525365279178242606,0.0416258069092109578,0.00544443357240190391
1.03,31.222159929919254,131.01046067505402,20.5087316214153077,14.2744483743686903,10.2917613083634354,19.8739368306872812,-3.76008289428167997,-1.54721405360255337,247.30469339049705,39.3923117380594263,13.8862031189468507,69.2985536089475147,1.43012532095322209,115.225420207184683,948.587148157201455,15.2880000000000003,0,11.7893548489869673,0.115786604882725797,4.94185736136153132e-07,-0.0541082119286911759,0.0428159331223093229,0.00564645730452995737
1.04,31.2221595149644031,131.010462053285664,20.8267756382182085,14.183502283180875,10.2009094991527114,31.1252670749494058,-3.81822586004023501,-1.63388609909749016,345.465636880722968,39.6386791874797666,13.977012816979526,69.2665192685572606,1.49366660510416494,115.293354728626326,960.460222201045326,15.2880000000000003,0,11.8196401159330993,0.116511175762618616,5.10266281152435422e-07,-0.0557038639153296725,0.0440203632432506695,0.00584914823027595909
1.05,31.2221590981519554,131.010463441928067,21.1473575551578321,14.0845172409475623,10.1048401922686608,19.0859782121100352,-3.87929003972206221,-1.72477392721025469,240.456258798199826,39.9055540761237708,14.0753395574181432,69.2335190659084674,1.55877052126899707,115.362974862139637,973.406745408326515,15.2880000000000003,0,11.849777107873571,0.117296033560281385,5.26501625729233774e-07,-0.0573252628049926161,0.0452402997996266681,0.00605974234317535783
1.06,31.2221586797151716,131.010464840380337,21.4703122524016479,13.9788659349046238,10.0045169669740854,26.8510321646413423,-3.94305320506371348,-1.81959562244828921,308.179683655939243,40.1901274965909039,14.1801854295967455,69.1995361332253225,1.6254419233475117,115.434287006645647,987.308684682838702,15.2880000000000003,0,11.8797530656603136,0.118132922410396621,5.42901492037787235e-07,-0.0589712865096471209,0.046474816543487181,0.00627799945511846921
1.07,31.2221582595310565,131.01046624893894,21.795723963646509,13.8899717799302618,9.91603273598944845,31.477174700773773,-4.00236299173926735,-1.9087196269717579,348.509368144030759,40.4282133053759836,14.2678116719248891,69.1645532102600384,1.69368538018090242,115.507297305658867,999.009716059114453,15.2880000000000003,0,11.9095845765489905,0.11883317671491378,5.59453690112655212e-07,-0.0606430616181221904,0.0477246282736786265,0.00649401639185755164
1.08,31.2221578374874547,131.010467667864077,22.1236658983904704,13.7979182109413738,9.82568191568480032,21.4356101710561724,-4.06318533789964054,-2.00018551647367104,261.001578574662346,40.6736951526422388,14.3581301745802641,69.1285532541258618,1.7635040572348113,115.582010451252017,1011.14675843349778,15.2880000000000003,0,11.9392732351881889,0.119555179295794525,5.76151269804383811e-07,-0.0623412588613002638,0.048990113732321719,0.00671619396841170984
1.09,31.2221574138555518,131.010469096459161,22.4539464007304197,13.6888582322431862,9.72400256804379914,19.7727375564581571,-4.13007553786036929,-2.10016550774806277,246.543753324744074,40.966370490809652,14.4659235940225734,69.0915190046847698,1.83490049190110627,115.658430513398045,1025.71837236621673,15.2880000000000003,0,11.9688017037482446,0.120415910206884774,5.93009247128395222e-07,-0.0640643664154288833,0.050270067198890149,0.00695127195206837571
1.1,31.2221569887051018,131.010470534533567,22.7865142430463372,13.5891213676945828,9.62901757934777436,38.9022049985224001,-4.19465078458001805,-2.19734254275651031,413.189061738584087,41.2322071914323587,14.5637935308061195,69.053432987094439,1.9078765748611819,115.736560921595185,1039.04044253347251,15.2880000000000003,0,11.9981753819210066,0.121197761297499873,6.10026133413259664e-07,-0.065812348264575507,0.0515643536413047318,0.00718704482603157307
1.11,31.2221565616120706,131.010471983114712,23.1216540066118554,13.5074242781325164,9.54662948030077807,28.6780772504393155,-4.25368924983816488,-2.28734042292736728,324.159391037639693,41.444302374223291,14.6417022881979939,69.0142773912418193,1.98243374667792982,115.816404676600385,1049.72362539797336,15.2880000000000003,0,12.0274213489002761,0.121821653629249682,6.27172689370455826e-07,-0.0675879842044121021,0.0528748664477783972,0.00741868156250126594
1.12,31.2221561326248818,131.010473442050113,23.4593235188053235,13.3929496484499353,9.44222316032091946,11.2801422490467917,-4.32456782995355304,-2.3937264473492168,172.73281794065943,41.7514257492326593,14.7548703228321791,68.9740346157115454,2.05857202872465184,115.897963312073571,1065.30469138722992,15.2880000000000003,0,12.0565269419661973,0.122724881731805638,6.44455155530906264e-07,-0.0693908621163948219,0.054201192794951697,0.0076727652345216224
1.13,31.222155702347699,131.010474909836802,23.7991104477314614,13.2967046770850761,9.35051561998285763,33.6558826279734262,-4.38975605885756259,-2.49273450287580944,367.532807790070478,42.0040076383028875,14.8478460356752038,68.932685810551348,2.13629253773024219,115.981239588826497,1078.19794934046172,15.2880000000000003,0,12.0854731643519262,0.123467798847386637,6.6190609045288081e-07,-0.0712177294801030203,0.055540880595481075,0.00792214878057323491
1.14,31.2221552700757705,131.010476388169849,24.1414808799516862,13.213136558438709,9.26768157228508116,18.9608740331831633,-4.45083586048327717,-2.58649293268355374,239.695317731955441,42.2164141774633777,14.9258645084031158,68.8902133100110632,2.21559326833133952,116.066232979714897,1089.09420080290352,15.2880000000000003,0,12.1142971246734596,0.124092632237919803,6.7947700186687715e-07,-0.0730730217839212076,0.0568969910716154784,0.00816936440198277533
1.15,31.22215483629925,131.01047787581652,24.4860958226482381,13.0968183978930472,9.16296199546004964,18.6910276611963795,-4.52454985432070078,-2.69780412851061024,237.412511535467729,42.5280444338588453,15.0408654152333234,68.8465993591357517,2.29647130669513233,116.152942037011286,1105.19576358723612,15.2880000000000003,0,12.1429646127692319,0.125009136952228705,6.97204912742681771e-07,-0.0749534660455084822,0.0582670686867525073,0.00844116942201926859
1.16,31.2221544011523306,131.010479372429131,24.8328610694126191,13.0165254409136821,9.08286517409517202,47.7347383229274342,-4.58524188904423724,-2.7917237161326609,490.043774384589426,42.7266484043642905,15.1138285104395518,68.8018249925630556,2.37892471331283684,116.241366414052095,1115.5051338792307,15.2880000000000003,0,12.1714840872274763,0.125593415232586048,7.15088522147795197e-07,-0.0768588221184936943,0.059650824414217915,0.00869588061952611402
1.17,31.2221539636936605,131.010480880242284,25.1823868357064065,12.9190963995648946,8.99146222089383329,9.04866331883784802,-4.65288527115782102,-2.89548833014074436,153.709379294867944,42.9766927322167263,15.2059506639221347,68.7558723463856012,2.46294860699536633,116.331502667905866,1128.56173520792208,15.2880000000000003,0,12.1998612282863057,0.126328909657939192,7.33066282403090378e-07,-0.0787948827163976184,0.0610522525504592767,0.00896679913269513365
1.18,31.2221535251229412,131.010482396326069,25.5338718306722718,12.7991267486721689,8.88518211682003489,23.5695188315637125,-4.73014059872337267,-3.01277575640978901,280.025018221967457,43.2984450676003121,15.3249859046510437,68.7087226646241618,2.54853851085632543,116.42334784330464,1145.48465543152815,15.2880000000000003,0,12.2280670373243083,0.127275197421467451,7.5122577224092624e-07,-0.0807537951709613872,0.0624656634586142206,0.00925820974558358434
1.19,31.2221530848758704,131.010483922009286,25.8876792147676653,12.7290544941873005,8.81268114936767688,40.6379039122348615,-4.78765819185779495,-3.10342356271050512,428.407813052929214,43.4566938027569805,15.3829590659160722,68.6603566619644425,2.63568971996271673,116.516898800977458,1153.83385963489081,15.2880000000000003,0,12.2561499684640562,0.127740877499966599,7.69512021146495499e-07,-0.0827399896242136945,0.0638940671044937875,0.00952026763287915946
1.2,31.2221526424472131,131.010485458444236,26.2441201278645124,12.6190194779174973,8.7136404653986741,4.80900269567051897,-4.86203462347445736,-3.21754981055999734,117.184374136023607,43.7436103148545499,15.4890926427042857,68.6107565105691179,2.72439404579009192,116.612148720373227,1169.08016824674928,15.2880000000000003,0,12.2841131357935929,0.128584785342471891,7.87899921896175826e-07,-0.0847561229906128866,0.0653392079966988865,0.00981630061636311509
1.21,31.2221521990595576,131.010487002685323,26.6023932573002071,12.5112012580856558,8.61636596863556825,32.7435679823829702,-4.93613340828335367,-3.33170123517540029,359.923432132008998,44.0227624758214304,15.5925004047281348,68.5599025291718078,2.81464522627009828,116.709092905266118,1184.00812265349168,15.2880000000000003,0,12.311910872793467,0.129405879171697408,8.06477123377772405e-07,-0.0867943112245434384,0.066795417079647576,0.0101161613897787911
1.22,31.2221517537440469,131.010488556990424,26.9631106628187034,12.4372251556333886,8.54192381636107889,23.8852508264475816,-4.9958260252073865,-3.42644070389243804,283.068750482576149,44.1849620061482113,15.6520672135530674,68.507775966143015,2.90643439415091098,116.807723923495161,1192.70769681915795,15.2880000000000003,0,12.3395979722472653,0.129883197004004719,8.25159329291276326e-07,-0.0888614483609524441,0.068267401000830813,0.0103948929581421916
1.23,31.2221513068517282,131.010490120472696,27.3260289254203173,12.3263436744532058,8.44313498140597574,9.6741940613729227,-5.07217331376594149,-3.54449491987979082,159.796873822227951,44.4711158453616804,15.7582991828613341,68.4543590149319243,2.99975010914359297,116.908031633933092,1208.1642004067528,15.2880000000000003,0,12.3671431258454323,0.130724891357330147,8.43985328298636734e-07,-0.0909545094245985675,0.0697529149890027261,0.0107082689371538614
1.24,31.2221508588964198,131.010491691887609,27.6908108038952214,12.2283175579009917,8.35315371242758964,39.4702647187107729,-5.14317011948964353,-3.65559422547926438,418.515630199805003,44.7115055954851854,15.8475009571136347,68.3996324671235811,3.09458209709018739,117.010007205943012,1221.21823290411635,15.2880000000000003,0,12.3945368212763771,0.131432069175295041,8.62988218628032018e-07,-0.093070220791859809,0.0712495529659801924,0.0110162003952347168
1.25,31.2221504089568107,131.010493273340245,28.0580223445991201,12.1492837435572714,8.2759814102836522,19.3798177917236991,-5.20546014197712914,-3.75508143972636699,244.260946125734876,44.8817908342751011,15.9103412027279418,68.3435779213672419,3.19091775388137044,117.113639363550845,1230.49463905863968,15.2880000000000003,0,12.4217921189058291,0.131933179302225034,8.82086986348760315e-07,-0.0952150650832598727,0.0727616883588734498,0.0113125969736949297
1.26,31.2221499575981056,131.010494863452237,28.4272885576304333,12.0323041225337946,8.17392870908965286,11.6461148418171607,-5.28607548975760277,-3.88032347422852197,177.298446336408631,45.1852692809262351,16.0236058037113054,68.2861774140785229,3.28874276736948046,117.218915048017934,1247.14719667935651,15.2880000000000003,0,12.4488729885212539,0.132825829085520236,9.01339874763140014e-07,-0.0973844502465589096,0.074286005607443778,0.0116481661004167476
1.27,31.2221495049996136,131.010496461769804,28.7984865572387996,11.9461180928750679,8.09245509463469403,37.9527339736874083,-5.35205622079503129,-3.98574382230030855,405.579686079964688,45.3755038213658111,16.0942537450947789,68.2274110594658509,3.38804474212776929,117.325823321033297,1257.62568670561791,15.2880000000000003,0,12.4758196199417579,0.133385598021630414,9.20747081587085665e-07,-0.0995777296841916237,0.0758219282102047393,0.0119602224518201069
1.28,31.2221490504009296,131.010498069983925,29.172066341052119,11.8528575872431379,8.00653378805371929,12.6675123146468867,-5.42162051705752379,-4.09655305118315294,186.429688124688823,45.588321657846258,16.1735274839593366,68.1672610907541525,3.48880701607208277,117.434348709822501,1269.404695553897,15.2880000000000003,0,12.5026552051102637,0.134011761271820851,9.40249302348521263e-07,-0.101799707342762669,0.0773726279428710723,0.0122840089454641782
1.29,31.2221485946754882,131.010499686030016,29.5474715866040754,11.7409696932636454,7.90861010812344567,20.4621740584608105,-5.50097085906637506,-4.22139700963797626,254.153128984572163,45.8686257909664974,16.2786199287459539,68.1057089616098779,3.59101311849836025,117.544476000432894,1285.01645334352725,15.2880000000000003,0,12.5293430993915536,0.134836316626470554,9.59925386383703687e-07,-0.104043892646410008,0.0789335104137331572,0.0126315501217111083
