Time,Latitude,Longitude,Altitude,Angle of Attack,Angle of Sideslip,X-Acceleration,Y-Acceleration,Z-Acceleration,Thrust,True Velocity,Ground Velocity,Pitch,Roll,Yaw,Dynamic Pressure,cp,parachute_deploy_gain,Wind Speed,Mach,omega_x,omega_y,omega_z,Cmq,Angle of Attack(total),Angle of Attack(gust),True Velocity(gust),Acceleration
0.0,31.222186000000004,131.010384,3.000000003643237,0.0,0.0,0.0,0.0,0.0,2.2828121974499247,0.0,0.0,69.99999999623421,0.0,113.69999999388332,0.0,15.288,0.0,0.0,0.0,0.0,0.0,0.0,-0.0,0.0,90.0,0.0,0.0
0.01,31.22218600000153,131.01038399999584,2.99999882256592,0.0,0.0,0.0,0.0,0.0,34.24218696174923,7.502283530665459e-11,7.190531319924593e-11,69.99999999623329,-4.83564628150269e-13,113.69999999388072,3.446445726795683e-21,15.288,0.0,0.0,2.204725565824978e-13,-3.659182332138578e-19,7.589415207398531e-19,4.811147140404426e-19,-1.5108918610345807e-31,0.0,89.9999999995224,7.502283530665459e-11,0.0
0.02,31.22218600000288,131.01038399999217,2.999997775701936,0.0,0.0,0.0,0.0,0.0,25.871876237766408,1.5320717031631675e-10,1.4674636035870463e-10,69.99999999623222,-9.67129256300373e-13,113.69999999387804,1.4372842949972735e-20,15.288,0.0,0.0,4.5023593667086093e-13,-7.284483346386986e-19,1.5178830414797062e-18,9.757819552369542e-19,-6.170906918166791e-31,0.0,89.99999999902465,1.5320717031631675e-10,0.0
0.03,31.22218599928065,131.01038400193067,3.000201659671132,18.81500467334555,-0.00012974450181,11.96616230539064,-1.8916256735984712e-05,3.349833086198469,180.34219359854663,0.0882870268161719,0.0553390044312322,69.99999999799445,-4.212591857125379e-12,113.69999999488518,0.0047728553458352,15.288,0.0,0.0,0.0002594525584132,3.2187251995663407e-17,-7.20264389268894e-10,1.2365134327422308e-11,1.6874092354518158e-13,18.815004673776716,89.46786891739345,0.0882666465974854,12.426199017587786
0.04,31.22218599548236,131.0103840121632,3.001799604587872,9.46752327608497,-4.6177622759613696e-05,55.21900012092241,3.931876292165237e-06,3.349616504302861,548.6359724538078,0.3767519978512604,0.1853356633749705,70.00000000507204,-2.4624598767003407e-11,113.70000000019972,0.086915163246288,15.288,0.0,0.0,0.0011071759353184,1.6174128009138757e-15,-1.3693172015529268e-08,2.7753303060112748e-11,1.3689612277852356e-11,9.467523276196548,87.63554493451223,0.3767447442872393,55.32050167054111
0.05,31.222185984749512,131.01038404118162,3.00777936418888,5.376730308971262,-2.257790939128127e-06,80.28807156553681,5.266841443842784e-05,3.348887800834877,761.6984298824644,1.018787885905993,0.4366201147110198,70.00000000894464,-1.1355399380652658e-10,113.70000001523856,0.635552918586145,15.288,0.0,0.0,0.0029939522895272,1.6418815498809788e-14,-9.32122351075408e-08,4.303264669380585e-11,2.5199270302492604e-10,5.3767303089717045,83.57022052969386,1.0187875312530217,80.35788377762394
0.06,31.22218596447235,131.01038409608267,3.0201664202003013,4.296730121134882,2.4863835723705905e-05,60.21296515808257,0.0001057204249726,3.347700952379021,590.4875390737208,1.721098934225416,0.7081674028809783,69.99999995523842,-3.0560354507026086e-10,113.70000004366592,1.8138247671743823,15.288,0.0,0.0,0.0050578622752421,8.328976953118383e-14,-3.2824985336199985e-07,5.923438275930214e-11,1.4991363363716091e-09,4.296730121206683,79.20467073327266,1.7211028398275985,60.305955550063224
0.07,31.22218593493329,131.01038417609837,3.038741944736831,3.8204913578752526,4.8016684030909405e-05,91.4060317508128,0.0001597686613101,3.346072557365335,855.2937749779139,2.4375792548422868,0.9844712334613328,69.99999973536046,-5.939103491363046e-10,113.7000000850886,3.6383156301599167,15.288,0.0,0.0,0.007163413150771,2.709313825263564e-13,-7.906546256197275e-07,7.920022733617308e-11,5.114174483651565e-09,3.820491358176508,74.87999294483174,2.437586797285377,91.46725557277466
0.08,31.222185894468456,131.01038428575305,3.0647976109320942,3.588632851766762,7.220043782492885e-05,19.18449428359557,0.0002119618497595,3.3440615022685813,241.2171988638848,3.1292508166901074,1.2522236515868983,69.99999919480445,-9.914748373602156e-10,113.7000001418522,5.996012698481753,15.288,0.0,0.0,0.0091960591623389,6.80386533246681e-13,-1.5973238302190878e-06,1.0839624626357699e-10,1.3263625118823921e-08,3.58863285249208,70.86684630658345,3.1292621579083604,19.473766155861934
0.09,31.22218584634549,131.01038441616095,3.0957981580345013,3.551302481506045,9.685468678862004e-05,57.102946699906326,0.0002554087225869,3.341892818148368,563.0937377043176,3.701810007254615,1.479132491047967,69.99999812344194,-1.4359264356978275e-09,113.7000002093888,8.390904013834115,15.288,0.0,0.0,0.010878666406854,1.440096519545733e-12,-2.748643691533636e-06,1.5214952332699618e-10,2.6999776649034504e-08,3.5513024828250237,67.68737872952666,3.701825221153239,57.20065357568538
0.1,31.222185790329306,131.01038456796124,3.1319266121977414,3.608446747536112,0.0001234669721807,54.26147302645416,0.0002914860332524,3.3396271157106168,538.7437595981919,4.174070299823608,1.6716491241860567,69.9999963052332,-1.902380107712657e-09,113.70000028805804,10.668380938744466,15.288,0.0,0.0,0.0122665227999911,2.687800116751415e-12,-4.315796035622946e-06,2.1749089204950437e-10,4.7802076800548326e-08,3.608446749645647,65.17160335282355,4.174089693970246,54.36414778470795
0.11,31.222185727066616,131.0103847393952,3.172681775073216,3.633547373470009,0.0001485939126744,42.987553988990406,0.0003293995000288,3.337005588796181,442.8656393052949,4.672024955140527,1.8729475711242067,69.99999349387662,-2.3433348587116544e-09,113.70000037699285,13.365573690709628,15.288,0.0,0.0,0.0137298902182575,4.5789425819531184e-12,-6.340230783164189e-06,3.1157625832417107e-10,7.860218435507205e-08,3.6335473765043056,62.62546922225161,4.672048296217748,43.116880735560244
0.12,31.22218565692512,131.0103849294629,3.2177790417108385,3.650108937861461,0.0001727442530266,46.86777100765684,0.000367618259785,3.334068179146888,475.58594813540446,5.17479364099247,2.0758708919414386,69.99998941286465,-2.702771525550512e-09,113.70000047573096,16.396890189902592,15.288,0.0,0.0,0.0152074069417046,7.288473386564583e-12,-8.86736416607888e-06,4.42271554299792e-10,1.217615295152289e-07,3.6501089419435786,60.16906436414164,5.174820775596283,46.986210423745625
0.13,31.222185580265183,131.0103851371844,3.2669395832841857,3.7280113734654137,0.0001995014041665,51.64515456841877,0.0003986198234033,3.3311573548369657,515.9156326236895,5.579364582999854,2.2451120211463422,69.99998375846928,-2.9114380666036422e-09,113.70000058383452,19.060875702782603,15.288,0.0,0.0,0.0163963474924215,1.100846422415094e-11,-1.1941028436408576e-05,6.179653149059831e-10,1.7678562106638216e-07,3.728011378795934,58.279338776943774,5.579395920607139,51.75247433579817
0.14,31.22218549718016,131.01038536230575,3.320091807147376,3.768719651034081,0.0002242721760019,48.1660778383537,0.0004326225136175,3.32784677779744,486.2390860568404,6.025734265159953,2.428648685938864,69.99997621008868,-2.890941335368725e-09,113.70000070125378,22.232643351545065,15.288,0.0,0.0,0.0177081261985351,1.5941871344608664e-11,-1.560901486259027e-05,8.477542742712431e-10,2.495765160917323e-07,3.7687196576976176,56.27980129251342,6.025769493750979,48.280903250602165
0.15,31.22218540777004,131.01038560455507,3.377159065217065,3.821894709649632,0.000249725644238,46.56959330999435,0.0004643042952466,3.324387732286376,472.54218587214,6.441023336496372,2.6014999612196745,69.99996641132823,-2.546763407193136e-09,113.70000082794672,25.402620271850456,15.288,0.0,0.0,0.0189285691155931,2.2314099732464315e-11,-1.992367942778425e-05,1.1417519574710292e-09,3.4051816697623295e-07,3.821894717796148,54.501255563441134,6.441062563308839,46.68809885900716
0.16,31.22218531193176,131.01038586421257,3.4382223512025254,3.8463320955387794,0.0002733212404609,36.974247749122085,0.0004987816203583,3.3205066466509234,391.1218908297564,6.895451966878468,2.7877331692857847,69.99995397923414,-1.77088415515292e-09,113.70000096417354,29.113317717489338,15.288,0.0,0.0,0.0202640360420561,3.0367358387834494e-11,-2.4945905791363795e-05,1.5114297685186711e-09,4.5643121540033697e-07,3.846332105235269,52.641145594326446,6.895494900078523,37.12304892183151
0.17,31.222185210004127,131.010386140357,3.503019838429153,3.8860314262554336,0.000297865039677,46.520531453299206,0.0005306403365217,3.31650761597812,471.78125980632376,7.314788342774694,2.9619016331667103,69.99993849340957,-4.3039914767238207e-10,113.70000110959404,32.761746921137856,15.288,0.0,0.0,0.0214963781445172,4.0366633128431416e-11,-3.0713078585132897e-05,1.96747427715988e-09,5.961228045584824e-07,3.886031437653654,51.00464968745696,7.314835131305714,46.63860064094784
0.18,31.22218510147516,131.01038643438045,3.571950002194137,3.9107265153396016,0.0003214293682635,38.895647526122765,0.0005639254295027,3.312149448254175,407.10156721191447,7.754626295791602,3.1430587898572058,69.9999195084231,1.6149322372810674e-09,113.70000126508234,36.81988229018681,15.288,0.0,0.0,0.0227889722876034,5.2593391349219385e-11,-3.731786027786564e-05,2.525509173087448e-09,7.6786585232224e-07,3.9107265285284982,49.36615848311875,7.754676785798701,39.036415444581515
0.19,31.222184986476247,131.0103867459258,3.644912152926752,3.920599115663931,0.0003437679584038,43.86258669386953,0.0005989384366483,3.307389681300437,448.9531328318269,8.219206165926856,3.332657190859447,69.99989653019398,4.538529095696477e-09,113.70000143063515,41.36350714675367,15.288,0.0,0.0,0.02415428010977,6.735860419174937e-11,-4.481243905342629e-05,3.199401151670645e-09,9.773118416308382e-07,3.92059913071168,47.71893898797248,8.21926016487149,43.987104227715655
0.2,31.222184864792144,131.01038707557822,3.722074668489528,3.943376465171875,0.000367328732016,40.28070981710589,0.0006315894240138,3.30251450988504,418.51563019916136,8.65238089736321,3.511445117640573,69.99986902534273,8.534090245934178e-09,113.7000016067622,45.83799876721736,15.288,0.0,0.0,0.025427299120469,8.499785987217288e-11,-5.328041996372527e-05,4.006766070954748e-09,1.2232205148646746e-06,3.9433764822533854,46.2587826635041,8.652438597225508,40.41586552155969
0.21,31.22218473678744,131.01038742234647,3.803156063113743,3.9664546506877016,0.000390962054969,38.67679184347145,0.0006636984664108,3.297405915846789,404.8187610144644,9.079179692250786,3.688002035198235,69.99983642883521,1.3827831253856693e-08,113.70000179318536,50.47126980736161,15.288,0.0,0.0,0.0266815841422463,1.0586558589671407e-10,-6.275155280099118e-05,4.961340042512481e-09,1.5117124669161171e-06,3.9664546699249135,44.88773728276958,9.079241104426773,38.817098210937615
0.22,31.2221846022986,131.01038778667507,3.8882846911135607,3.956175711337521,0.0004112685792646,46.713636108302936,0.0007011135033803,3.291572407481395,472.5421858721365,9.580256326712124,3.889976788904857,69.99979815126248,2.0662823443484168e-08,113.70000199039316,56.195522894218605,15.288,0.0,0.0,0.0281541581291438,1.3033127211465288e-10,-7.330053770532661e-05,6.0817207473359025e-09,1.8632831045819008e-06,3.956175732680424,43.35679625546934,9.580320928629488,46.8294591882524
0.23,31.222184460898035,131.01038816972698,3.977794004014759,3.9879066397329104,0.0004360962274406,38.89105719050748,0.0007308686121188,3.286096544282012,406.3406421461021,9.977039034039262,4.056142701351626,69.99975353557706,2.9316661139418326e-08,113.70000219928508,60.9462612310605,15.288,0.0,0.0,0.0293202403623685,1.5880617816859538e-10,-8.505067486192354e-05,7.393319440773217e-09,2.2514912291167663e-06,3.987906663538912,42.20670487756048,9.97710753587448,39.0296395118868
0.24,31.222184313516166,131.01038856897196,4.070963590490852,4.003523997322975,0.000459165577055,40.0792299321398,0.0007630441688766,3.280134925833028,416.2328240017114,10.408422364424831,4.234121060914368,69.99970190737699,4.010976417051318e-08,113.70000241888,66.32994780718496,15.288,0.0,0.0,0.030588009649109,1.91711512587616e-10,-9.795845222523724e-05,8.904557280909524e-09,2.7052895870113487e-06,4.003524023611085,41.011349410369874,10.408494489985014,40.21323112692186
0.25,31.22218416001652,131.01038898478134,4.167901030441617,4.0261356185860135,0.0004830526730531,41.17760020658354,0.0007934613160587,3.2740610008587527,425.36408079150686,10.816813039390448,4.4041629376391525,69.99964258149416,5.3372865854010094e-08,113.70000264972064,71.63651430352668,15.288,0.0,0.0,0.0317882126436337,2.2947426169209347e-10,-0.0001121037688082,1.0637152702866709e-08,3.217380562698304e-06,4.026135647516394,39.93186687113378,10.816888917126896,41.30755663120434
0.26,31.222184000702686,131.0103894163294,4.26837241014618,4.053359329950934,0.000507503069958,44.80261175215926,0.0008224724146494,3.2678597736729302,455.8015834241788,11.207047269494833,4.567925492611352,69.99957484039399,6.947299261165984e-08,113.70000289176392,76.89781807056055,15.288,0.0,0.0,0.0329350617559806,2.7254099134167665e-10,-0.0001275114371842,1.260720913253598e-08,3.7915697709142366e-06,4.053359361668992,38.945390435244384,11.207126987890645,44.921630958721536
0.27,31.22218383516388,131.01038986473338,4.372698316214008,4.0614460923241,0.0005296455772492,41.029837477288126,0.0008548809954683,3.2610328932384265,423.84219965987256,11.645685385842508,4.748226940060522,69.99949794024376,8.879821051920497e-08,113.70000314600205,83.0342688744587,15.288,0.0,0.0,0.0342241635563461,3.2137296827284217e-10,-0.0001442952656441,1.4842505534226832e-08,4.458527942364847e-06,4.061446126801262,37.8838346421185,11.645768582375233,41.15922617924542
0.28,31.222183663504484,131.01039032970942,4.48079961904222,4.081133040992532,0.0005533279247169,47.27661484082626,0.0008845140695959,3.254218495915602,476.3468732012221,12.047344998676092,4.915789434712848,69.99941106884992,1.1178948978424788e-07,113.70000341275257,88.85982357848233,15.288,0.0,0.0,0.0354045979054623,3.764736350660473e-10,-0.0001625146963723,1.7365685655384934e-08,5.194620655212288e-06,4.081133078439725,36.956255322213885,12.047431915223257,47.38848224631549
0.29,31.22218348566054,131.0103908114315,4.592727908358551,4.1001100265020245,0.0005770279952742,37.989969791857405,0.0009138463939581,3.247164755122801,397.97031042211177,12.446314684600782,5.082367374004485,69.99931338876085,1.3891902435864665e-07,113.70000369260468,94.8417675268915,15.288,0.0,0.0,0.0365771315767517,4.3836067907166327e-10,-0.0001822432988888,2.0202163500922312e-08,6.018074062137429e-06,4.100110067036654,36.07377590258778,12.446405323946324,38.12849176886316
0.3,31.222183301933686,131.01039130907952,4.708251093558373,4.112858061667493,0.0005998635114143,35.655053282557844,0.000944131403186,3.2397207148238625,378.1859457108711,12.860033399289696,5.253940723820665,69.99920403105713,1.707002607527005e-07,113.7000039856728,101.2505662360602,15.288,0.0,0.0,0.03779301412572,5.075709863465428e-10,-0.0002035013069687,2.3370674033523645e-08,6.94335970778e-06,4.112858105337573,35.19685285507256,12.860127625629724,35.80193592228613
0.31,31.222183112488807,131.0103918222051,4.827243246502713,4.136140889545823,0.0006242383343011,37.56633644061071,0.0009716215464757,3.232339252743767,394.1656220930212,13.2364445751808,5.4126574282679245,69.99908210036875,2.0768081583188525e-07,113.7000042923011,107.26326115439352,15.288,0.0,0.0,0.0388992619788015,5.846561731689753e-10,-0.0002263323252403,2.6893437641668458e-08,7.948283231812338e-06,4.1361409365698805,34.43286455705216,13.236542630309057,37.70514091683033
0.32,31.22218291741533,131.01039235056504,4.949637017503345,4.1622282001352975,0.0006491019906456,40.83513712643371,0.0009979686925508,3.224840963348891,421.55939346242695,13.59846554462374,5.566374262777002,69.99894668612772,2.504388718903276e-07,113.70000461297312,113.2095365840355,15.288,0.0,0.0,0.0399632243410653,6.701756367872645e-10,-0.00025078340164,3.0793566854276295e-08,9.047716714467492e-06,4.16222825066026,33.72644865222576,13.598567505326,40.96227562489027
0.33,31.222182716732533,131.01039289410716,5.075419569102976,4.187801887681037,0.0006739743721461,40.48743503284469,0.0010239291638211,3.217136801802925,418.5156301991682,13.956637761217308,5.718704299733134,69.99879684673242,2.995902922462564e-07,113.70000494831164,119.25032483364384,15.288,0.0,0.0,0.0410158804634189,7.647061680070125e-10,-0.0002769136723495,3.509664608790402e-08,1.0253455741189656e-05,4.187801941818244,33.053267359159875,13.956743628864118,40.61505097607
0.34,31.222182510255863,131.01039345333336,5.204736257784645,4.19642921746386,0.0006961879027693,31.814592723444047,0.0010535137542081,3.208669900766693,345.46563688075645,14.367047160772364,5.88887983533068,69.99863160305904,3.557915789971256e-07,113.70000529927128,126.36523219087664,15.288,0.0,0.0,0.042222056531773,8.688448410811866e-10,-0.0003048202762282,3.9835373705550826e-08,1.1618525957862828e-05,4.196429275109305,32.30947868183619,14.367156517712404,31.97598901989736
0.35,31.222182298183583,131.0103940277045,5.337435501771672,4.210915783240843,0.0007193441544952,34.813487415034444,0.0010813034848195,3.200164272309822,370.5765700527033,14.754132934586384,6.050986755458457,69.99844991734221,4.1975736284587617e-07,113.70000566632532,133.26448209504355,15.288,0.0,0.0,0.0433596939127697,9.832256819293898e-10,-0.0003345386312107,4.503361101379695e-08,1.309465610343774e-05,4.210915844572415,31.63649055965014,14.75424592890194,34.96026256388454
0.36,31.222182080444604,131.0103946174141,5.4735747500461605,4.22903876037745,0.0007431682866607,39.2632255716727,0.0011077666085529,3.1915717453569297,407.8625232777193,15.124417129017054,6.2072589919251575,69.99825073022951,4.922382611919288e-07,113.70000605036684,140.03566173682628,15.288,0.0,0.0,0.0444479595865755,1.1084921261805627e-09,-0.0003661511460057,5.0723697896912267e-08,1.4691545926915382e-05,4.229038825557203,31.017264542603208,15.124533865618538,39.39272792946638
0.37,31.22218185710795,131.01039522227452,5.613102797925907,4.249164960780052,0.0007674149135003,37.28328237034959,0.001133274451316,3.1828514669894137,391.1218908297666,15.483077353331511,6.359470679857624,69.99803294268581,5.740349991123437e-07,113.70000645214331,146.75405277514704,15.288,0.0,0.0,0.0455020695186381,1.245311285088233e-09,-0.0003997125883071,5.6934243389647934e-08,1.641828325195534e-05,4.2491650299519,30.439178816713017,15.483197898584232,37.418894813348615
0.38,31.2221816281124,131.0103958424523,5.756069531572451,4.260095806433531,0.0007900626414612,38.9278000801764,0.0011607546399008,3.1735466295306622,404.8187610144602,15.87126705947922,6.521735074464384,69.99779542676283,6.659911329739736e-07,113.70000687263192,154.20298254405043,15.288,0.0,0.0,0.0466429667223463,1.3943646956867835e-09,-0.0004353006984059,6.369875435270817e-08,1.8328108041903096e-05,4.260095879559656,29.83470194713067,15.87139116222873,39.05694584372078
0.39,31.22218139339905,131.0103964781077,5.9025231349944285,4.274091258047817,0.0008133283308351,33.320076729592266,0.0011870382950339,3.164143363712209,357.64062493382744,16.24457853509073,6.678818328235205,69.9975369905506,7.690136753559805e-07,113.70000731287368,161.54010621938565,15.288,0.0,0.0,0.0477401448128051,1.5563705124515804e-09,-0.0004730068442167,7.105463478762673e-08,2.0383860516746246e-05,4.274091335289374,29.274934656826048,16.244706292406182,33.46997636540994
0.4,31.22218115316572,131.01039712870306,6.0523126585892895,4.286421841403391,0.0008363022448449,31.88018820767003,0.0012133780841982,3.1544430614236454,345.465636880754,16.62063299903514,6.836764518435374,69.99725641601981,8.840594270905819e-07,113.70000777359816,169.10340080049767,15.288,0.0,0.0,0.0488453895716005,1.7320643186450851e-09,-0.0005128553637434,7.9027539265021e-08,2.2612406375611563e-05,4.286421922834417,28.730746964325096,16.620764365084565,32.03586915718869
0.41,31.22218090752676,131.01039779392735,6.205351877049411,4.30025870409831,0.0008595777771371,35.882550741685804,0.0012389121673015,3.1445895889870297,378.94687077668647,16.987310563534386,6.99141560549392,69.9969524610574,1.0121301778427253e-06,113.70000825570062,176.64448930727934,15.288,0.0,0.0,0.0499230826371405,1.922193031274436e-09,-0.0005548883906878,8.764667734700782e-08,2.5005077415911235e-05,4.300258789847355,28.21875643368965,16.987445585695873,36.020076248499606
0.42,31.222180656535848,131.0103984736348,6.36160173428776,4.322008670726048,0.0008844838439129,40.34064925656127,0.001261804338223,3.134918999355981,416.2328240017114,17.318628721060172,7.133856886815013,69.99662385300175,1.154276942054023e-06,113.70000876021427,183.59942989625057,15.288,0.0,0.0,0.0508968652507098,2.1275184665783874e-09,-0.0005991661829955,9.694534598491077e-08,2.752657757470936e-05,4.322008761057615,27.772396468009568,17.318767655457478,40.462275036947325
0.43,31.222180400205527,131.0103991677914,6.521055075967404,4.339436441324956,0.0009085827200945,35.541853595187746,0.0012854696362701,3.124839917627212,375.9031395134336,17.662848429084132,7.280642039343927,69.99626930133451,1.3115939750280808e-06,113.70000928827632,190.96736675963504,15.288,0.0,0.0,0.0519085689713619,2.3488101247838237e-09,-0.0006457514522491,1.0695800287133593e-07,3.0255957891170616e-05,4.339436536261635,27.322335771349252,17.662991148924057,35.67895714766603
0.44,31.22218013836212,131.0103998768696,6.683849332059896,4.342209064313268,0.0009296474314902,32.82948243168077,0.0013129688908547,3.113754688841357,353.0750125389216,18.063580761318697,7.446730341918701,69.99588746395321,1.4852372182848018e-06,113.7000098413532,199.7278270846888,15.288,0.0,0.0,0.0530863610987301,2.586862292117705e-09,-0.0006947575786514,1.1773083546077225e-07,3.329010177793299e-05,4.342209163639375,26.81344244367223,18.06372678999575,32.9768158972058
0.45,31.22217987077456,131.0104006014978,6.850166573233225,4.3420317510315165,0.0009500780330031,38.11022602597878,0.001341042003417,3.1022288449712887,397.2093853562869,18.47486275310604,7.616350301328129,69.99547690348253,1.6764536248320808e-06,113.70001042108892,208.92306716049887,15.288,0.0,0.0,0.0542951637545535,2.842521175226318e-09,-0.0007463379956615,1.2932090054593452e-07,3.657529369088674e-05,4.342031854775571,26.30944884471334,18.47501199101448,38.23628058998621
0.46,31.22217959739673,131.01040134180155,7.020045503401754,4.351169003849846,0.0009725797783515,44.3937050866137,0.0013660055515545,3.09098240974522,449.7140588976434,18.844323061800488,7.771531995684422,69.99503610583268,1.8865779683531e-06,113.70001102895836,217.3591612614144,15.288,0.0,0.0,0.0553810645782081,3.1166808800591503e-09,-0.000800596194505,1.417768495237597e-07,4.001824400409673e-05,4.351169112337076,25.873596578896564,18.844475834274814,44.50118229261506
0.47,31.22217931813738,131.01040209802923,7.193559875579052,4.358630093683735,0.0009947969928181,30.22514089990685,0.0013910994973101,3.079396422776949,331.0078106302534,19.2180591098146,7.9280875671397615,69.99456352718363,2.1170044481277104e-06,113.70001166656292,226.0625808853568,15.288,0.0,0.0,0.0564795377574197,3.4102493884459798e-09,-0.0008576351980594,1.551487523304888e-07,4.3718862242359527e-05,4.35863020698899,25.44665981168229,19.218215372160817,30.381603425148434
0.48,31.22217903348153,131.01040286886197,7.370336324605091,4.365514409145237,0.001016880998596,29.779838936311712,0.001416009414045,3.067527859335786,327.2031223011574,19.5915905767454,8.084483592791102,69.99405758812365,2.369198154608765e-06,113.70001233476164,234.93171707892955,15.288,0.0,0.0,0.057577416115756,3.7241711041759195e-09,-0.0009173883913609,1.6944871263079066e-07,4.767297940601472e-05,4.365514527349481,25.03354780044292,19.59175030803913,29.937410312943754
0.49,31.22217874361868,131.01040365378466,7.5502307795521535,4.3786401372577615,0.0010404145545081,37.2489281064929,0.0014385799934191,3.0558405437943126,389.60000969812296,19.93403005898306,8.23012235628909,69.99351671352461,2.644660619562788e-06,113.700013034871,243.21198709852868,15.288,0.0,0.0,0.0585839249886784,4.059374595909599e-09,-0.0009798792959512,1.8470833984680338e-07,5.180951737438081e-05,4.378640260624215,24.667474291142685,19.934193486919103,37.37406598941686
0.5,31.22217844858332,131.0104044527036,7.733219389747018,10.513607711616505,-0.0006991056653363,38.35677187203328,0.0013745820214118,2.5806773063404265,397.97031042210494,21.406983915001824,8.366361539570502,69.99293932307316,2.9449363413826395e-06,113.70001376847225,280.4775422143716,15.288,0.0,2.5051569778986185,0.062912904465517,4.416751211901175e-09,-0.0010494275467989,1.0298120881856823e-05,5.958571682053966e-05,10.513607734598638,24.991412955455523,21.406874099740712,38.44348898958235
0.51,31.222178148583584,131.01040526518412,7.919255648531491,10.437991106395136,-8.833276424248465e-05,29.447785479609955,0.0013545218099488,2.5575149774189474,323.3984349720841,21.75286136461256,8.507544327892873,69.99229299568304,1.9145378157984e-05,113.70003143028866,289.6090664801676,15.288,0.0,2.515098841418872,0.0639295365660829,4.821970365987066e-09,-0.0012281305963434,1.0295748301438933e-05,7.085775865002587e-05,10.43799110676476,24.66766500903348,21.7528474893344,29.558635867502048
0.52,31.22217784362915,131.01040609106738,8.108361009159118,10.360324609707472,-5.176306691477789e-05,35.28620766655654,0.0013762739869482,2.533584447072424,372.0984511843415,22.107403180326248,8.651694664674496,69.99154285168304,3.534282847065709e-05,113.7000490957066,299.12102969265857,15.288,0.0,2.5250067450183704,0.064971638963331,5.2918979449570645e-09,-0.0014124805444571,1.029503889159938e-05,8.282067924411527e-05,10.36032460983537,24.34349157115359,22.10739504940271,35.37704769383577
0.53,31.22217753358648,131.01040693072818,8.300647529659457,10.286117942011982,-1.5804909270830267e-05,37.028883403345006,0.0013976359543504,2.5093814699789267,386.5562464348624,22.4582815456018,8.794395361762989,69.99068556888582,5.1538327343517405e-05,113.70006676599564,308.685698657138,15.288,0.0,2.534882223217355,0.0660029816064663,5.828414622108388e-09,-0.0016027325725451,1.0295056081100412e-05,9.54658730021123e-05,10.286117942024,24.031680081068657,22.45827906297246,37.11381418574193
0.54,31.222177218362976,131.01040778441873,8.49619277340954,10.214424019077317,1.9594070135378847e-05,32.57580613779036,0.0014187097040131,2.484838045432047,349.2703242098436,22.807149271017067,8.936217294712245,69.98971772494706,6.773280601797789e-05,113.70008444224588,318.34447769581766,15.288,0.0,2.5447324323657896,0.0670284220757736,6.433451412101815e-09,-0.0017990963396385,1.0295843110127122e-05,0.0001088247889373,10.21442401909595,23.730037812518542,22.807152348846408,32.67043874287066
0.55,31.22217689823944,131.01040865137574,8.694784635072953,10.1477396370892,5.444393230493466e-05,34.50080593609945,0.0014391168751678,2.4601935265764494,365.2500005919907,23.148033140871327,9.075093655538154,69.98863584899973,8.392725839271313e-05,113.7001021250835,327.9255230212048,15.288,0.0,2.554545836888631,0.0680304054309204,7.108979247950224e-09,-0.0020014300193562,1.0297444221560029e-05,0.0001228707847016,10.147739637233691,23.443669218906404,23.14804169290421,34.588410840911166
0.56,31.222176573222487,131.0104095315816,8.896423601776073,10.087758728419947,8.881754179230831e-05,32.2320900180863,0.0014585665332088,2.4356466104502337,346.2265619465787,23.476339956143995,9.209428534973265,69.98743648369631,0.000100122733344,113.70011981558105,337.28684255597125,15.288,0.0,2.5643222571160065,0.0689954325055248,7.85692930372261e-09,-0.0022098564726,1.029990344184654e-05,0.0001375878789768,10.087758728806891,23.17592419684132,23.47635390757084,32.323984956567976
0.57,31.22217624338929,131.01041042482663,9.101055391342395,10.025343383142438,0.0001226708897846,31.877502528376468,0.0014783609206616,2.4103684257069142,343.1828296833023,23.812618082941288,9.346367817340733,69.98611614170723,0.0001163203389064,113.70013751477283,347.0119093061134,15.288,0.0,2.5740574040221165,0.0699838935517926,8.679244278929754e-09,-0.0024244114803254,1.0303265160987185e-05,0.0001531054545071,10.02534338388528,22.907458125716957,23.812637352039594,31.968500834099867
0.58,31.22217590872396,131.01041133115456,9.308697916468851,9.954712670426048,0.0001558990406781,41.83413877430772,0.0014993917597676,2.383741742736466,426.1250058573153,24.171123191639847,9.490863421159284,69.98467128017505,0.0001325212410385,113.7001552238858,357.5321422111889,15.288,0.0,2.583751259024296,0.0710376855271538,9.57788004835467e-09,-0.0026452255480549,1.0307575296953488e-05,0.000169561818563,9.954712671634486,22.626159245997734,24.17114768020389,41.90199749334483
0.59,31.222175568835983,131.01041225162749,9.51965983044366,9.897391422867871,0.0001888771473993,33.997402265169725,0.0015183976566545,2.357901647552585,360.68438819711065,24.50031708709397,9.624990463265975,69.98309814852519,0.0001487266669171,113.70017294474226,367.3296965067804,15.288,0.0,2.593415294377309,0.0720053407891148,1.0554865793893928e-08,-0.0028728527345616,1.031288881499492e-05,0.0001866572215919,9.897391424652156,22.376843996602474,24.500346755846905,34.07907075119318
0.6,31.22217522393956,131.01041318566337,9.733780851473284,9.824661313494229,0.0002210824822243,30.26481958685949,0.0015397778475005,2.32990110914242,329.4859594986058,24.87010253509367,9.773045699959976,69.98139292312221,0.0001649379173861,113.70019067838412,378.49387153299534,15.288,0.0,2.603041916563197,0.0730923003113989,1.1612322478691816e-08,-0.0031071902110363,1.0319253779559176e-05,0.0002049255994304,9.824661315957307,22.09963069991768,24.87013726264877,30.35436947417048
0.61,31.22217487399272,131.01041413337668,9.951099411221128,9.750900590392094,0.0002527371324535,35.389855159287535,0.0015613628448094,2.3011462482045526,372.0984511843297,25.246202762612167,9.92311503907671,69.97955167579833,0.0001811563596967,113.70020842628608,390.0199023935344,15.288,0.0,2.6126336795680767,0.0741978267073181,1.2752392046116072e-08,-0.0033484218893417,1.032672363774612e-05,0.0002241702487386,9.75090059363579,21.824415881800988,25.246242462468096,35.46458972959972
0.62,31.222174519113366,131.01041509444715,10.171530054315951,9.704065210852928,0.0002846344495603,43.89808485374332,0.0015785988582826,2.274820796625555,442.86563930529206,25.555764456375083,10.049895077795169,69.97757037386647,0.0001973834356439,113.70022618977436,399.63470687510727,15.288,0.0,2.622193708867379,0.0751078059427441,1.3977278969912172e-08,-0.0035966037690439,1.0335350370163624e-05,0.0002437328206784,9.704065214987333,21.60872469450949,25.55580916664987,43.95698654338333
0.63,31.222174159127,131.0104160693496,10.395213749639575,9.650365069248604,0.0003159767136578,25.083318446905764,0.0015968530695306,2.247232933479775,286.11251274707894,25.88455079271855,10.18317564105355,69.97544502830792,0.0002136284193493,113.70024398175823,409.9750065908003,15.288,0.0,2.631706268467262,0.0760742934207194,1.528909611906565e-08,-0.0038520202107026,1.034519372838227e-05,0.0002643944923768,9.650365074372544,21.38260597170036,25.884600426224665,25.183782931008178
0.64,31.22217379461029,131.01041705651627,10.621709240153464,9.585197515370272,0.0003464710522453,24.6337442175458,0.0016169673372123,2.217724376538855,282.30782441796754,26.246216939283407,10.327715296442408,69.97317169615843,0.0002298773408719,113.70026178084088,421.5024459781344,15.288,0.0,2.6411797023209567,0.0771374217202016,1.6690077364505052e-08,-0.0041141371978399,1.035628817996152e-05,0.0002863249894428,9.58519752157361,21.1365692785375,26.246271362829027,24.733371347237505
0.65,31.222173425549503,131.01041805598493,10.851032802946673,9.539762151774209,0.0003772323381312,43.207170827767314,0.0016336899951918,2.1900788718475863,436.7781447787475,26.556288235095423,10.454176480684064,69.97074636364329,0.0002461396101237,113.70027959984584,431.5109835377636,15.288,0.0,2.650597360616844,0.0780489207021375,1.818233610343921e-08,-0.0043831363874324,1.03686882462519e-05,0.0003086430936204,9.539762159163656,20.934513156369075,26.55634749061253,43.26264045425017
0.66,31.222173051455403,131.01041906908617,11.083569102202391,9.49063439052624,0.0004075211021508,36.81618570495897,0.0016509188233118,2.161484426727176,383.51251517160017,26.87762911909084,10.58437383079458,69.9681649892231,0.0002624169265001,113.7002974412299,442.0071790447837,15.288,0.0,2.6599769385164964,0.0789935486650159,1.97679204472028e-08,-0.004659703191619,1.0382471824450817e-05,0.0003320807633456,9.490634399195434,20.728302541225005,26.87769313235588,36.8795817155583
0.67,31.222172672513693,131.0104200953153,11.319180022048956,9.431530782854344,0.0004369965451313,25.47924752297383,0.0016697900080304,2.1310465980835454,289.1562440103425,27.22881381159389,10.724762466857165,69.9654232443343,0.000278718803983,113.70031531762264,453.6229598660356,15.288,0.0,2.6693259825679228,0.0800258957622697,2.144914279445431e-08,-0.0049437525689865,1.039769067882226e-05,0.0003569193802701,9.43153079288654,20.505127424107545,27.228882454850684,25.568211058428982
0.68,31.22217228889353,131.01042113421292,11.55774030423188,9.376311774002373,0.0004662309892385,31.71199327381249,0.0016878950880916,2.1005452997148635,340.8999924858462,27.57089754839313,10.861828071197213,69.9625168830299,0.0002950316832074,113.70033320867634,465.08190568542,15.288,0.0,2.678611883468351,0.0810315031268974,2.3228294617276523e-08,-0.0052352416115218,1.0414397195521111e-05,0.0003827034404228,9.376311785490214,20.293219470502503,27.570970783785665,31.781485346085894
0.69,31.222171900676912,131.0104221855561,11.799192051566,9.332139397378512,0.0004956344632511,38.95572178222165,0.0017039081666501,2.071037530169355,401.0140726853634,27.88219177462277,10.98803793572488,69.95944156078734,0.0003113652208206,113.70035112731702,475.6323492750536,15.288,0.0,2.687857991878736,0.081946627253761,2.5107648328961963e-08,-0.0055341984903793,1.0432646605849966e-05,0.0004091158490359,9.332139410423627,20.106798618558106,27.8822696287022,39.01073517544281
0.7,31.22217150773471,131.01042324969654,12.043640812656813,9.287883760947633,0.0005247131201483,32.7379532548708,0.0017197852268144,2.041027049637162,349.27032420985284,28.194566515041025,11.11445413709076,69.95619293384964,0.000327729204441,113.7003690869344,486.3380102876238,15.288,0.0,2.697069482399464,0.0828649348421036,2.7089404805571765e-08,-0.0058409155257925,1.0452508947931058e-05,0.0004366171748022,9.287883775639258,19.923206027832794,28.1946489367852,32.801514868876374
0.71,31.222171110123067,131.01042432648185,12.291048642831656,9.2373288333436,0.0005530997120908,26.97465090410395,0.0017366694915214,2.009579623285081,301.33126406340574,28.526865895399567,11.247628598069332,69.95276665023252,0.0003441101652082,113.70038706738204,497.85763634864617,15.288,0.0,2.706215496200604,0.0838418097535338,2.9175851662210608e-08,-0.006155448098173,1.0474043923944558e-05,0.0004655409453275,9.237328849758782,19.729993824383023,28.526952776099176,27.04940303734298
0.72,31.222170707847688,131.01042541589672,12.541416742176455,9.179277924974384,0.0005806582110499,32.94064767573886,0.0017548401880921,1.9763996225624625,350.79220534145287,28.883971711057093,11.389252746724768,69.94915810034239,0.0003605258145728,113.70040509311916,510.3879732547591,15.288,0.0,2.71532436955612,0.0848916004457753,3.1369329162285e-08,-0.0064779466054017,1.0497317580222756e-05,0.0004960528888443,9.179277943182516,19.524722519388813,28.8840629206356,32.99988527017464
0.73,31.222170300909287,131.0104265179397,12.79475029925228,9.14053157709412,0.0006090871633855,41.56899488478581,0.0017692151302107,1.9456574852952853,422.320318528234,29.182132434148425,11.51023894534194,69.94536265664357,0.00037696293131,113.7004231443593,520.9668542762143,15.288,0.0,2.724398302497886,0.0857681565417225,3.3672226385126444e-08,-0.0068085920393379,1.0522399668762871e-05,0.0005267414312583,9.140531597215183,19.36089878505745,29.18222810933632,41.61450374462678
0.74,31.22216988924915,131.01042763277073,13.051100188753889,9.095967419544086,0.0006368488333303,26.17185933202216,0.0017845107247464,1.913509106461644,294.48281347105944,29.49910174150332,11.637592625275492,69.94137563215577,0.0003934393571929,113.70044124578187,532.3324453763843,15.288,0.0,2.7334167941941208,0.0867000003914374,3.608688261306045e-08,-0.0071475595332041,1.0549361799551647e-05,0.0005589578047154,9.095967441650744,19.18823593624512,29.49920177748413,26.241717572981873
0.75,31.22216947322444,131.01042875941897,13.310195526468604,9.04784002359603,0.0006640185515437,30.491311124513544,0.0018003312341834,1.880226680167758,330.24688556441487,29.828480036016945,11.769105130404746,69.9371924176982,0.0004099420144657,113.70045937723978,544.2730054768169,15.288,0.0,2.7423833206119195,0.0876683233666134,3.86157808949928e-08,-0.0074944910378949,1.0578238965409973e-05,0.0005926181029014,9.047840047759244,19.011186668599134,29.82858433980711,30.549227644932213
0.76,31.222169052729225,131.01042989817273,13.572123637795949,9.006581163293436,0.0006913683331698,32.79414521157203,0.0018146243648897,1.8475683837714048,349.27032420986166,30.136202400967072,11.892937817995149,69.93280824248963,0.0004264892698782,113.70047756417236,555.5468271928181,15.288,0.0,2.7513085990293766,0.0885730061141104,4.1261236034291616e-08,-0.0078497004032251,1.0609112081502184e-05,0.0006270935402308,9.006581189610143,18.85036477163667,30.13631100085089,32.84614851673246
0.77,31.22216862770982,131.01043104917835,13.83693140788335,8.967170427192249,0.000718578127077,30.69162237985457,0.0018283427842569,1.8147296799120824,331.7687666960708,30.43810887574101,12.014590336342124,69.92821836863497,0.0004430756395206,113.70049579781109,566.7191807294736,15.288,0.0,2.760192859006149,0.0894606036416395,4.402559909432826e-08,-0.008213408516754,1.0642058683749206e-05,0.0006627057941381,8.967170455748166,18.69570676794318,30.43822174972926,30.7452261572684
0.78,31.222168198232616,131.01043221225575,14.10457275987668,8.922307256360606,0.0007450630237729,25.281862927781976,0.0018429452314081,1.7804098852437371,286.8734378128899,30.758721769138617,12.142590165377866,69.92341796494378,0.0004597034531195,113.70051408035503,578.7059987860221,15.288,0.0,2.76901255040447,0.0904031895371374,4.691130050671485e-08,-0.0085856370509922,1.067714254664999e-05,0.0007000181874176,8.92230728721724,18.53282439536978,30.75883880336471,25.344475844946516
0.79,31.22216776438721,131.01043338716138,14.374983743190285,8.874538208193972,0.0007709814443806,35.76098931381171,0.0018579495299326,1.7449779046852432,373.6203323159534,31.09018045986697,12.274208516402304,69.91840210843735,0.0004763758849744,113.7005324151434,591.2302202977155,15.288,0.0,2.7777882312032927,0.0913776610418424,4.9920811208812624e-08,-0.0089664019120133,1.0714426969007116e-05,0.0007389221438381,8.874538241415468,18.366677735917644,31.09030156534905,35.80353764703108
0.8,31.222167325958186,131.01043457448148,14.64833619722618,8.837921327240995,0.0007975858626601,36.23013637032682,0.0018704398401224,1.711107136406058,377.42502064505743,31.38332704827579,12.392352174773034,69.91316572832311,0.0004930956545919,113.70055080525805,602.4162847669527,15.288,0.0,2.7865265394597043,0.0922395374806588,5.3056498791987593e-08,-0.0093562245431517,1.075402041178008e-05,0.0007782971761743,8.837921362944503,18.22477866262881,31.383452332770123,36.270520709569126
0.81,31.222166883049248,131.01043577393432,14.924555166964163,8.794593444112609,0.0008233241801097,23.73908156120231,0.0018840918934116,1.6754291306639573,273.9374926939919,31.700291692001223,12.51861886150387,69.90770373420092,0.0005098655620356,113.70056925341068,614.6299719778873,15.288,0.0,2.7952230116556485,0.0931714267201036,5.6320922370859056e-08,-0.0097550477058135,1.0795984431719604e-05,0.0008196472226818,8.794593482348075,18.072042866316814,31.700421019461007,23.79813143276369
0.82,31.22216643584905,131.0104369850073,15.203500125618076,8.74866353240914,0.0008485139047903,30.36532741709017,0.0018980712975493,1.6386564887221995,328.72500443277005,32.02715175435143,12.64818277970798,69.90201098301701,0.0005266894498068,113.70058776364992,627.3533460390877,15.288,0.0,2.8038623070838806,0.0941324087227711,5.971668544061203e-08,-0.010162724003014,1.0840370872114084e-05,0.0008626827822571,8.748663573236634,17.916536859427453,32.027285038603914,30.409510154518998
0.83,31.222165984343537,131.0104382077389,15.485187137543752,8.715930667541782,0.000874706415879,38.4669606904323,0.0019089970738044,1.6040537764272826,395.68750322465047,32.30614605998666,12.760959150278428,69.89608226482059,0.0005435694670789,113.70060633785396,638.3136612112106,15.288,0.0,2.812451683397165,0.094952714921776,6.324628065853493e-08,-0.0105794635499372,1.0887264998200417e-05,0.0009058571814094,8.71593071109425,17.788921319886498,32.30628345854916,38.50039034764718
0.84,31.222165528429866,131.01043944240905,15.769700454414297,8.680757224034632,0.0009004364911362,23.941037978228625,0.0019201703171856,1.568485488405471,275.4593748256452,32.59360636550245,12.87652663231516,69.8899123667505,0.0005605175727948,113.70062499203912,649.7058852365428,15.288,0.0,2.820998952933976,0.0957979123411697,6.691213783996577e-08,-0.011005541440953,1.0936761482370129e-05,0.0009506986910019,8.680757270376942,17.658657824104605,32.593747805735724,23.99236232406842
0.85,31.22216506840272,131.01044068821685,16.05681758242823,8.635243236800644,0.0009248194391418,26.06365115251105,0.0019333325778628,1.530152432871195,292.96093233939376,32.9197526843213,13.005414105505702,69.88349616199136,0.000577520707449,113.70064370582244,662.7551645469707,15.288,0.0,2.829497282884019,0.096756822883115,7.071693343223197e-08,-0.0114405853754218,1.0988889598365205e-05,0.0009981410138073,8.635243285948365,17.510451367214493,32.91989795461909,26.108528905424507
0.86,31.222164604091592,131.01044194562616,16.346675047377722,8.597750220886969,0.000949783029382,32.51410296109765,0.0019444824169736,1.4930225044783008,346.2265619465587,33.215771866917265,13.12367954222936,69.87682818019226,0.0005945986036271,113.7006625063636,674.7091524392217,15.288,0.0,2.8379524703143257,0.0976271935284603,7.46630938807103e-08,-0.0118850903040776,1.1043768502012464e-05,0.0010462171533332,8.59775027295335,17.379816383659524,33.21592105848664,32.5483641884619
0.87,31.222164135522583,131.01044321456635,16.639257554106536,8.564078478580065,0.0009749347571237,30.31239554384743,0.0019545003645034,1.456262038705718,327.964078366998,33.49669773907909,13.23655032184439,69.86990309350665,0.0006117380869148,113.70068137341244,686.1509812450957,15.288,0.0,2.846364082928039,0.0984532107659541,7.875317653423086e-08,-0.0123391557042316,1.1101479171743024e-05,0.0010953432514754,8.564078533659488,17.258524791430453,33.49685088147262,30.34735617071294
0.88,31.22216366273312,131.01044449493597,16.934540940692838,8.525328253413734,0.0009992805982864,26.267227623397734,0.0019653546335637,1.4178298433261407,294.4828134710418,33.79684831818183,13.355975008812091,69.86271538221513,0.0006289604664351,113.7007003360312,698.4829172914573,15.288,0.0,2.8547182045394286,0.0993357417680794,8.298979501063897e-08,-0.0128028152289753,1.1162096061735056e-05,0.0011466533976683,8.525328311545312,17.129429696964323,33.79700528481114,26.305465066153726
0.89,31.222163185806224,131.01044578650948,17.232465935125376,8.48168369723553,0.0010227872879111,28.761360797101105,0.0019770342674404,1.3776739622677492,315.028134248087,34.11634424176862,13.482003322907891,69.85525958272062,0.000646258371713,113.70071938212337,711.7310836847755,15.288,0.0,2.863025400208928,0.1002751416926061,8.737557429759477e-08,-0.0132760945233267,1.122569296419645e-05,0.0012002476913011,8.48168375845223,16.99287670607133,34.11650490082011,28.794337366155855
0.9,31.222162704669152,131.01044708948498,17.533093352772894,8.450989451080279,0.0010476098792516,31.71782240191185,0.0019854727788255,1.3401458075167278,339.37814235421445,34.383781025389126,13.589768482557348,69.84752999603668,0.0006636385088035,113.70073851991722,722.9124147599357,15.288,0.0,2.8712902802045366,0.1010615376930146,9.19130728861861e-08,-0.0137593073138819,1.1292379270030766e-05,0.0012536483096461,8.450989515541144,16.883002537092157,34.38394558356414,31.746121852073962
0.91,31.222162219393745,131.01044840366745,17.83637226144853,8.415304304754544,0.0010716092662921,24.258402388785868,0.0019947330235774,1.3009047406074283,277.7421810230789,34.67055378265578,13.704134056011572,69.83952105575646,0.0006811048114884,113.7007577534493,734.9999773474642,15.288,0.0,2.879510402229505,0.101904774974558,9.660493849778004e-08,-0.0142524339290865,1.1362226402778036e-05,0.0013093708901932,8.415304372492857,16.765386362001067,34.6707221106457,24.29325922101328
0.92,31.222161730182087,131.01044972850772,18.1421516142112,8.374829613055708,0.0010947491625461,28.78281304554446,0.0020047944937915,1.2599042681499453,315.02813424806214,34.97659674893863,13.825094700933636,69.83122709777689,0.0006986654048301,113.70077709253712,748.0112236094443,15.288,0.0,2.887681901537312,0.1028046607231784,1.0145397604546761e-07,-0.0147552124836751,1.1435273776648477e-05,0.001367486760307,8.37482968409765,16.64042112711684,34.97676871173495,28.810374686887844
0.93,31.22216123694604,131.0104510642457,18.45050366501893,8.34603965375067,0.0011191850234104,34.139973232916624,0.0020118105806273,1.2214518230384126,359.1625070654728,35.233479881764715,13.928797580595267,69.82264246418735,0.0007163121761899,113.70079652410983,759.016523935367,15.288,0.0,2.895808943790789,0.1035600625733364,1.0646264033636161e-07,-0.0152680235824245,1.1511642928052138e-05,0.0014253634289184,8.34603972825923,16.53943796779223,35.23365568293708,34.161816710292925
0.94,31.22216073957792,131.01045241117438,18.761515259554407,8.306959259029936,0.001142047403526,24.921521427154428,0.0020208989647014,1.1797660110847563,283.0687504837787,35.53262863483556,14.047106290903116,69.81376138944586,0.0007340662643539,113.700816077008,771.9369932566733,15.288,0.0,2.9038914257855617,0.1044397025401365,1.1163344924036385e-07,-0.0157911419892622,1.1591446063686808e-05,0.0014866719712773,8.306959336983866,16.4206097522034,35.532808027222195,24.94943049789034
0.95,31.222160238366712,131.01045376850834,19.07496865334148,8.269506506741012,0.0011648810879685,32.126469266914285,0.0020292799838852,1.1379723045104546,342.4218736174873,35.82445581654242,14.162752364433336,69.80457806949681,0.0007519139328329,113.70083572948091,784.6451770679865,15.288,0.0,2.911926119871344,0.1052978314918481,1.1696934508894861e-07,-0.0163241935717754,1.1674707751448536e-05,0.0015494320729378,8.269506588215787,16.306553960161974,35.82463879563582,32.14661743701502
0.96,31.222159733022544,131.01045513703596,19.39109061790609,8.237900430738092,0.0011883321847247,31.488108061679032,0.0020359153722337,1.0973075737873828,337.09533515678345,36.090216271666094,14.269179065812615,69.79508649544265,0.0007698816608213,113.700855518205,796.3058178367806,15.288,0.0,2.919919271539402,0.1060793522303154,1.224726261043398e-07,-0.0168679261380778,1.1761608731789152e-05,0.0016128693641819,8.23790051585624,16.205219910764313,36.09040293444916,31.507221987354242
0.97,31.22215922356637,131.0104565167004,19.70986903015926,8.203627682009385,0.0012112138859174,20.32167920573461,0.0020428239205177,1.055395193220648,245.02188719299323,36.36644247836763,14.379133053130804,69.7852807327783,0.00078795099436,113.70087541496096,808.517193487781,15.288,0.0,2.927870099543469,0.1068916436630459,1.2814601457602302e-07,-0.0174224382063635,1.1852244273627604e-05,0.0016785893836218,8.203627770811593,16.100460152588614,36.36663273539991,20.349066537013172
0.98,31.22215871028544,131.0104579067211,20.031087481076863,8.159737647721126,0.0012324396204832,29.37877308241471,0.002051708926419,1.0100862455743282,319.5937466429581,36.68455916566546,14.503610757663909,69.77515467046939,0.0008061366344484,113.70089543864272,822.6987416626538,15.288,0.0,2.9357700795185333,0.1078270727649087,1.3399262944759868e-07,-0.0179872381406127,1.1946622027640711e-05,0.0017481114239792,8.159737740164344,15.979165486315845,36.68475275682833,29.396132164980873
0.99,31.22215819303389,131.01045930749476,20.354861941270613,8.13253732150588,0.0012559599729889,32.065336287256486,0.0020561692346144,0.9692773570991536,341.6609485517054,36.92729787511588,14.601651264913928,69.76470204494514,0.000824453053847,113.70091560839226,833.5962989800057,15.288,0.0,2.9436274962572164,0.1085409521823624,1.4001493623328254e-07,-0.0185628897737131,1.204490529364316e-05,0.0018159376455149,8.13253741783665,15.890871848126686,36.92749516084709,32.0799827624278
1.0,31.222157671811093,131.01046071902337,20.68119637386861,8.095993576479925,0.0012778664937715,28.74566103265179,0.0020625281838275,0.9251223649029332,314.2672081822764,37.21083396742052,14.713831845663432,69.7539169156308,0.0008428862363329,113.70093590227872,846.419992965317,15.288,0.0,2.951441652357446,0.1093747567652774,1.4621564602490002e-07,-0.0191494362651465,1.2147183431618604e-05,0.0018876418660201,8.095993676656652,15.786525253405715,37.21103469421996,28.760543872607514
1.01,31.22215714679675,131.01046214081856,21.00995690434308,8.061218376131958,0.0012998343058479,30.04664845645564,0.002068076060964,0.8810027807799271,324.9203161036979,37.48532736474708,14.822753256687632,69.74279296859557,0.0008614503166244,113.70095633842692,858.9265125398464,15.288,0.0,2.9592114651489885,0.1101819909841462,1.5259773236723525e-07,-0.0197466825109291,1.2253507743377271e-05,0.001960811936191,8.061218480235734,15.686998441376444,37.48553154224237,30.0595617673064
1.02,31.22215661791586,131.01046357308445,21.34120449063892,8.02905866880519,0.0013220285542884,25.152285070893395,0.0020725836160711,0.8372370342665086,284.59063161540416,37.74646280333009,14.9269001785593,69.73132393189795,0.0008801619477713,113.70097693892734,870.9076307289979,15.288,0.0,2.9669387994747143,0.1109499706262394,1.5916377831976325e-07,-0.0203549364030636,1.2364009612836235e-05,0.0020352261922848,8.029058776931434,15.593844754941967,37.74667046708977,25.16621573527965
1.03,31.222156085236488,131.0104650156362,21.67489037111392,7.990638892932816,0.0013429928053554,20.6250640772746,0.0020782572334166,0.7908919213601076,247.30469339049705,38.035723769428245,15.040792049679288,69.71950367325856,0.0008990077789914,113.70099768257803,884.2784169166523,15.288,0.0,2.974622284563418,0.1118006300949074,1.6591658740181268e-07,-0.0209741592202573,1.2478766619482893e-05,0.0021131435418363,7.990639005059062,15.490423583219542,38.03593472624478,20.640222444104353
1.04,31.22215554882007,131.01046646830704,22.01097110581388,7.958492828696829,0.0013647975508088,32.565728314473795,0.0020819575809617,0.7461275550324756,345.46563688072297,38.29417352367636,15.143809633187944,69.70732572593015,0.0009180004414431,113.70101858541211,896.3075157582898,15.288,0.0,2.9822629955732065,0.1125607334730437,1.728589821639671e-07,-0.0216044120299796,1.2597872674260708e-05,0.0021913607900179,7.958492944967383,15.400154716549016,38.294387905574304,32.57427468593961
1.05,31.222155008386288,131.01046793185913,22.34966394970665,7.921344846423983,0.0013855707873845,19.80061797498176,0.0020864998529055,0.6991397959407574,240.45625879819983,38.57517035042394,15.254619327770405,69.69478368981157,0.0009371453143212,113.70103965351775,909.4801257816268,15.288,0.0,2.9898650528828985,0.1133871203935156,1.7999322680698921e-07,-0.0222464753147989,1.2721548373205291e-05,0.0022729698268136,7.921344966830218,15.30197133723089,38.57538799537425,19.81295719974483
1.06,31.22215446416899,131.010469405657,22.690793590121025,7.880014693696493,0.0014053934814597,28.044223060896563,0.0020916929414769,0.6500726170338674,308.17968365593924,38.87558097935722,15.37215030102776,69.68187089444422,0.0009564479789349,113.70106089247176,923.6704771393312,15.288,0.0,2.9974252968978887,0.1142705815529145,1.8732261433397659e-07,-0.0228999431304423,1.284981362199143e-05,0.0023578798553251,7.88001481823061,15.197392820919262,38.87580173804904,28.051756555907854
1.07,31.22215391605458,131.01047089000963,23.03445003101609,7.848868140994753,0.001426828482103,32.958679469649155,0.0020938598182689,0.6041401544242032,348.5093681440308,39.12482984078644,15.47165623668032,69.66858051130598,0.0009759141663875,113.70108230850506,935.5216999973236,15.288,0.0,3.004947982054316,0.1150036677130486,1.948497495780231e-07,-0.0235653362203014,1.29828508843316e-05,0.0024418677682224,7.84886826987247,15.113163501980484,39.12505396648028,32.9642160849232
1.08,31.222153363943864,131.01047238518683,23.380711659648696,7.81571567739341,0.0014477465183365,22.313571390337607,0.0020960885505968,0.556993905316501,261.00157857466235,39.38219055770152,15.573906457978802,69.65490579835372,0.0009955496557329,113.70110390788128,947.8382622068416,15.288,0.0,3.0124335745563675,0.1157606070741284,2.02577348517206e-07,-0.0242429889612405,1.3120815712012776e-05,0.002528527193615,7.815715810647582,15.026556711213576,39.38241796919281,22.320522278742494
1.09,31.222152808107623,131.01047389045263,23.729374968188,7.772012141035034,0.0014665095523223,20.557220769432384,0.0021006021306783,0.5052950813949753,246.54375332474407,39.69133125471596,15.69425710348466,69.64083992316948,0.0010153603533614,113.7011256964775,962.7450269281763,15.288,0.0,3.0198777522760967,0.1166697589665178,2.1050891377144497e-07,-0.0249323345442833,1.3263698555877126e-05,0.0026207504082164,7.772012278543998,14.9216767662176,39.69156161349774,20.563429998300222
1.1,31.22215224862085,131.01047540560347,24.080385883540785,7.733968122749785,0.0014861020954315,40.859503947967056,0.0021032147810363,0.4551489983913613,413.1890617385841,39.97094091213126,15.80417908141168,69.62637596426755,0.0010353522880325,113.7011476805814,976.324198322676,15.288,0.0,3.0272810302179813,0.1174921164597832,2.1864740517817322e-07,-0.0256334189699426,1.3411599618522104e-05,0.0027133343682647,7.733968264660777,14.828627355349877,39.97117434850251,40.862038959261255
1.11,31.222151685088,131.01047693171455,24.434047964602083,7.707016762048552,0.0015076694435109,30.021733541315907,0.0021024605760698,0.408925263051544,324.1593910376397,40.1915759645938,15.89328451890686,69.61150686196127,0.0010555316317186,113.701169867303,987.0988099136448,15.288,0.0,3.03464683885179,0.1181411311024753,2.2699483560535805e-07,-0.0263474604985967,1.3564848966179269e-05,0.0028042159330871,7.707016908625458,14.757475408882206,40.19181278875617,30.024518466028308
1.12,31.22215111756981,131.01047846862096,24.79031700340101,7.659701908482707,0.0015251007505018,11.573338126344344,0.0021065520882755,0.3539177254254314,172.73281794065943,40.5163552569038,16.01892202843629,69.59622563627948,0.0010759046067881,113.70119226316176,1003.081995666614,15.288,0.0,3.0419756925400367,0.1190962824470879,2.355544080924703e-07,-0.0270743508878543,1.3723530364953888e-05,0.0029047664240867,7.659702059406248,14.64988604099744,40.51659481916946,11.57874853257586
1.13,31.22215054664801,131.0104800147417,25.14875431950572,7.623623143012477,0.0015445106918457,35.32201936977401,0.0021072414826216,0.3029076459355309,367.5328077900705,40.78129375159315,16.123474876828297,69.5805247930154,0.0010964777717201,113.70121487430072,1016.2083052994376,15.288,0.0,3.049262776763979,0.1198755439556876,2.443305047115976e-07,-0.0278128018540955,1.3887486618688308e-05,0.0030034027942292,7.623623298543455,14.564356745512194,40.78153636276526,35.323318216740674
1.14,31.222149971670017,131.0104815718505,25.509857153531247,7.595396570911787,0.0015653689091855,19.741841876085385,0.0021053519190861,0.2547640914079638,239.69531773195544,41.00222176654017,16.2124438364326,69.56439731668318,0.0011172575259271,113.7012377084454,1027.2128833378583,15.288,0.0,3.056517657647915,0.1205254472212266,2.533243425665772e-07,-0.0285647362272184,1.405720478730224e-05,0.0031012043428233,7.595396731272694,14.494630290434868,41.0024676541134,19.743485756956296
1.15,31.2221493931134,131.01048313864956,25.87326508883761,7.546702493881283,0.0015818293062406,19.46625494145581,0.0021084020602082,0.1972094117943727,237.41251153546767,41.33169693081245,16.339602711117056,69.54783614592131,0.0011382503802646,113.70126077184146,1043.7512030991977,15.288,0.0,3.0637316203697607,0.1214944330467648,2.625402502737388e-07,-0.0293288491032415,1.4232523320787446e-05,0.0032096366610983,7.546702658701409,14.388275412569769,41.3319454039788,19.467253977980874
1.16,31.22214881111364,131.01048471477074,26.23887830607116,7.520470161133104,0.0016027658136207,50.29238262045445,0.0021049855352031,0.149010511128883,490.0437743845894,41.53748487610744,16.423126180730563,69.5308337170675,0.0011594631757239,113.70128407157593,1054.133599598944,15.288,0.0,3.070907705533169,0.1220998500593935,2.719813761096132e-07,-0.0301051142494325,1.4413534017212736e-05,0.003310875406242,7.5204703309422385,14.324639582623078,41.537736637972685,50.29260341447417
1.17,31.222148224811484,131.01048630254942,26.607348232662574,7.483512992564098,0.0016213266952882,9.258917193231076,0.0021038903391982,0.0955687210865477,153.70937929486794,41.79952610655049,16.526390389567286,69.51338290972751,0.0011809025982738,113.70130761598357,1067.4378743790314,15.288,0.0,3.078055282537254,0.1228706338050722,2.816483808271333e-07,-0.0308960432503704,1.460087924749927e-05,0.0034191740795323,7.4835131671969854,14.242446913319572,41.7997807839522,9.259410639879555
1.18,31.222147635337937,131.01048789891186,26.977821366525063,7.432347325383682,0.0016365648611368,24.67796905821716,0.0021061192294921,0.0348721092622628,280.02501822196746,42.13983184237876,16.657286434594766,69.49547622252022,0.0012025756274342,113.7013314108958,1084.8508481316028,15.288,0.0,3.0851591019661875,0.1238714879693387,2.915476797616981e-07,-0.0316983974580704,1.4793971177554187e-05,0.0035364020952096,7.432347504553541,14.135172636335238,42.14008891338597,24.67799378673368
1.19,31.222147042182662,131.01048950524515,27.350685700698765,7.412548300261941,0.0016585043393683,42.801158848436,0.0020993802543488,-0.0115338145823872,428.4078130529292,42.30154180517548,16.72504300772772,69.4771059273925,0.0012244894286245,113.70135546467333,1093.1538142351328,15.288,0.0,3.0922314824326262,0.1243473632358677,3.0168040150476685e-07,-0.0325141330448614,1.4993337731806584e-05,0.0036411984913306,7.412548484764788,14.086982931311033,42.30180232242787,42.80116045395648
1.2,31.22214644490463,131.0104911227478,27.72627426507168,7.367553509330358,0.0016747264642954,4.7990168273916245,0.0020988717339192,-0.0704878352141484,117.1843741360236,42.60368918105988,16.84236687712171,69.45826488136589,0.0012466509319134,113.70137978533116,1108.785726741692,15.288,0.0,3.0992732648180694,0.1252360704500385,3.120484928633399e-07,-0.0333444537629056,1.5199365679545904e-05,0.003760721079711,7.367553698622042,13.993510759957523,42.60395224647769,4.799534920152546
1.21,31.222145844639297,131.01049274833423,28.10373298824493,7.323908416302477,0.0016909863149818,34.45335060211236,0.0020974968974434,-0.1294764456059308,359.92343213200894,42.89727128231591,16.9566892058015,69.43894515897965,0.0012690675809812,113.70140437920386,1124.0789076943854,15.288,0.0,3.106272921422395,0.1260996096227691,3.226586112095368e-07,-0.0341860923256708,1.5411425925395632e-05,0.0038820729354481,7.323908610450424,13.90362847242622,42.8975369018251,34.45359395275819
1.22,31.222145240520085,131.01049438435953,28.483715955882143,7.301702667363731,0.0017120437033123,25.069080768880127,0.002089740932322,-0.1780683865201886,283.0687504825761,43.06331140151851,17.025790492340008,69.41913920444782,0.0012917466772668,113.70142925531624,1132.756220460493,15.288,0.0,3.1132339784775818,0.1265882393485311,3.3351055097197773e-07,-0.0350420744892111,1.5630318894701306e-05,0.0039945323242702,7.301702866989014,13.854478221813766,43.06358032871452,25.06971326748534
