Time,Latitude,Longitude,Altitude,Angle of Attack,Angle of Sideslip,X-Acceleration,Y-Acceleration,Z-Acceleration,Thrust,True Velocity,Ground Velocity,Pitch,Roll,Yaw,Dynamic Pressure,cp,cg,parachute_deploy_gain,Wind Speed,Wind Direction,Mach,omega_x,omega_y,omega_z,Cmq,Angle of Attack(total),Angle of Attack(gust),True Velocity(gust),Acceleration
0.0,31.222216000000007,131.010392,3.000000004412624,0.0,0.0,0.0,0.0,0.0,2.2828121974499247,0.0,0.0,69.99999999623412,0.0,119.9999999935444,0.0,1.274,1.0271675151847728,0.0,0.0,0.0,0.0,0.0,0.0,0.0,-0.0,0.0,90.0,0.0,0.0
0.01,31.22221599999084,131.01039200000497,3.000002745347096,0.0,0.0,0.0,0.0,0.0,34.242186961749226,3.465174813755316e-14,2.8705476994166025e-14,69.9999999962611,-2.1713911667908447e-11,119.99999999352175,7.352495975525499e-28,1.274,1.0271659134330349,0.0,0.0,0.0,1.0183245502395064e-16,-3.3305335486039093e-18,7.169286865560398e-18,5.624298769768554e-18,-7.715917190115602e-34,0.0,89.99999999999979,3.465174813755316e-14,0.0
0.02,31.222215999994315,131.0103920000094,3.0000030495639742,0.0,0.0,0.0,0.0,0.0,25.871876237766216,3.8197434737535036e-11,2.4171837235633357e-11,69.99999999628672,-1.1921727947863515e-11,119.99999999353136,8.93414285188691e-22,1.274,1.027164492361118,0.0,0.0,0.0,1.1225230367947217e-13,-6.657678965418802e-18,1.4338573731120796e-17,1.1241821275959074e-17,-1.7010872994127372e-30,0.0,89.99999999975682,3.8197434737535036e-11,0.0
0.03,31.222215999994315,131.0103920000094,3.0000030495639742,0.0,0.0,9.81877837424427,-2.5122800045972096e-05,3.3498614629347925,180.34219359854663,1.2659015405517447e-10,1.1364406173918436e-10,69.99999999631459,-1.6431898037347223e-11,119.99999999352724,9.812605835254651e-21,1.274,1.0271551940870716,0.0,0.0,0.0,3.720154642239108e-13,-9.991600645811728e-18,2.150108433310316e-17,1.6859343782149594e-17,-8.453698244545225e-30,0.0,89.99999999919412,1.2659015405517447e-10,10.374487003414373
0.04,31.222215999994315,131.0103920000094,3.0000030495639742,18.83801224594347,-0.0001111777826462,48.68248476615645,-1.016330065874988e-05,3.3497854396877287,548.635972453808,0.1556173050466994,0.0975908358443652,69.99999999633813,-2.0932768807056278e-11,119.99999999352085,0.0148286043323172,1.274,1.027133720825283,0.0,0.0,0.0,0.0004573186944143,-1.3322134194415637e-17,-1.04744143520903e-11,1.336824254131964e-11,5.0626055458604615e-15,18.83801224625964,89.06236267790787,0.1555998412814392,48.79759610369246
0.05,31.22221599164764,131.01039201704114,3.002326315126219,5.772385609593056,-4.395076213712875e-06,71.20344550265034,4.905512691849684e-05,3.349217396035405,761.6984298824663,0.8326471944351852,0.3620326097059287,70.00000001316391,-1.0866255162484559e-10,120.00000000231074,0.4245281043148827,1.274,1.027093426565204,0.0,0.0,0.0,0.0024469331205246,-5.0245994431125096e-18,-7.32924164976824e-07,2.217344936947165e-11,1.895424184525467e-09,5.772385609594774,84.74112356985832,0.8326465040582279,71.28217104309611
0.06,31.22221596664444,131.01039206837547,3.015081730143309,4.056581213689704,3.169093567502233e-05,53.16249142470188,0.0001203825427859,3.3481235983850643,590.4875390737236,1.657216205300742,0.6755452977614796,69.99999964391398,-3.9285905645317736e-10,120.0000000287861,1.6816755551786196,1.274,1.027050317124926,0.0,0.0,0.0,0.0048701272653724,3.095757869075056e-13,-7.483541766772344e-06,3.074135420506017e-11,3.8518749565858254e-08,4.056581213813337,79.59316473687034,1.657221183301277,53.26781792157489
0.07,31.22221592883117,131.0103921460222,3.034593611434361,4.115662018628709,6.450869598349036e-05,81.18203554989698,0.0001593212642178,3.347059402768047,855.2937749779172,2.099899704220947,0.8579771146174259,69.99999543281565,-8.233801910783518e-10,120.00000006883089,2.700101932075157,1.274,1.027003201295312,0.0,0.0,0.0,0.006171060252819,3.4704292086287e-12,-2.6327204536316785e-05,1.9541142932033486e-10,1.7170712165327165e-07,4.115662019133419,76.90111966094352,2.099909837223217,81.2510043180746
0.08,31.22221588914193,131.01039222747755,3.0542761843835606,3.459696193892355,8.037433511260004e-05,16.298214211652088,0.0002413456836072,3.344878926597744,241.2171988638792,3.051964775152957,1.2149999716613011,69.99998042886442,-1.0128995578004475e-09,120.00000011111383,5.703497661025892,1.274,1.0269597189470347,0.0,0.0,0.0,0.0089689344021769,1.458982438104473e-11,-5.702803872814215e-05,7.043261397829576e-10,5.405702492731987e-07,3.459696194824858,71.30331929508368,3.051977400323993,16.63790856991177
0.09,31.2222158241468,131.01039236098703,3.0886872184095737,4.313676956300389,0.0001337561018991,50.35975918308536,0.0002293282821279,3.344215841840564,563.0937377043203,2.893161298572128,1.191209213966114,69.99994788602814,-7.098432023887522e-10,120.00000018106356,5.125380275808925,1.274,1.026918932011013,0.0,0.0,0.0,0.0085022553945842,3.8672912027154325e-11,-0.0001115933708951,2.016054215232918e-09,1.0027525988343615e-06,4.313676958370176,72.2316578138625,2.893182308931483,50.47067588835877
0.1,31.2222157788302,131.01039245392113,3.109877853389092,4.035124630954496,0.0001457499816535,47.804664812504015,0.0002878217657545,3.341734392237128,538.7437595981891,3.5677148583138303,1.4531247507621967,69.99988403958329,1.9248461973355822e-09,120.0000002323013,7.7939962029572305,1.274,1.0268846934974103,0.0,0.0,0.0,0.0104845969583028,8.579678749070606e-11,-0.0001726817043215,3.984565639703107e-09,1.913455350430327e-06,4.0351246335824245,68.43243098813296,3.567737752667411,47.92132267234452
0.11,31.222215703308,131.01039260899836,3.148841432727305,4.043401107254707,0.0001752764476999,37.67622367577205,0.0003286462930162,3.3392563999062723,442.86563930529127,4.034183355956686,1.6436552022667772,69.99978525353545,7.302513231814865e-09,120.00000031883242,9.96528118825134,1.274,1.026848594915519,0.0,0.0,0.0,0.0118554331868328,1.5870341853361987e-10,-0.0002596204409236,7.232030302688121e-09,3.252930323390323e-06,4.04340111104746,65.92012987243639,4.034210888316708,37.82391391539392
0.12,31.222215627491828,131.01039276462643,3.186995101203875,4.17874459224363,0.0002066711490009,41.15991989399172,0.0003576945202315,3.336766085769504,475.58594813540793,4.361857560629481,1.7865750500940407,69.99963665601238,1.781774420198147e-08,120.00000041104812,11.649831899889556,1.274,1.0268114448194128,0.0,0.0,0.0,0.0128183893919737,2.682972478760441e-10,-0.0003710216542429,1.2215991071490164e-08,5.026311388647148e-06,4.178744597345269,64.21681651392016,4.361890024457652,41.29495143136631
0.13,31.22221554594398,131.01039293200228,3.2277173449026786,4.202734874672792,0.0002327160860324,45.44886120763352,0.0003953741266062,3.333578629398489,515.9156326236897,4.792165672014363,1.9646716520715424,69.99942424225341,3.613383418913551e-08,120.00000051758742,14.061726603124043,1.274,1.026779572895131,0.0,0.0,0.0,0.0140829618979635,4.248908088871395e-10,-0.0005056103199642,1.908859219307828e-08,7.5253154423526356e-06,4.202734881104192,62.048594618540655,4.792202226971676,45.570952718869485
0.14,31.222215454191247,131.01039312033683,3.2737880595608355,4.184830647080848,0.000257138757548,42.32232525579263,0.0004369426767266,3.329727443445437,486.2390860568421,5.269261304374574,2.158791628597544,69.99913473613935,6.515851355725497e-08,120.00000064630268,17.000925061330125,1.274,1.0267449573927567,0.0,0.0,0.0,0.0154850332441425,6.382432869666793e-10,-0.0006690086306358,2.8426433029675884e-08,1.0948547100483978e-05,4.184830654966803,59.74181173116622,5.269301695636157,42.45310707234106
0.15,31.222215353826755,131.0103933263496,3.3242182719560263,4.21963947489699,0.0002846467688673,40.886944113003565,0.0004726792395108,3.325585650885676,472.5421858721398,5.6781946837482895,2.329510773545807,69.99875162806286,1.0876776246115984e-07,120.00000079954532,19.742017654108928,1.274,1.0267115958081523,0.0,0.0,0.0,0.0166867950518804,9.204756288136623e-10,-0.000865746478554,4.08948221429571e-08,1.526771148078443e-05,4.219639484480408,57.84996018384879,5.678239395958187,41.02196629910223
0.16,31.222215247130432,131.01039354534575,3.3775922280208457,4.253495568077899,0.0003118339050386,32.26872905470846,0.0005078415214353,3.32090791922544,391.1218908297597,6.081244877834229,2.4981889727471702,69.99825581174558,1.7187028096464329e-07,120.0000009800088,22.644030778355887,1.274,1.026675762255412,0.0,0.0,0.0,0.0178712695992133,1.2856146928958252e-09,-0.0010961187242953,5.6923362293832417e-08,2.0702404729358337e-05,4.253495579487569,56.06022383757386,6.081293860589489,32.43916312841722
0.17,31.22221513260033,131.01039378041813,3.4348437275053194,4.364838523348639,0.0003448792023946,40.840448242802736,0.0005326487904353,3.3162727284953744,471.78125980632416,6.362544479165355,2.6250789114832647,69.99762801982864,2.5997588617291615e-07,120.00000119506798,24.78723182122683,1.274,1.0266409836796937,0.0,0.0,0.0,0.0186979513961862,1.747791994374917e-09,-0.0013624931601664,7.706724512977917e-08,2.6923621797558364e-05,4.364838536947241,54.85936171416122,6.362598652663785,40.97486885600156
0.18,31.222215014088988,131.01039402363364,3.4935801365785646,4.353948305387995,0.0003681615230806,33.992183768165326,0.0005718025428208,3.310131992647221,407.1015672119096,6.81502088160835,2.810667639293692,69.99684761766231,3.794979223522764e-07,120.00000144728236,28.437950785509614,1.274,1.0266048342046536,0.0,0.0,0.0,0.020027681385988,2.3221419748804155e-09,-0.0016616990447559,1.0147209890543081e-07,3.517105786247627e-05,4.353948320923495,52.99157233768714,6.815078712285162,34.152972512863755
0.19,31.22221488419521,131.01039429023237,3.558399965607869,4.432620772533925,0.0003996774584738,38.45149959021069,0.0005986099513107,3.304145139297767,448.95313283182486,7.1223367465208405,2.946425726785696,69.99589577323147,5.440084577183829e-07,120.00000176148238,31.060341085698347,1.274,1.026566130444714,0.0,0.0,0.0,0.0209308229359413,3.022391489754689e-09,-0.0020041563310821,1.3135864879722746e-07,4.433199397898183e-05,4.432620790516937,51.77883352025967,7.122399527709208,38.59320142454953
0.2,31.222214751373183,131.01039456280608,3.624052454705669,4.443889400961181,0.0004246617145652,35.23432408779927,0.0006337972852267,3.2968110145188256,418.5156301991588,7.530482904611057,3.1167566004785483,69.99474776398331,7.478025600151903e-07,120.00000211715036,34.72195181863731,1.274,1.026529240027363,0.0,0.0,0.0,0.0221302820454282,3.866698391504749e-09,-0.0023849544920781,1.668144671071589e-07,5.57780533277244e-05,4.443889421210987,50.22448880200342,7.530549610317194,35.38822625098952
0.21,31.222214608673173,131.01039485566503,3.6948551453492566,4.493351735844891,0.0004538195602194,33.79371564104691,0.0006629296043866,3.2891790438445727,404.8187610144608,7.868284042829251,3.2629204975089228,69.99338155599101,1.0150082652278477e-06,120.00000255293388,37.906665490338085,1.274,1.0264923657015164,0.0,0.0,0.0,0.0231230169900677,4.871073773182836e-09,-0.0028117605859743,2.089322918608601e-07,6.870935089180403e-05,4.493351758715364,48.992529909481824,7.868355328639073,33.95340801819282
0.22,31.22221446109996,131.01039515850383,3.767700382407304,4.5412639153933885,0.000482649303782,41.008966751568416,0.0006914639179131,3.2808061382386606,472.5421858721387,8.20057841132235,3.4071691679735228,69.9917708347139,1.3454961520984431e-06,120.00000305929996,41.175744234065135,1.274,1.0264494137127138,0.0,0.0,0.0,0.0240995709751246,6.054779813287368e-09,-0.0032829112061357,2.580881224843564e-07,8.3609968899004e-05,4.54126394098788,47.82515604752711,8.2006542256977,41.13999323561041
0.23,31.22221430675399,131.0103954752338,3.843768625625224,4.52371495179584,0.0005047555656171,33.98493478127787,0.0007294889663961,3.2705214710765107,406.340642146096,8.647938096586296,3.5908865300848416,69.98989017772566,1.7539876018835507e-06,120.00000365514876,45.79040229326471,1.274,1.0264133390858623,0.0,0.0,0.0,0.0254142776666487,7.436335125872812e-09,-0.0038001790077148,3.1489825108822685e-07,0.0001020628978177,4.523714979897577,46.31461705147579,8.648017383405135,34.14194053232237
0.24,31.222214142622448,131.0103958120587,3.92493179063287,4.57837522350066,0.0005351929930195,35.051650311058864,0.0007555049947555,3.26053011385611,416.2328240017099,8.954297884844461,3.72617527247482,69.98771316795013,2.25257161141768e-06,120.0000043564586,49.09180568115741,1.274,1.0263750048312463,0.0,0.0,0.0,0.0263146218848643,9.034877387788232e-09,-0.0043732521010013,3.809642748985157e-07,0.00012161410144,4.578375254714954,45.32798984252032,8.954381952763216,35.20297212911011
0.25,31.22221397517227,131.0103961556623,4.0071748888306855,4.6034117733065,0.0005618935542827,36.03738579534623,0.000785606492708,3.249069743648399,425.3640807915084,9.311611941121669,3.8789349536029696,69.98520781816889,2.8559738498748624e-06,120.00000517181904,53.08749562138344,1.274,1.0263373768840591,0.0,0.0,0.0,0.0273647110956883,1.0873791100894836e-08,-0.0049950711786164,4.5609738277273444e-07,0.0001444478241125,4.603411807525074,44.2165428352526,9.311700203154778,36.183554686886296
0.26,31.22221379934012,131.01039651647062,4.09364247475714,4.621386912291471,0.0005881033207375,39.29107511182762,0.0008162761165496,3.236407051295005,455.80158342417656,9.67833954512075,4.034902068846398,69.98234620927953,3.5784678110229355e-06,120.00000612171208,57.350948423913096,1.274,1.0263006300381676,0.0,0.0,0.0,0.0284424679130479,1.2973286442992724e-08,-0.0056712051373577,5.414206381221602e-07,0.0001704578711045,4.621386949630312,43.12063533194282,9.678431924174348,39.42414126789902
0.27,31.222213616776543,131.01039689108487,4.183310605341074,4.617158109135719,0.0006115457810536,35.90419462403674,0.0008503454714941,3.221982799915672,423.8421996598744,10.088790784535757,4.205862468567124,69.97909721779352,4.436165972465058e-06,120.000007221354,62.31798301949865,1.274,1.026260090595354,0.0,0.0,0.0,0.0296487219805601,1.5355910600537293e-08,-0.0064045199323113,6.379142666348734e-07,0.0002006609239367,4.617158149547818,41.94410287616451,10.08888684592241,36.048472443180565
0.28,31.22221342607797,131.0103972823952,4.277051150896916,4.642105655370123,0.0006389739579882,41.51133203546672,0.0008785747638736,3.2071101123224945,476.3468732012228,10.432377224420517,4.35383399240675,69.97542808435722,5.446665372087172e-06,120.00000849080963,66.63429581008447,1.274,1.0262212716723291,0.0,0.0,0.0,0.0306584788590473,1.8045308789081613e-08,-0.0072006835403936,7.469524967369969e-07,0.0002332868227611,4.642105699250441,41.0023231023774,10.432477594215127,41.63503624837164
0.29,31.22221323001776,131.01039768469093,4.373143569786686,4.62134615173668,0.0006600657405645,33.17552944492765,0.0009148746278066,3.1894209319791806,397.9703104221098,10.876662296046485,4.536381530986506,69.9713027936179,6.629751536885327e-06,120.00000994797426,72.43000748232016,1.274,1.026183007522519,0.0,0.0,0.0,0.0319641703260467,2.1067646517035105e-08,-0.0080566154554079,8.688043379161898e-07,0.000272130659453,4.621346198772975,39.83162628795024,10.876765978930557,33.32848872465723
0.3,31.22221302403368,131.01039810736614,4.4744193758467325,4.664362353358112,0.0006905183788532,31.08096762732793,0.0009381960428197,3.172549142946348,378.1859457108735,11.168362145070317,4.66647911311536,69.96668711012893,8.005507138509574e-06,120.00001161892672,76.36634300732833,1.274,1.0261430389738484,0.0,0.0,0.0,0.0328214509167604,2.4447409007156216e-08,-0.0089829108229115,1.0056222251461646e-06,0.0003115527202986,4.664362404357781,39.09908960432563,11.168470611443622,31.242464973103964
0.31,31.22221281503337,131.01039853619727,4.576593712520673,4.700143580504286,0.0007196683316923,32.79732593144512,0.0009620705970519,3.154230688182399,394.1656220930229,11.470279728974068,4.800072153432283,69.96154070456518,9.597499105113692e-06,120.00001352112182,80.55022837857167,1.274,1.0261054058068628,0.0,0.0,0.0,0.0337087616009043,2.8214060606649844e-08,-0.0099686353219717,1.1565909895184251e-06,0.0003550834484269,4.700143635477137,38.36463422765983,11.47039277421126,32.94865339301887
0.32,31.222212598991007,131.01039897947376,4.68216432480395,4.718667719113184,0.0007464384342556,35.7316568886908,0.0009885845337584,3.133859770838664,421.5593934624264,11.808280530415894,4.946054328851105,69.95582953472353,1.14278227255889e-05,120.00001568218067,85.36654007972253,1.274,1.026068246703101,0.0,0.0,0.0,0.0347021168382987,3.2392058795580455e-08,-0.0110163301561155,1.3226102501723267e-06,0.0004039614423012,4.718667778018562,37.5686120062341,11.808397780690962,35.8688218659563
0.33,31.222212376029034,131.0103994369436,4.791055524254013,4.72141404831576,0.0007708346814671,35.42013590291081,0.0010176135371143,3.1111955852784385,418.5156301991632,12.181577273013426,5.104163223586657,69.94951809396906,1.351997394754887e-05,120.00001812674968,90.84831229869296,1.274,1.0260310883392356,0.0,0.0,0.0,0.0357992034445943,3.700677535501642e-08,-0.0121310534481307,1.5051409581878843e-06,0.0004588955105349,4.721414111097893,36.7208578211118,12.181698355442045,35.55651229220977
0.34,31.222212145785647,131.0103999093516,4.903491659547144,4.73024573449122,0.0007962944975467,27.63851074646407,0.0010446307681611,3.0871492806781062,345.4656368807584,12.53557620048282,5.2556261014174765,69.94256797855994,1.5899658158227497e-05,120.000020882338,96.20413272674828,1.274,1.0259901535019136,0.0,0.0,0.0,0.0368395817555172,4.208561016221623e-08,-0.0133180771902383,1.7057647550599631e-06,0.0005184333231541,4.730245801363397,35.94841996438923,12.535701282129995,27.810389570354005
0.35,31.222211909310875,131.01040039453565,5.018822212845608,4.780248518778662,0.0008286678570753,30.332092807652543,0.0010618579815451,3.063967690608957,370.5765700527057,12.774786382148209,5.367579971644358,69.93493776125636,1.8594985713558667e-05,120.00002397748868,99.9096898192772,1.274,1.025950003202184,0.0,0.0,0.0,0.0375426220587071,4.7658312175989686e-08,-0.0145774693288123,1.9252724355785177e-06,0.0005782798420984,4.780248590437683,35.44790728185619,12.774916548990808,30.486451961956565
0.36,31.22221166933814,131.0104008868675,5.135354490370708,4.798132156899578,0.0008554457330409,34.32674769697476,0.0010851169437774,3.0374319611165923,407.8625232777224,13.09301701329486,5.506730645516068,69.92658597246795,2.163521613217148e-05,120.0000274401514,104.94818266210537,1.274,1.0259105142325406,0.0,0.0,0.0,0.0384778908056978,5.3755109608570216e-08,-0.0158991451700967,2.162609490834569e-06,0.0006464142451675,4.798132232978766,34.796094028187134,13.09315138639638,34.46087058603792
0.37,31.222211421355144,131.01040139563804,5.255882891363927,4.797392186816851,0.0008791822061288,32.551601855236584,0.00111162791192,3.0078619428913056,391.1218908297639,13.457513730739372,5.661815946371007,69.91747693543164,2.5047738471809164e-05,120.0000313040604,110.87154396328836,1.274,1.025872170958032,0.0,0.0,0.0,0.0395491312153729,6.040098808671168e-08,-0.0172926678053148,2.420031948898497e-06,0.0007226353721561,4.797392267189059,34.07332166419882,13.457651832357364,32.69027405888565
0.38,31.22221116634284,131.01040191882743,5.379799334000849,4.811698494594017,0.0009057112478668,34.02947987649063,0.0011338447913587,2.9774881690446744,404.81876101445977,13.77554886562956,5.800899861213392,69.90756948297444,2.886339581486796e-05,120.00003560072224,116.17243393848278,1.274,1.02583050512925,0.0,0.0,0.0,0.0404838339452728,6.762496638941508e-08,-0.0187646375218858,2.69955777313946e-06,0.0008026686661094,4.8116985796350695,33.46655348088405,13.775691134419684,34.15949264475229
0.39,31.222210906095896,131.01040245274032,5.505993307722699,4.813508003664984,0.000929862892873,29.00025983045028,0.0011579891265804,2.9442136901860865,357.6406249338268,14.124492165837273,5.950648592462506,69.8968186645841,3.311602501056718e-05,120.00004036395212,122.13093644173792,1.274,1.02579027384009,0.0,0.0,0.0,0.0415093739609825,7.545934774906889e-08,-0.020311592409804,3.0013532510753577e-06,0.0008908380763632,4.813508093268025,32.821616487639595,14.124638228358922,29.149330452482886
0.4,31.222210638473225,131.0104030017851,5.635788650457906,4.841647069358873,0.0009592124397379,27.71178845184976,0.0011749448424961,2.91135549588368,345.4656368807565,14.390874239274588,6.07193451174791,69.8851815212744,3.783947407715338e-05,120.00004563180136,126.77947425345651,1.274,1.0257493418632293,0.0,0.0,0.0,0.0422922854866381,8.39343718693383e-08,-0.021938519432511,3.3271332720311508e-06,0.0009803271643914,4.841647164150728,32.348088166612904,14.391024912012275,27.864299944624147
0.41,31.22221036681104,131.01040355909262,5.767123077463226,4.86553909860892,0.0009876699832274,31.306062598221665,0.0011918093836199,2.876450850006428,378.9468707766882,14.663028799871563,6.195223154320929,69.87261222561014,4.307011032901644e-05,120.0000514391194,131.6183642808765,1.274,1.025708445186429,0.0,0.0,0.0,0.0430921644173401,9.308325447883581e-08,-0.0236371933433427,3.6760977501392174e-06,0.0010761942383903,4.865539198612839,31.87689439156756,14.663183942709727,31.437931330109585
0.42,31.22221008906472,131.01040412887247,5.901259531771367,4.867510642114694,0.0010118258958528,35.308283402190774,0.0012128114559048,2.8374461227958245,416.23282400171047,14.9952917972178,6.33928625560071,69.85906967380902,4.884273094936628e-05,120.00005782486392,137.64909586091787,1.274,1.0256701057426505,0.0,0.0,0.0,0.0440686959134695,1.0293499639582845e-07,-0.0254093547296826,4.049238334851429e-06,0.0011830797791891,4.867510747027452,31.315270489291198,14.995450734457847,35.422111438762386
0.43,31.222209804115888,131.01040471342728,6.038886819939341,4.854590670645608,0.0010330089741511,31.00586934514032,0.0012363751872706,2.794478603999558,375.90313951343126,15.369430568701889,6.497852263156962,69.8445117629242,5.519340856908871e-05,120.00006482835984,144.60167924299955,1.274,1.0256308158337524,0.0,0.0,0.0,0.0451682983415116,1.135186446762958e-07,-0.0272634397889413,4.449073329427772e-06,0.0013010625065656,4.854590780289497,30.70250814963406,15.369592833372094,31.13154422839874
0.44,31.22220951192321,131.01040531284193,6.180028459770617,4.866912332640401,0.0010595850174406,28.57707721036899,0.0012525768202179,2.752165534925872,353.07501253892326,15.659290812546615,6.627318538707029,69.82889155423543,6.216182865383864e-05,120.00007249162944,150.1053167542629,1.274,1.025586171750536,0.0,0.0,0.0,0.0460202245100907,1.2486676023179565e-07,-0.0292060158163984,4.8779154055816594e-06,0.001420032405556,4.866912447705031,30.24619499837236,15.659457251771938,28.709297424144207
0.45,31.222209215425703,131.01040592106523,6.322872201489905,4.881836476567178,0.0010866574689855,33.31904824532484,0.0012669045761511,2.7082028218433374,397.2093853562887,15.934249290371609,6.751662050993672,69.81215834018458,6.97909417564726e-05,120.00008085697964,155.42080512416243,1.274,1.0255397023523487,0.0,0.0,0.0,0.0468283602442113,1.3701614206272197e-07,-0.0312276295846745,5.334643585560923e-06,0.0015449645531859,4.8818365972149325,29.82567893138932,15.934419982127675,33.428929688274074
0.46,31.22220891307435,131.0104065412864,6.468371919199588,4.869610441729251,0.0011078049156487,38.95909776354321,0.0012868374716666,2.6582856015412624,449.7140588976424,16.292139278621757,6.904766425053949,69.79426683863348,7.812149592850748e-05,120.00008996920153,162.4785746623087,1.274,1.02549635315424,0.0,0.0,0.0,0.0478802236363867,1.499987870203256e-07,-0.0333272350234362,5.819761874615242e-06,0.0016858511402973,4.869610567434908,29.29014635640275,16.292313292210977,39.04968351401366
0.47,31.22220860266524,131.01040717804253,6.6178810515614845,4.838450928223533,0.0011247917292402,26.253747818137555,0.0013104398935566,2.6026193242279367,331.0078106302504,16.710658191447514,7.078951441335346,69.77517236812905,8.719457259907165e-05,120.0000998741591,170.9309671061642,1.274,1.025453319323251,0.0,0.0,0.0,0.0491102725711187,1.6384464803343264e-07,-0.0355167087264168,6.3368207228363735e-06,0.0018427306558807,4.838451058652396,28.68386015667837,16.710834873319172,26.382435512333956
0.48,31.222208284201663,131.0104078313267,6.771393590864176,4.869339340099417,0.0011561785713505,25.860860976019296,0.0013165328518772,2.5543454292827983,327.20312230115803,16.911139899671,7.177575416403102,69.75482343794755,9.70562828082882e-05,120.00011062072316,175.0543877818846,1.274,1.0254092882449153,0.0,0.0,0.0,0.0496995461609974,1.7858865391586845e-07,-0.0378054080201581,6.88909442277235e-06,0.0019849793891693,4.869339477030596,28.40887970825325,16.911321511776286,25.986704537635287
0.49,31.22220796480208,131.01040848648364,6.924537656029012,4.881367714530694,0.0011829003785372,32.565703383222065,0.0013261973190012,2.5011623511055703,389.6000096981238,17.169005224738054,7.296160258358563,69.73316318155707,0.0001077573203115,120.000122255028,180.4309832312717,1.274,1.025367445590036,0.0,0.0,0.0,0.05045746454003,1.942747077649401e-07,-0.0401641298712614,7.47069711110948e-06,0.002140948887153,4.881367857509675,28.058569663954906,17.169191034294997,32.66161128464712
0.5,31.222207637929923,131.01040915697027,7.081324512896956,4.862566137860805,0.001202418260511,33.47759680712428,0.0013425340759632,2.4399894027711366,397.970310422106,17.52898693231981,7.450304424940405,69.71015149227495,0.0001193385310595,120.0001348274002,188.0736471953394,1.274,1.0253278572281015,0.0,0.0,0.0,0.0515154948878309,2.109295159784217e-07,-0.0426011733481599,8.084173008518589e-06,0.0023184335011768,4.862566286171007,27.57768313050809,17.529175807738486,33.56639745442473
0.51,31.22220730314019,131.01040984370235,7.24202048914867,4.8479762258125,0.001223054804074,25.49162310288008,0.0013562860883156,2.3767006597692686,323.39843497208153,17.86914397471067,7.597652147346554,69.68574349602717,0.0001318441288964,120.00014838524436,195.4407439266201,1.274,1.025286455263166,0.0,0.0,0.0,0.0525152689856776,2.2858192086249162e-07,-0.0451315948093539,8.734206149830708e-06,0.002503767471626,4.847976379721193,27.13799345359824,17.86933609171003,25.602178740977283
0.52,31.222206962738102,131.01041054193402,7.405210501673173,4.865306299521403,0.0012516517170965,30.733671928447727,0.0013599291289974,2.317711624364424,372.098451184342,18.08534843773428,7.701914987606457,69.65988568649581,0.0001453248538387,120.00016298000436,200.19561780583155,1.274,1.0252426840672306,0.0,0.0,0.0,0.0531507657929359,2.4726951523704535e-07,-0.0477531686556663,9.421346966092632e-06,0.0026812161964639,4.865306460134566,26.8699055233151,18.085545046726228,30.820940596104087
0.53,31.222206619320115,131.01041124632013,7.569307468221277,4.848802699234936,0.0012715119568563,32.301199055744725,0.0013711327835325,2.2490252325653923,386.55624643486095,18.41963113311156,7.8474319110539055,69.6325258319474,0.0001598315062727,120.0001786629144,207.6614205945027,1.274,1.0251993415311351,0.0,0.0,0.0,0.0541332845214831,2.67031759303889e-07,-0.0504479325599339,1.0141887756417996e-05,0.0028848299490111,4.848802865552398,26.45837260670532,18.419830861742675,32.37940050117613
0.54,31.22220626697288,131.01041196903336,7.737918664599091,4.831496690588052,0.0012913635058467,28.31291960103712,0.0013809098107221,2.177242866245296,349.2703242098436,18.75116898748492,7.992112829440902,69.60362200959217,0.0001754082864028,120.00019548734956,215.20067397992847,1.274,1.0251561018460285,0.0,0.0,0.0,0.0551077428911958,2.878941684235108e-07,-0.0532336286085667,1.090122304443916e-05,0.003098869611663,4.831496862756785,26.061835558272342,18.751371834390056,28.396510432451375
0.55,31.222205908994248,131.01041270328463,7.909026079894722,18.22227304405061,23.92206346522504,31.14972295702412,-1.799328987810296,1.1733806144452297,365.2500005919912,24.089588654520423,8.113323699629928,69.57312211246325,0.0001921068626005,120.00021350480982,355.171872308874,1.274,1.025112921033824,0.0,11.278816046756331,0.0,0.0707969418468491,3.0989272306468813e-07,-0.0561100530405476,1.1700476995263424e-05,0.0041961578129615,29.74335228186028,46.321371547591774,27.739031214257945,31.223703290482472
0.56,31.222205546564343,131.01041344664463,8.081909946161325,4.769139019203497,30.28194600109171,29.05478921650357,-2.2836113899939594,1.8162263054747447,346.22656194657776,22.39619373559593,8.243352958320413,69.54097415464405,0.0002099796112633,120.00023276987916,306.9877304434092,1.274,1.0250709539098009,0.0,11.31996503450294,30.000012855656493,0.0658203483908332,3.328942889008732e-07,-0.0703538438275002,0.021798850319368,0.0048914383735572,30.619956239678917,49.63263248243047,26.93449360770901,29.200930385668546
0.57,31.222205181621927,131.01041420618407,8.258620404968442,4.766711631573162,29.95896706923368,28.74483624180492,-2.7573883951112945,1.7372242376838096,343.1828296833045,22.65012797072201,8.37508003068057,69.50066143418694,0.0336209205219168,120.03589793637576,313.98329150965924,1.274,1.0250279191823897,0.0,11.360792541650731,30.0000128556565,0.0665667703925418,3.736967723918504e-07,-0.0733343301379507,0.0443530702125701,0.0051563829130534,30.301004181797133,49.17021196606667,27.14454490442821,28.928994959757453
0.58,31.22220481093055,131.01041497753369,8.437096799803992,4.746629167079082,29.623573889400014,37.6780032710733,-3.248790251562637,1.6552693036825177,426.12500585731766,22.90952660402391,8.504693778878279,69.45861480405074,0.1013839603170684,120.10825215935976,321.21070107194083,1.274,1.024981594484354,0.0,11.401752964356744,30.00001285565649,0.0673292561381837,4.278298379404946e-07,-0.0764029061738778,0.0672417001874879,0.0054335756994117,29.967339342543905,48.69420724622081,27.358222747413468,37.85401544171202
0.59,31.22220443634778,131.0104157616026,8.618399862101857,4.6924409440758765,29.11849656567644,30.651745728369423,-3.781412491676466,1.5575718437317525,360.68438819710633,23.287246377607136,8.682092454593853,69.41473748223244,0.2037712322240635,120.2176071348558,331.8841334418085,1.274,1.0249386802161349,0.0,11.442401971301887,30.000012855656493,0.0684394841520241,4.954844161116965e-07,-0.0795516887776052,0.0904646540817476,0.0057506867223529,29.46143034080404,47.98915842835317,27.66680326059533,30.923367000978498
0.6,31.22220405339525,131.0104165668723,8.80465953980836,4.671255383320425,28.78949004340048,27.305985740403525,-4.310178436408208,1.4699215680889774,329.4859594986072,23.53530214444377,8.807077676470291,69.36891257663385,0.3410320145456661,120.36425187401144,338.9861879737816,1.274,1.024891335813742,0.0,11.482977183211847,30.0000128556565,0.069168646929159,5.768443801132871e-07,-0.0828028500253771,0.1141574744249351,0.0060493604650755,29.133940913574257,47.53216651024418,27.869638443617447,27.683120575995982
0.61,31.22220366941477,131.01041737833418,8.991519179316038,4.650922692897482,28.47111689827792,31.898728235801485,-4.851854978657116,1.3807409703498577,372.0984511843332,23.770997806178592,8.926993284457263,69.32098430243619,0.5135963067489018,120.54867039476224,345.8035747102255,1.274,1.0248423929069768,0.0,11.52393121940062,30.000012855656493,0.0698614876619382,6.721912085973188e-07,-0.0861312154974181,0.1381515891939369,0.0063554249708157,28.817085349943746,47.09491513383335,28.061438956358483,32.295135940612504
0.62,31.222203280820857,131.01041820324775,9.181110674023092,4.609177118692741,28.04711813304663,39.51768500387662,-5.429934898093534,1.2797728363835863,442.86563930529206,24.082240052272823,9.077381774898296,69.27078514353616,0.721609527443204,120.77104478125304,354.91185844250606,1.274,1.0247996097896497,0.0,11.564301407116997,30.000012855656493,0.0707763606893796,7.817022033931683e-07,-0.0895337444696561,0.1624227805193665,0.0066928690920316,28.392957025478264,46.51566250703553,28.31401764703493,39.909515651983234
0.63,31.222202885645554,131.01041904552216,9.374571421803308,4.546100859037496,27.519286532031884,22.63592277326253,-6.05424207177938,1.1651565511645423,286.11251274707456,24.47513452237944,9.260423565748706,69.21812257116524,0.9651508687245632,121.0314885234922,366.5800746425467,1.274,1.024756158874558,0.0,11.604536709909576,30.000012855656493,0.0719312126171465,9.055362041419896e-07,-0.0930241160441836,0.187049986573379,0.0070671005933365,27.86329682717742,45.79359698573763,28.6335590242756,23.46052933438481
0.64,31.22220248294204,131.01041990691732,9.572411070076708,4.542380458666841,27.300326296407736,22.219699851221247,-6.618927996832485,1.077966039493877,282.3078244179702,24.611670734055885,9.340612730212488,69.1627679395294,1.244385424451821,121.33020944377652,370.6744249113101,1.274,1.024708534665538,0.0,11.644888364294316,30.00001285565649,0.07233264724368,1.0438998651923638e-06,-0.0966170489156247,0.2121185710946119,0.0073808647602494,27.64696684460482,45.51540319117097,28.73956226999739,23.20963765524823
0.65,31.22220208306292,131.01042076683947,9.768603815528682,4.519403707064713,26.98705870041024,38.84841794657552,-7.215546984182215,0.9800753138488992,436.7781447787504,24.81805694233431,9.448774991129577,69.1044541007588,1.5595677943171575,121.6675140179602,376.910122672432,1.274,1.0246641738210605,0.0,11.685446157710883,30.000012855656493,0.0729393689168833,1.19708980812091e-06,-0.1002620185166024,0.2373066764083281,0.0077233981178185,27.334821638673183,45.10897423401521,28.902160084722585,39.52498251553779
0.66,31.222201676651213,131.01042164369267,9.968539639836992,4.443137423390177,26.4047522665556,33.087484053560004,-7.912042979378467,0.8497919182384108,383.5125151715984,25.248735746041813,9.646841137847783,69.04291848067292,1.91042929016698,122.04315184716114,390.0975154036981,1.274,1.0246195561629028,0.0,11.724982265244623,30.000012855656493,0.0742052856689477,1.365179352990448e-06,-0.103971202824388,0.2626857673083117,0.0081479540082108,26.749469101080155,44.32196695976358,29.25112097969337,34.0309296288894
0.67,31.2222012593065,131.01042254566437,10.174613686331211,4.399057396045995,25.99115519290672,22.890517501960502,-8.575182726867718,0.7347694561061492,289.15624401033847,25.529828738975176,9.784952554746562,68.97786343688801,2.296766168728002,122.45694511782936,398.8238477533535,1.274,1.024572383541697,0.0,11.7646003515956,30.000012855656493,0.0750315840739966,1.5482623381496265e-06,-0.1077865628413718,0.2885058448206136,0.0085408244279546,26.335249624661813,43.78267399016458,29.473920283406468,24.455049303985405
0.68,31.222200841360674,131.01042345272407,10.38096240155945,4.376292041416288,25.690808768769102,28.437530233425875,-9.206173977688048,0.6318545945076934,340.89999248584934,25.700943370128734,9.879051670121008,68.90893322907893,2.718695821527611,122.90906367535976,404.1800191988885,1.274,1.0245245285832842,0.0,11.804732100929336,30.000012855656493,0.075534661908484,1.746639205115948e-06,-0.1116773723351115,0.3145716092496644,0.0089082606513326,26.03589927637197,43.413972418338645,29.602574146545567,29.897257488155528
0.69,31.2222004212928,131.01042436783956,10.588458141346996,4.325408396723734,25.249788292073248,34.879310263846335,-9.90234842100671,0.5093718772410734,401.0140726853658,25.993353451363262,10.021635116895554,68.83576436830397,3.175990009779215,123.39931136568616,413.42114173071366,1.274,1.024479631064582,0.0,11.84424137892806,30.0000128556565,0.0763942292937572,1.960495362766893e-06,-0.1156205170281168,0.3407381738735395,0.0093275423661839,25.593619954035,42.84585621646696,29.83244203279127,36.26130511222665
0.7,31.22219999295461,131.01042530219766,10.800389301052489,4.259908203754259,24.737526473048,29.24551266237333,-10.647381727667964,0.3739681824691816,349.270324209851,26.349338074788623,10.18952959657624,68.75798366718061,3.668150492663127,123.92720689274654,424.8138218339943,1.274,1.0244351749185203,0.0,11.88334977345204,30.000012855656493,0.0774406500172052,2.189888286673985e-06,-0.1196373638251176,0.367128238783242,0.0097835781226998,25.078871380034897,42.17740068936504,30.11549626479799,31.125658237878532
0.71,31.22219955783331,131.01042625263503,11.015837147721353,4.213318447349093,24.325119547115712,24.01275049092973,-11.359129059893544,0.2501979947146718,301.3312640634036,26.601436340743646,10.315963484785163,68.67517566992403,4.194797405393411,124.4924005009956,432.9725944533023,1.274,1.0243880468141104,0.0,11.92264965949304,30.000012855656493,0.0781817563273094,2.4349590833158792e-06,-0.1237377080844612,0.393793536429925,0.0102154932721479,24.6654313877877,41.66246837887664,30.30866139914393,26.56510113241663
0.72,31.22219912043128,131.01042721092233,11.232385043030646,4.172889860647468,23.94675135879425,29.28392688822045,-12.058775362955078,0.1305193553118301,350.7922053414578,26.809153233850605,10.424731927757282,68.58689019795248,4.755556800796293,125.09455406741093,439.75156857359326,1.274,1.024337302174265,0.0,11.961892429183605,30.000012855656493,0.0787924298214566,2.695922965372001e-06,-0.1278989816924545,0.4205935218938166,0.0106412670041265,24.286490981367397,41.20513342942228,30.46214029449662,31.66985116085903
0.73,31.222198679134856,131.01042817984398,11.450858259787996,4.111948486546436,23.46666972568595,36.92702515775776,-12.823220901659305,-0.0069961022481706,422.3203185282354,27.114100973659767,10.572180134625755,68.49267029092894,5.349778751726649,125.73303879023368,449.80316811454514,1.274,1.024292465384646,0.0,12.000726660233722,30.000012855656493,0.079688871378651,2.97290161012104e-06,-0.132110100036492,0.4474571769192086,0.0111164284187055,23.80412179699998,40.60024883465815,30.698040712374905,39.09015515753133
0.74,31.222198229714067,131.01042916630263,11.673311998595828,4.03459080937039,22.906269674654133,23.026188652515216,-13.653395705264368,-0.1615170000915027,294.4828134710563,27.501834480563588,10.752436658954837,68.39204653376878,5.9766383463999855,126.4070435296528,462.7496963689218,1.274,1.0242470321640116,0.0,12.03930503176272,30.000012855656493,0.0808286305683651,3.2659332999369405e-06,-0.1363864845817959,0.4744694616797948,0.0116401283036311,23.240013082333174,39.87715321456513,31.004857229425237,26.770257112830848
0.75,31.222197771725217,131.01043017048937,11.89982415249404,3.994801769702745,22.53847985730992,26.78809696752049,-14.362070455937287,-0.2825078756345585,330.24688556441737,27.665116420712348,10.843587856188345,68.28451523512882,6.635354536502738,127.11581028942888,468.2506320334516,1.274,1.0241984712898409,0.0,12.077945912391838,30.000012855656493,0.0813087283605812,3.57510692599868e-06,-0.1407402199698814,0.5016948402134749,0.0120827572130567,22.87158715783961,39.45671131685605,31.114850833998855,30.396562595503834
0.76,31.222197315522727,131.01043117531887,12.125316951330994,3.9324450979655743,22.05923685446371,28.727350143216032,-15.150739436456048,-0.4251456534130818,349.2703242098581,27.946077251616405,10.981367178280236,68.16954064970129,7.325153137023672,127.8585950913382,477.7994816344981,1.274,1.0241522053390697,0.0,12.11663286399922,30.0000128556565,0.0821346908524016,3.90066484652039e-06,-0.1451255255487587,0.5288607318199645,0.0125855030117813,22.389776272349497,38.869506398518,31.326162145084957,32.48055265153188
0.77,31.22219684923818,131.01043219971095,12.355444603552565,3.866318155433994,21.56191676671719,26.705322563422687,-15.95785863725921,-0.572567738897723,331.76876669606884,28.23842290902735,11.123743908293756,68.04661425739434,8.044796354912748,128.63416146365927,487.8375685329568,1.274,1.0241065975906936,0.0,12.154564106262328,30.0000128556565,0.0829941224538324,4.24255795704055e-06,-0.1495606992352996,0.5560693102998319,0.0131055196127362,21.88954170125773,38.260499591524,31.545981135545443,31.115194669467
0.78,31.222196377481147,131.01043323580333,12.5878810412439,3.8038684410415295,21.085695232943948,21.70746166720172,-16.75054927546256,-0.7164106924079497,286.8734378128874,28.49604290636597,11.252291384797775,67.9151970543944,8.793109236759472,129.44134695538037,496.7681968167348,1.274,1.0240588105546735,0.0,12.192693446887864,30.000012855656493,0.0837515000015347,4.6008383165762015e-06,-0.1540437316707044,0.583301806574059,0.0136211950723531,21.41066499167784,37.69037253123133,31.73391774350815,27.428234309611106
0.79,31.222195900879896,131.01043428241996,12.822284980633922,3.748254190573193,20.645240486428687,30.933961590791483,-17.50669153085211,-0.8515979827209212,373.6203323159581,28.69548040050708,11.357803956163195,67.77474122986288,9.568809455808088,130.27888001164618,503.7347319848428,1.274,1.0240083170932772,0.0,12.23062725441747,30.00001285565649,0.0843378812409266,4.975568284595589e-06,-0.1585638717136363,0.6104924021405341,0.0141186961319304,20.96811453498898,37.18450403580717,31.868706223437744,35.55445748680672
0.8,31.222195420689925,131.01043533752048,13.058050662686767,3.6673378427080414,20.07938139309063,31.17185561670963,-18.38205282623288,-1.017321675881618,377.42502064505805,29.049738016797168,11.524660437485196,67.62470298484551,10.370446999348724,131.1453146092983,516.2374463366151,1.274,1.0239625010683884,0.0,12.268233196260212,30.000012855656493,0.085379294495082,5.366785322937806e-06,-0.163106195407672,0.637551420910397,0.0147021109108011,20.3979316577492,36.48177800371065,32.13963356395929,36.20247770647234
0.81,31.22219492844486,131.01043641272895,13.29873668714945,3.590446121126325,19.53522390523725,19.783487056704217,-19.239620897677447,-1.1789321058435576,273.9374926939922,29.36704444226409,11.676910424845277,67.46455260360108,11.196380365436337,132.0390038671296,527.5644300784218,1.274,1.0239149950770308,0.0,12.305498327702107,30.000012855656493,0.0863121155531513,5.774352269708296e-06,-0.1676935879568251,0.664602936741498,0.0152803631740236,19.849753082438003,35.81960059323501,32.37652120318513,27.6213550232301
0.82,31.22219443084909,131.01043749806095,13.54133134696536,3.533785341932666,19.09412041321404,25.511795290456327,-19.974826191867948,-1.31145436994866,328.725004432774,29.5255775556756,11.766248453967783,67.29373393768805,12.04506362544064,132.95841016183613,533.2633187905005,1.274,1.0238644186635044,0.0,12.34298116939814,30.000012855656493,0.0867782946914113,6.198309714674345e-06,-0.1723138429309399,0.6915723605475926,0.015785757652115,19.40637036066937,35.334574292069384,32.469665910816644,32.427847491036786
0.83,31.22219393246719,131.01043858740968,13.783959341525865,3.4562547484272605,18.550044345275914,32.54119214510951,-20.818810424554297,-1.47172657329788,395.6875032246518,29.821354957928463,11.909977230262207,67.11170725311096,12.91478749693432,133.90182480974804,543.9882671447436,1.274,1.0238188483711983,0.0,12.380206661023246,30.000012855656493,0.0876478506731901,6.63873646117502e-06,-0.1769337002834776,0.7182709876223325,0.0163709798652951,18.858139189064783,34.68408086749202,32.68455049765765,38.6589967902042
0.84,31.22219342195053,131.01043969527257,14.031119721676804,3.367435682122231,17.950832870311142,19.279916800472247,-21.730621648896616,-1.6492363819004987,275.45937482564227,30.19295725723891,12.083854753852563,66.91798231160273,13.803549924363692,134.8672262660423,557.6167165229904,1.274,1.0237739661568126,0.0,12.416895019553952,30.0000128556565,0.0887402732809356,7.095396361054935e-06,-0.1815714247808504,0.7447957747201672,0.0170090315809134,18.253724708658854,33.94519962693834,32.96676402693985,29.097338189669696
0.85,31.22219290138773,131.01044081808263,14.281761934826312,3.3044259724260767,17.481225224370966,20.92316280216199,-22.45478887117468,-1.783130374034393,292.9609323393965,30.345983277822235,12.171115996969132,66.71205884790378,14.709433490312644,135.8526884374958,563.269784787911,1.274,1.0237227741398531,0.0,12.4537145464243,30.0000128556565,0.0891902850486778,7.568139228910267e-06,-0.1862334472841684,0.7711758313112608,0.0175337526991319,17.781210613149955,33.43550235297277,33.04952268820789,30.74371218356055
0.86,31.22219238249962,131.0104419414159,14.53138026951686,3.2282530173041013,16.9475367618712,26.42365606898151,-23.24907536480563,-1.935422525696612,346.2265619465616,30.58861257384666,12.293929242327955,66.4934422892783,15.63052248582696,136.8562904562572,572.2992460118431,1.274,1.023674789281455,0.0,12.490467705095655,30.000012855656493,0.0899036532529011,8.05706152987927e-06,-0.1908766619404894,0.7971726681018,0.0181141591760206,17.243399698125113,32.8215479148624,33.2120759965899,35.248758357184855
0.87,31.222191852404897,131.0104430804612,14.78476666451136,3.1417133271903084,16.363074626986407,24.15364269468716,-24.106035457485927,-2.1040588672839617,327.9640783669946,30.905523475199526,12.44639827678589,66.2617160548564,16.564593362924462,137.87577804867715,584.2049816196768,1.274,1.0236288969245204,0.0,12.526551027639206,30.000012855656493,0.0908353526265122,8.561864913497649e-06,-0.1955097977918308,0.8228305933582122,0.0187456123551304,16.653849512709254,32.12418935527792,33.441031823498044,34.18956660469944
0.88,31.222191312393345,131.01044423284617,15.041232059629868,3.059890207942396,15.803267644143208,20.21667948088024,-24.90716728240224,-2.261208732302401,294.4828134710421,31.16746864032917,12.577124896345136,66.01647698453749,17.50948008039358,138.9089595709784,594.1353784180787,1.274,1.0235805388426191,0.0,12.562661296887196,30.000012855656493,0.0916055086016981,9.082274140573532e-06,-0.200137993423978,0.8481713326722385,0.0193515331022473,16.089360055703253,31.47645829392448,33.61848474728939,32.15888953613376
0.89,31.22219076679218,131.01044539340944,15.299155232234218,2.9808198900314284,15.257925068525116,22.12166251739876,-25.65831623454645,-2.4085973226326582,315.02813424808807,31.38745714324521,12.69125696533624,65.75734172810573,18.46305511216019,139.95368458695583,602.5371922180044,1.274,1.0235293752791452,0.0,12.59869526528358,30.000012855656493,0.0922523537518587,9.618137925866903e-06,-0.2047451296277043,0.8731054177042762,0.0199362403037941,15.539578193149696,30.86185196279957,33.75593908247724,33.96348753570911
0.9,31.222190214832207,131.0104465627958,15.558759632911572,2.894749128420405,14.67924236944988,24.420990914050748,-26.445821233521777,-2.5664433838074863,339.3781423542166,31.657775997706374,12.825581791127156,65.48398041471486,19.42311578941467,141.00771808533312,612.9450891657413,1.274,1.0234837388140003,0.0,12.634426410770413,30.000012855656493,0.0930471331699937,1.0169235864570832e-05,-0.2093174869602143,0.8975572426220205,0.0205564744850223,14.955786459627802,30.19195437403104,33.93844347497438,36.0881267120064
0.91,31.22218965253789,131.01044774461343,15.821259042006943,2.804403052259033,14.080899157803588,17.373268919720346,-27.2496413269591,-2.730079111224008,277.7421810230785,31.956425538850805,12.971419989191142,65.19611797410239,20.38742238834231,142.06878002999036,624.5485569001663,1.274,1.023436404813438,0.0,12.669890754511227,30.000012855656493,0.0939251888563184,1.0735196985978749e-05,-0.2138551936030452,0.921523413047684,0.0211997026150607,14.351912660507796,29.490381953426503,34.146050564464275,32.431878720764544
0.92,31.22218908040721,131.01044893775412,16.08634220684058,2.7229305475736387,13.52607434915684,21.04616588560629,-27.927658136038705,-2.866949155501968,315.0281342480675,32.14601391496343,13.07385222320182,64.89351606421788,21.35379571437884,143.134650807559,631.9649880630585,1.274,1.0233859136578225,0.0,12.705255736773903,30.000012855656493,0.0944827028540227,1.131565590981406e-05,-0.2183544424231134,0.9449797718254632,0.0217735817082844,13.792416982330794,28.87935445607167,34.25100455528074,35.087242480823996
0.93,31.22218850501676,131.01045013570973,16.351873875307156,2.631331987488342,12.923904458628536,25.44505207386388,-28.68111750936992,-3.023483681853488,359.16250706547066,32.4276013430197,13.213297963682091,64.57598061996164,22.320107546286224,144.20315938224735,643.068648674804,1.274,1.0233407575091376,0.0,12.740478243912293,30.0000128556565,0.0953106226272468,1.1910388274537957e-05,-0.2227914708877364,0.9678014993467232,0.0224100603454494,13.184588341007627,28.181337003382712,34.44051234643997,38.46035140508163
0.94,31.22218791597745,131.0104513476737,16.620965786022246,2.5340853632818217,12.29602155349491,16.77304676358123,-29.471130810748026,-3.1907138475901795,283.06875048378083,32.760202297031285,13.3735958756772,64.24339659423362,23.28419375631565,145.27208533100426,656.3108934715965,1.274,1.0232914783978162,0.0,12.775278628938947,30.000012855656493,0.0962884897173375,1.2518838319738664e-05,-0.2271712147641883,0.9900101116361144,0.023084384086655,12.55049139223084,27.436241484701487,34.676865180944944,34.059702051760645
0.95,31.22218731492846,131.0104525713802,16.89292949397934,2.447501304368049,11.719414046612505,22.79877810288524,-30.087221987697845,-3.3206876432603365,342.421873617488,32.94942599057568,13.47648730877804,63.89568353743096,24.24402246013316,146.3393429904067,663.8971829916968,1.274,1.0232418269359267,0.0,12.810058143759113,30.000012855656493,0.0968449514601615,1.3140491702248744e-05,-0.2314917979085505,1.0115907130101207,0.0236586813022613,11.968757030333473,26.802676875025977,34.777497734162,37.89527907729022
0.96,31.222186711463383,131.0104537984865,17.16493174435151,2.3486524727635207,11.087166957908956,21.78129580718512,-30.825532836111485,-3.481132735958268,337.09533515678265,33.27419266647619,13.63437196663726,63.53280666555846,25.197664601167297,147.40294800473637,677.0314265804254,1.274,1.0231951201821403,0.0,12.84472469238968,30.000012855656493,0.0977998058119754,1.3775086143759948e-05,-0.2357252864040551,1.03240221576213,0.0243281691579107,11.330154815151882,26.056619789155384,35.00491222265272,37.90457237320648
0.97,31.2221860899068,131.01045504142832,17.441315145028575,2.251775786269241,10.465082042685475,11.323325937355156,-31.49686417232725,-3.6289820807994566,245.0218871929888,33.55958616867543,13.77685023365071,63.15482191379923,26.143187094840084,148.4608965338791,688.6767797986862,1.274,1.0231476260761452,0.0,12.878937969058436,30.000012855656493,0.0986389445610041,1.4421863354603286e-05,-0.2398802805974022,1.0524824084294633,0.0249686662846958,10.701958655664612,25.33717644502784,35.194312539108104,33.66659581716535
0.98,31.222185460245104,131.01045629159037,17.71914728521621,2.1638556350221028,9.884870745166888,18.96957399329997,-31.97760519207987,-3.73625104472678,319.593746642963,33.70114342261867,13.86117678534948,62.761814718321126,27.078835256398488,149.5113672659874,694.4802987592553,1.274,1.0230935628253934,0.0,12.913243442047897,30.000012855656493,0.09905532273493,1.5080328735568668e-05,-0.243942273552592,1.071755828531699,0.0254978941932569,10.116639218084291,24.71798127084792,35.24616416107711,37.36805511632949
0.99,31.222184828224616,131.01045754468663,17.99690603440819,2.0629615434452035,9.247588391354936,20.893393177587782,-32.61712170622556,-3.882502540672809,341.66094855170127,34.01196612027572,14.014865338341172,62.35393912379097,28.002933166675568,150.55260923873257,707.3307654902646,1.274,1.0230490803133316,0.0,12.947277371535344,30.000012855656493,0.099969214620137,1.5750107178651035e-05,-0.2478855593969017,1.0900989541236032,0.0261483320607153,9.47294457439042,23.972205697186343,35.458275320794854,38.92922209408163
1.0,31.222184175999622,131.01045881313877,18.279110873978265,1.9615401423195555,8.609485447313409,17.429980953308668,-33.221722849543966,-4.0237644138837725,314.2672081822764,34.31892600581054,14.16769201754636,61.93143753991839,28.91385544801312,151.58290823716624,720.1362591512866,1.274,1.022999484445133,0.0,12.980863206917652,30.000012855656493,0.1008717635409549,1.6430223478305015e-05,-0.2517207585953417,1.1075560792898624,0.0267918051076908,8.828469547139168,23.22725049551629,35.66621729627274,37.73165494890268
1.01,31.222183513369423,131.01046008927165,18.56307498436864,1.8625575752837984,7.984172873842183,18.097308959431206,-33.72833737696732,-4.145755007068636,324.92031610370094,34.57064768212434,14.29839133564365,61.49457682797272,29.81017733137907,152.6007552016308,730.7191507762019,1.274,1.0229507481225095,0.0,13.014547366779071,30.000012855656493,0.1016119610292015,1.711999463117478e-05,-0.2554376294315016,1.1240736728644822,0.0273860755526208,8.197173385794427,22.516871309255272,35.820743618584935,38.500657375767936
1.02,31.22218284131465,131.01046137225504,18.848516467439875,1.7607377668023028,7.348580446083488,13.20930251099904,-34.23603889867387,-4.2710980519688535,284.59063161543185,34.85479986832099,14.44313232464114,61.04368310188092,30.690590128071808,153.604750827254,742.7603941105895,1.274,1.0229039803623294,0.0,13.04800833710206,30.000012855656493,0.1024474868246494,1.7818791532027145e-05,-0.259020636846567,1.1395780248434046,0.0279977070367367,7.555449230062663,21.783075311645693,36.00595007888586,36.94366401520195
1.03,31.222182154480723,131.0104626650914,19.136616179897,1.6618152830671322,6.7266184125438,8.648617750024702,-34.6212060070346,-4.371701954875652,247.3046933904342,35.068459351581154,14.559248541046689,60.57914940812526,31.553889262454227,154.5935912787106,751.8737234484895,1.274,1.022853416101322,0.0,13.081217790933431,30.0000128556565,0.1030758237063461,1.852576672916737e-05,-0.2624634070369128,1.1540351393571433,0.0285429552257196,6.927938000373665,21.089947710180255,36.12264852752246,35.9518883001969
1.04,31.22218146022988,131.010463962872,19.42556550223708,1.5637821920870378,6.109677481407656,18.831101812466454,-34.91791310022785,-4.455298901511709,345.4656368807608,35.24388919534724,14.65988353511136,60.101418492884086,32.399006322295634,155.5661044377848,759.3939552907798,1.274,1.0228049544826707,0.0,13.114315313783807,30.000012855656493,0.1035917979027036,1.9240241973349583e-05,-0.2657501592484506,1.1673725668574075,0.0290441583294694,6.305893861924389,20.415769781052063,36.201777351858354,39.92143207662211
1.05,31.22218075709801,131.01046526629102,19.71565804205655,1.4565250379885295,5.458809694189548,6.887604136345368,-35.387430114837855,-4.581670976394452,240.4562587980608,35.5990653685969,14.836773198089627,59.610997377722605,33.22497963414797,156.52121613591626,774.7553308347443,1.274,1.022755494436122,0.0,13.147098102802827,30.000012855656493,0.1046361040387282,1.9961431509870432e-05,-0.2688692443849281,1.1795381432666858,0.0296803526856829,5.649216346585083,19.63826723219229,36.455236548141166,36.34145029862554
1.06,31.22218002985692,131.01046658316423,20.01007161250198,1.35855627639828,4.845081203604752,13.76333802620052,-35.5425293155491,-4.639436336350303,308.1796836557233,35.73090251084929,14.920203855187705,59.108447858116655,34.03096844428785,157.457966429885,780.4823252404901,1.274,1.0227013895379469,0.0,13.179606700017995,30.000012855656493,0.1050239610061989,2.0688035171119048e-05,-0.2718264782652777,1.1905451158505689,0.0301170755548789,5.031509255525933,18.982219567444798,36.4910593706486,38.395640811024
1.07,31.222179306079767,131.01046789837147,20.302822549213303,1.2529468729158364,4.2063124092584365,17.655498311623177,-35.85376197292012,-4.736321112879312,348.5093681440431,36.03022986751149,15.07541948251134,58.594355040597954,34.816290474889456,158.3755540115175,793.5914037659682,1.274,1.0226540159946436,0.0,13.212195340874173,30.000012855656493,0.1059041247466968,2.1419632421989207e-05,-0.2745959758022135,1.200289874317618,0.0306779294108792,4.388635152808258,18.23736093392361,36.69036252575289,40.24477116256033
1.08,31.222178556780285,131.01046922662772,20.599917843863658,1.1460626984432671,3.5662423825845013,7.622714712564926,-36.1537531293623,-4.834222874127729,261.0015785751465,36.35871463836092,15.244474362571626,58.06937765922951,35.58033962866521,159.27324123803768,808.1045267190397,1.274,1.0226061614050743,0.0,13.244211142104415,30.000012855656493,0.1068700025934504,2.215485966421272e-05,-0.2771814121831701,1.2087769170962854,0.0312482049586921,3.745643840063209,17.480530377394544,36.91853704573886,37.26351239114166
1.09,31.22217779214381,131.01047056199508,20.89906260777939,1.0444340942240335,2.946449357409463,5.563280637455792,-36.20301183454049,-4.877791538290912,246.54375332456465,36.52299963678999,15.34371925130262,57.534197112320655,36.32264930211558,160.1504287896103,815.4003548836162,1.274,1.0225512795791307,0.0,13.276292916276113,30.000012855656493,0.1073532516307389,2.2892649356000435e-05,-0.2795751588432534,1.2159664121126874,0.0316595684649094,3.125930997982923,16.803844123569366,36.98562285116544,36.95133296153187
1.1,31.22217702449377,131.01047189868925,21.197821386843124,0.9414389773945891,2.324947427988884,23.260608867040613,-36.23062318105119,-4.919693589005043,413.1890617384087,36.71149485824553,15.454125393092824,56.98953478080627,37.042855221184624,161.00661350220318,823.8149971933235,1.274,1.0224981043155532,0.0,13.308203854256348,30.000012855656493,0.1079076656051499,2.3632382937343897e-05,-0.281759208210227,1.2217948533731804,0.0320706451508644,2.5082267386153423,16.115771822693507,37.076596532551406,43.33494393630237
1.11,31.222176241434383,131.01047324212695,21.498550240871264,0.8305721918268784,1.687085373261637,13.08328727747544,-36.551803849404656,-5.03357689886359,324.1593910379213,37.18023880903876,15.68878613477168,56.436163054195006,37.74067742835735,161.84136798464743,844.9623564402855,1.274,1.0224548851875197,0.0,13.339695714918031,30.000012855656493,0.109285835591345,2.437294710651976e-05,-0.283727988463695,1.2262372896669895,0.0327061420682481,1.8804009777212625,15.311072907949203,37.44520726709381,39.14771598736096
1.12,31.22217542223102,131.0104746000929,21.8048767259122,0.7259746754922694,1.0694533177555947,-3.8797388718456487,-36.52899369230074,-5.07126267731668,172.7328179403806,37.41288642971331,15.821158178471952,55.87488447831021,38.415933997306176,162.6543580753236,855.54461994648,1.274,1.0223979224661404,0.0,13.371025992506835,30.000012855656493,0.1099700491367461,2.5112521866426185e-05,-0.285485292902313,1.2292770630039225,0.033113656731779,1.292558864957258,14.61092207782885,37.58086600961778,37.08284588631517
1.13,31.222174604028,131.01047595703525,22.10991629000612,0.6253063135516445,0.4620624782462279,16.954279654858226,-36.20719055157126,-5.042200842835121,367.5328077894322,37.44669275914845,15.865483458484176,55.306522286555605,39.06853217825315,163.44533389486523,857.0663490659484,1.274,1.0223460397860296,0.0,13.402569879058428,30.000012855656493,0.110069797086904,2.5850634701195865e-05,-0.2870123385414886,1.2308609292892445,0.0333198852478004,0.7774967799868772,13.98961008338078,37.519272576779336,40.29679932193645
1.14,31.222173785049268,131.01047731420033,22.41412337661505,0.5168422755681729,-0.1508138172067299,2.5904984310493644,-36.32487102155391,-5.1201344328272285,239.6953177322812,37.8818649240112,16.09116339340614,54.73194173537993,39.69844759561475,164.21410624168377,877.076593966976,1.274,1.0223022138470996,0.0,13.433618995426984,30.000012855656493,0.1113493126339158,2.658673596003526e-05,-0.2882970722231717,1.2309698751058384,0.0338569908094059,0.5383958844080806,13.223654935282571,37.858175172356994,36.775300317795086
1.15,31.222172919572856,131.01047868755566,22.725198971808968,0.4141110903173331,-0.7537673259999011,1.964878305300414,-35.99962212778472,-5.09726816543005,237.4125115347709,38.00143223714508,16.175668714456915,54.15203294409522,40.305735178954045,164.9605613553719,882.5956298727491,1.274,1.0222426194541194,0.0,13.464234649049295,30.000012855656493,0.1117011588803543,2.731855193128193e-05,-0.2893437638755421,1.229566508522323,0.0340861450461318,0.8600251644022139,12.57585713415552,37.88303415777221,36.41175198817319
1.16,31.222172066590808,131.01048005578957,23.033038671073587,0.3104158470040418,-1.3509144365102224,29.197876284416427,-35.701314753062825,-5.084089941344597,490.043774385954,38.18736118333948,16.29117915997167,53.56770846827888,40.89050080564922,165.68462785097992,891.2269254324467,1.274,1.02219674531104,0.0,13.495190778289537,30.000012855656493,0.1122480671300818,2.8045853076456585e-05,-0.2901395560390792,1.2266465275987803,0.0343461091321502,1.3861132552732838,11.910966504835738,37.97517970038281,46.39986880529976
