Time,Latitude,Longitude,Altitude,Angle of Attack,Angle of Sideslip,X-Acceleration,Y-Acceleration,Z-Acceleration,Thrust,True Velocity,Ground Velocity,Pitch,Roll,Yaw,Dynamic Pressure,cp,parachute_deploy_gain,Wind Speed,Mach,omega_x,omega_y,omega_z,Cmq,Angle of Attack(total),Angle of Attack(gust),True Velocity(gust),Acceleration
0.0,31.222216000000007,131.010392,3.000000004412624,0.0,0.0,0.0,0.0,0.0,2.2828121974499247,0.0,0.0,71.99999999612658,-1.0292491154817412e-14,119.99999999354436,0.0,15.288,0.0,0.0,0.0,0.0,0.0,0.0,-0.0,0.0,90.0,0.0,0.0
0.01,31.22221599999862,131.01039200000284,3.0000009727369523,0.0,0.0,0.0,0.0,0.0,34.24218696174923,5.916279387578309e-11,5.734623670548936e-11,71.99999999613168,-5.86671995824671e-13,119.9999999935449,2.1432944861733093e-21,15.288,0.0,0.0,1.7386402909615473e-13,-3.4220131069073734e-19,7.115076756936125e-19,5.488773498207866e-19,-1.1574302492039043e-31,0.0,89.99999999962336,5.916279387578309e-11,0.0
0.02,31.22221599999738,131.01039200000537,3.0000018317022668,0.0,0.0,0.0,0.0,0.0,25.871876237766408,1.2265415415436536e-10,1.1895038237325684e-10,71.9999999961369,-1.1836364828043265e-12,119.99999999354544,9.211895886571454e-21,15.288,0.0,0.0,3.6044858651615574e-13,-6.979551485375437e-19,1.4162390878091906e-18,1.0909784360635388e-18,-4.776231873571785e-31,0.0,89.99999999921916,1.2265415415436536e-10,0.0
0.03,31.22221599921969,131.01039200159065,3.0001883335529382,18.80143492628821,-0.0001350810307892,10.931161642028636,-1.75114298675875e-05,3.026590975169265,180.34219359854663,0.0798232026864394,0.0478175828508887,71.99999999765336,-5.341802909786072e-12,119.99999999436793,0.0039016003969354,15.288,0.0,0.0,0.0002345795854893,3.788270153300133e-17,-7.771883375645477e-10,1.1422790048099072e-11,1.7057759223764537e-13,18.80143492675591,89.51882325913425,0.079801984207741,11.342422482672777
0.04,31.222215995131297,131.01039200995308,3.001692634342189,9.19442604083399,-4.49173898918486e-05,52.29595764159784,6.445392950801871e-06,3.026413589912948,548.6359724538078,0.3504174083926908,0.1601447499964056,72.00000000319055,-3.111420077280171e-11,119.99999999870242,0.0751892535633216,15.288,0.0,0.0,0.0010297854387864,2.0082066977226968e-15,-1.520937588847922e-08,2.5623342884322286e-11,1.4654248781413086e-11,9.19442604094277,87.798916624545,0.3504103527855857,52.383455068075136
0.05,31.222215983575865,131.01039203366796,3.0074067499493786,5.158590039700252,1.707592688632746e-06,76.26884281015512,5.843947534199429e-05,3.0258124765658088,761.6984298824644,0.9592973585397016,0.3772700771701255,72.0000000004862,-1.3608731808076822e-10,120.0000000109612,0.5634958029902841,15.288,0.0,0.0,0.0028191251099456,2.086299069701397e-14,-1.0551247853743037e-07,3.973493515691201e-11,2.783064866637575e-10,5.158590039700515,83.94063169874748,0.959297626767734,76.32884071402438
0.06,31.222215961742712,131.0103920785344,3.019291017943491,4.109521257467909,3.140103977270004e-05,57.06876634333886,0.0001151069734147,3.024834864051463,590.4875390737208,1.6257536642597354,0.6118982818704327,71.99999992547217,-3.5903296759057166e-10,120.00000003412836,1.6184272268450337,15.288,0.0,0.0,0.0047776672697797,1.0694899894620088e-13,-3.741090980393931e-07,5.521401959501359e-11,1.6723176417636091e-09,4.109521257587776,79.78719176344794,1.6257585967235286,57.148873286519276
0.07,31.222215929936205,131.01039214392435,3.0371334573469446,3.649087515174788,5.707077112564807e-05,86.89643797254193,0.0001728541558773,3.0234947746384675,855.2937749779139,2.3057260079826607,0.8506307413593818,71.99999965378231,-6.907496536790437e-10,120.00000006788592,3.255354923652711,15.288,0.0,0.0,0.0067759305364855,3.495199904512709e-13,-9.036515915819006e-07,7.594816279105379e-11,5.728932851326001e-09,3.6490875156204896,75.6601668283889,2.305734972638426,86.94902215090157
0.08,31.222215886364623,131.01039223353447,3.0621840248716574,3.4254446680114707,8.413075603463509e-05,17.831756866644035,0.0002285946601282,3.021841001032126,241.2171988638848,2.961944911520492,1.0819695676346892,71.99999900671328,-1.141745983122182e-09,120.00000011415082,5.371998197385977,15.288,0.0,0.0,0.0087043901031071,8.800530155962314e-13,-1.829098470920821e-06,1.0943386634701918e-10,1.4896287129277132e-08,3.4254446690434226,71.81713637501419,2.9619581267487467,18.085991154451033
0.09,31.22221583454733,131.01039234010327,3.0919888289029,3.389560809024919,0.0001118726864415,54.09031716446879,0.0002748660999733,3.020060228038602,563.0937377043176,3.504225426410036,1.2780161667917422,71.99999774508822,-1.634190085504106e-09,120.00000016921716,7.519080503822694,15.288,0.0,0.0,0.0102980157586766,1.865782139518716e-12,-3.1503298654458527e-06,1.6284478329871028e-10,3.03536411425607e-08,3.389560810868955,68.76526501308032,3.504242999330529,54.17456206384468
0.1,31.22221577423132,131.0103924641528,3.1267248829165366,3.4447939461814814,0.0001419149103147,51.372195336549765,0.0003131602029306,3.0182021883815127,538.7437595981919,3.950569597142709,1.4443465951180965,71.99999562056465,-2.1287748602259068e-09,120.00000023339832,9.55649523509932,15.288,0.0,0.0,0.0116097108366932,3.485956000178229e-12,-4.949356763187612e-06,2.4573266549165286e-10,5.3761299442583966e-08,3.444793949101151,66.34639928474206,3.9505918890846927,51.460781166288626
0.11,31.222215706113143,131.01039260424562,3.165907002780892,3.4691423802630394,0.0001702373452339,40.591037561894986,0.0003534470100582,3.016051659024047,442.8656393052949,4.421478635995476,1.6182620895289603,71.99999235067894,-2.5564479031457968e-09,120.00000030601664,11.970509656144712,15.288,0.0,0.0,0.0129935974697161,5.942887149865172e-12,-7.273722517324353e-06,3.67769289312894e-10,8.842679949465076e-08,3.4691423844348632,63.88798785789768,4.421505376815134,40.70293476011277
0.12,31.222215630588888,131.0103927595646,3.2092596514826863,3.4852659299808075,0.0001974376474727,44.30042894095728,0.000394069215595,3.013641598889868,475.58594813540446,4.896982486381051,1.793579340340896,71.99998761802138,-2.8337988279882726e-09,120.00000038673312,14.683611096353944,15.288,0.0,0.0,0.0143909889875706,9.464337642181618e-12,-1.017558359402848e-05,5.395790443954697e-10,1.3700793350599625e-07,3.4852659355662303,61.5068242157714,4.897013499814194,44.40281567867803
0.13,31.222215548046687,131.0103929293088,3.256512891171917,3.5606043721293616,0.0002276507019012,48.86766833507025,0.0004268800875964,3.0112558910133567,515.9156326236895,5.278566579338586,1.939796541405244,71.99998107389406,-2.8573058577484587e-09,120.00000047523812,17.061052093156064,15.288,0.0,0.0,0.0155123760833565,1.4300406003001044e-11,-1.3705268062305584e-05,7.724776992181392e-10,1.989112774124932e-07,3.560604379397528,59.67313531776262,5.27860233862722,48.960358155653
0.14,31.222215458587108,131.01039311327068,3.30759734332425,3.6000732663755977,0.0002555702913645,45.540290862247225,0.0004629468001456,3.0085404980032777,486.2390860568404,5.70011779273801,2.098362647205908,71.99997235012626,-2.508533681468686e-09,120.00000057154703,19.894788765881632,15.288,0.0,0.0,0.0167512184495524,2.071534240530911e-11,-1.7917736259613292e-05,1.0787346240473087e-09,2.8081526258393346e-07,3.6000732754351943,57.72385750323359,5.700157937625502,45.639559681930805
0.15,31.222215362317904,131.01039331122794,3.3624387479639086,3.651605404442164,0.0002842753491325,44.01308509501,0.0004965057129938,3.005703619811542,472.54218587214,6.091938849578711,2.2476968067377374,71.99996103728932,-1.6446954747148112e-09,120.00000067569304,22.723773683610247,15.288,0.0,0.0,0.0179026934683374,2.9002783512213203e-11,-2.287326399669318e-05,1.47199345427166e-09,3.831202693354572e-07,3.651605415492516,55.98561718911576,6.091983503446133,44.115597174664394
0.16,31.22221525912812,131.01039352340948,3.421115382839859,3.67540086436193,0.0003108411545024,34.83804992586084,0.0005330990866742,3.002517946501868,391.1218908297564,6.521183188362317,2.4085903880902046,71.99994669525161,-1.0153513453738144e-10,120.00000078796704,26.03872642002185,15.288,0.0,0.0,0.019164148528834,3.9478358970291335e-11,-2.864207894220033e-05,1.9677461746207517e-09,5.135466997084602e-07,3.6754008774883777,54.15946979122355,6.521232015176687,34.96719658394182
0.17,31.2222151493826,131.01039374906244,3.4833737923187487,3.7139589864597298,0.0003384978477213,43.96471427482637,0.0005668629535037,2.999235483723449,471.78125980632376,6.916861975403744,2.559060925010733,71.99992884100092,2.3206494032971838e-09,120.0000009081849,29.29426197817256,15.288,0.0,0.0,0.0203269651395979,5.248754693205839e-11,-3.5267097947693114e-05,2.580363454062817e-09,6.706952682968329e-07,3.713959001863866,52.549031795895466,6.916915146521327,44.06689817851128
0.18,31.22221503253009,131.01039398932429,3.549599475912623,3.7380363034619775,0.0003650282082698,36.67395661481795,0.0006021794701355,2.9956556354306425,407.10156721191447,7.332140201215607,2.71556808256092,71.99990696207136,5.837017536380516e-09,120.00000103716444,32.917216366714264,15.288,0.0,0.0,0.0215473823438242,6.839750892601699e-11,-4.285557247677198e-05,3.331016495775474e-09,8.639362741436378e-07,3.738036321259578,50.93050624815799,7.332197539712479,36.796100973258795
0.19,31.22221490871209,131.01039424390297,3.619694897703461,3.747799769666444,0.0003901520189829,41.42208371271829,0.0006393759928961,2.991742733214697,448.9531328318269,7.771071983754382,2.879366399937307,71.99988049019642,1.0709144790974043e-08,120.00000117502664,36.97605053227239,15.288,0.0,0.0,0.0228373144884866,8.761416506509219e-11,-5.146771415177372e-05,4.238406957677133e-09,1.0996552116864756e-06,3.747799789945131,49.29705748437159,7.771133268690212,41.529983675580546
0.2,31.22221477769685,131.01039451327668,3.693822889232993,3.7700519460961166,0.0004166800650969,37.99697972290605,0.0006740224661302,2.987733789228414,418.51563019916136,8.179966026035371,3.0338260708461373,71.99984881140107,1.723179577184912e-08,120.0000013223286,40.969302182777255,15.288,0.0,0.0,0.024038975990988,1.1057590044953188e-10,-6.120032215177249e-05,5.3263847350253015e-09,1.376394225587184e-06,3.7700519690893857,47.8457752505109,8.180031477986942,38.11426270718793
0.21,31.222214639876928,131.01039479663547,3.771710975053407,3.7926098867321474,0.0004432924407074,36.46301043881366,0.0007080907240332,2.983530483977461,404.8187610144644,8.582757448615462,3.1863584283669346,71.99981127559042,2.5745201416596626e-08,120.00000147900325,45.103059028532826,15.288,0.0,0.0,0.0252227064089584,1.3774582723633048e-10,-7.20875523136271e-05,6.61341033873124e-09,1.7010673350603349e-06,3.792609912601061,46.47936953648762,8.582827080829217,36.584868250565684
0.22,31.22221449507626,131.01039509434258,3.8534832466471007,3.782921298925821,0.0004660920499522,44.14577847155813,0.0007479176313898,2.978724032883548,472.5421858721365,9.056569122268344,3.360845972992861,71.99976720416048,3.661811567390422e-08,120.00000164562512,50.21995530074818,15.288,0.0,0.0,0.0266151520780326,1.6960703048385348e-10,-8.421592474264931e-05,8.124635526119773e-09,2.0969540034515424e-06,3.7829213275976334,44.9464484092354,9.056642335836344,44.24615863872642
0.23,31.22221434283448,131.01039540734791,3.9394622486964206,3.813874679301352,0.0004940771488601,36.66675459308932,0.000779455230549,2.974212905336642,406.3406421461021,9.430647902846331,3.5044030163419806,71.99971583979395,5.0272885112871524e-08,120.00000182313076,54.45382429059888,15.288,0.0,0.0,0.0277145095638672,2.0669790509245914e-10,-9.77285871729516e-05,9.894576563683824e-09,2.5339062472561444e-06,3.813874711257219,43.79476959007253,9.430725512303388,36.78718303164376
0.24,31.222214184153326,131.01039573358457,4.028950821673608,3.829256049377765,0.0005200487408944,37.802126339316736,0.0008136255607606,2.9692962675112065,416.2328240017114,9.837806876534357,3.658163422426286,71.9996564062533,6.718950080713476e-08,120.0000020109434,59.25679777340223,15.288,0.0,0.0,0.0289110855155543,2.4956955046738006e-10,-0.0001125744417092,1.1934277804843484e-08,3.0448209172448607e-06,3.829256084638984,42.59361542722471,9.83788856559955,37.91856374864305
0.25,31.22221401888584,131.01039607335582,4.122052964664892,3.851417709838087,0.0005469594058717,38.85163035360012,0.0008459008130282,2.964283881833675,425.36408079150686,10.22297576958679,3.8050691648373967,71.99958811418384,8.786880969336211e-08,120.00000220974424,63.98709205399403,15.288,0.0,0.0,0.0300430411774988,2.987811646313829e-10,-0.0001288461362054,1.4273117985167728e-08,3.621333387698252e-06,3.8514177486178034,41.50703126619192,10.223061685769354,38.96455005232871
0.26,31.222213847358866,131.0103964259872,4.218542267117083,3.8780574625554745,0.0005745172425185,42.3164797140743,0.0008766626387865,2.959162938653076,455.8015834241788,10.590779679138215,3.946551912391076,71.99951013710364,1.1286401474734325e-07,120.00000241975916,68.67355887153568,15.288,0.0,0.0,0.0311239685467471,3.5491769188178554e-10,-0.0001465721578858,1.6932703957058654e-08,4.267712643344226e-06,3.8780575050466,40.51245375834074,10.590869924095635,42.41981967733593
0.27,31.22221366913008,131.0103967923915,4.318728802515264,3.886188503202341,0.0005994342651313,38.70936050721014,0.0009111181036949,2.953518013741325,423.84219965987256,11.004860953238978,4.102320296019413,71.99942161756776,1.4276417094868828e-07,120.0000026420792,74.14786134434608,15.288,0.0,0.0,0.0323408987462391,4.1858405402174807e-10,-0.0001658847815307,1.995072923688136e-08,5.018832267232506e-06,3.886188549362022,39.43841359495857,11.00495511215316,38.8218734782956
0.28,31.22221348431185,131.01039717233687,4.422535913956003,3.90556090261878,0.0006261175699806,44.68030766832924,0.0009425767186621,2.947879457547137,476.3468732012221,11.38358114165448,4.247086834352694,71.999321619057,1.7823531611327881e-07,120.000002877279,79.33831935330025,15.288,0.0,0.0,0.033453914386159,4.904408325040897e-10,-0.0001868529238516,2.3357766479368094e-08,5.847713054408178e-06,3.9055609527288775,38.49894431917428,11.383679491972384,44.77744842575601
0.29,31.222213292835256,131.0103975659655,4.530013412817602,3.9242599519377537,0.0006528240665589,35.802573724660256,0.0009737210635801,2.942037024315898,397.97031042211177,11.759725774384751,4.391004157029451,71.99920917567837,2.1999186079018322e-07,120.00000312617878,84.66717879828003,15.288,0.0,0.0,0.0345593650464213,5.711677680739745e-10,-0.0002095620322847,2.7188189988316943e-08,6.77505090435382e-06,3.9242600061534456,37.60352534239979,11.759828319749328,35.92324968749781
0.3,31.222213095024976,131.0103979726075,4.64093665799555,3.936939025755682,0.0006785438093183,33.570228713727204,0.0010059102294455,2.93586442972183,378.1859457108711,12.149968255527943,4.539237002744259,71.99908328532703,2.6880857935396905e-07,120.00000338923812,90.3787563598417,15.288,0.0,0.0,0.0357062504417728,6.614698865958865e-10,-0.0002340353597042,3.1467140861055e-08,7.817263716758327e-06,3.9369390841381695,36.71173884615234,12.150074840940263,33.698361337808635
0.31,31.22221289105846,131.01039839189684,4.755183729044857,3.9598342215431432,0.0007060286581592,35.396825578217346,0.0010350810412898,2.9297385597941448,394.1656220930212,12.504537499407316,4.6763673222047455,71.99894291513503,3.255120771695107e-07,120.00000366712923,95.72967338626896,15.288,0.0,0.0,0.0367483036680869,7.620720834468404e-10,-0.0002603234137215,3.622454560346964e-08,8.948994505138873e-06,3.9598342843844345,35.934338386209795,12.504648402129598,35.5178635353378
0.32,31.222212681031937,131.01039882363492,4.872689374180126,3.985461429033668,0.0007340760463279,38.52097867048992,0.0010630242168685,2.9235095146848846,421.55939346242695,12.84534566718622,4.809181081594425,71.99878701464397,3.909756427278764e-07,120.0000039606604,101.01782231644016,15.288,0.0,0.0,0.0377499198995686,8.737098716736534e-10,-0.0002884807530145,4.1491545539590986e-08,1.0187112828155184e-05,3.98546149652875,35.21473736963424,12.845460975581933,38.631757748577954
0.33,31.22221246496604,131.01039926777932,4.9934410812554,4.010606629086,0.0007621365968788,38.18822026147908,0.0010905599149574,2.917102431053817,418.5156301991682,13.18247167592885,4.940798912752974,71.99861449732019,4.661299779655886e-07,120.000004270781,106.38859400029033,15.288,0.0,0.0,0.0387407190563976,9.971421990244511e-10,-0.0003185760672934,4.7302669734505256e-08,1.154498667827874e-05,4.010606701382261,34.52805863348922,13.182591392065536,38.299473293007864
0.34,31.222212242662028,131.01039972474007,5.117579377337869,4.019339771238816,0.0007871574969313,29.898022638335373,0.0011220389395318,2.910051232417875,345.46563688075645,13.569536737955724,5.0878303926024735,71.99842423285973,5.519675040347761e-07,120.0000045987411,112.72655675097128,15.288,0.0,0.0,0.0398782837956187,1.1331556132162459e-09,-0.0003507224668667,5.37022358302301e-08,1.308298593306914e-05,4.019339848191799,33.76700548046532,13.5696603843662,30.039310197084795
0.35,31.22221201433324,131.01040019407705,5.2449575244483055,4.033762873683395,0.000813261106463,32.76415525156106,0.0011515840876071,2.902959820469776,370.5765700527033,13.934300103976534,5.227895396154902,71.99821502296155,6.495674834876441e-07,120.000004945438,118.8669740701126,15.288,0.0,0.0,0.040950312688979,1.2825853697215452e-09,-0.0003849609961885,6.072234695821837e-08,1.4746020857580124e-05,4.033762955530055,33.07785186209504,13.934427850732408,32.89250745069162
0.36,31.22221177990305,131.01040067594835,5.375631006350063,4.051723629010647,0.0008401329464575,37.01692984301412,0.0011797030485285,2.8957873473716007,407.8625232777193,14.282998147928636,5.362923567977223,71.9979856440668,7.600645476620651e-07,120.00000531213882,124.88900300695136,15.288,0.0,0.0,0.0419751331662584,1.4462801652534363e-09,-0.0004213876232777,6.84067806399068e-08,1.654507199147348e-05,4.051723715967022,32.44322602189087,14.283130115703262,37.13002398000203
0.37,31.222211539445663,131.01040117020102,5.509550188388412,4.071639898917391,0.0008674922629137,35.12417761390579,0.0012067983861697,2.88849906286036,391.1218908297666,14.620581431527652,5.494447309446232,71.99773482653193,8.846681943540367e-07,120.00000570002652,130.86067091914967,15.288,0.0,0.0,0.0429672939311924,1.6251202388969355e-09,-0.0004600660652957,7.679415042686734e-08,1.849041957573993e-05,4.071639991174516,31.85023865502424,14.620717696893658,35.24274792557624
0.38,31.222211292895075,131.01040167697127,5.646763233102716,4.08264881385344,0.0008930259828975,36.695642158537446,0.0012360471443664,2.880711738179021,404.8187610144602,14.986392916850402,5.634654729559426,71.99746126698146,1.0246533537040716e-06,120.0000061105033,137.4891296153862,15.288,0.0,0.0,0.0440424171304414,1.8200057922063743e-09,-0.0005010869196581,8.592980519823866e-08,2.0642694281337543e-05,4.082648911356968,31.228847973200924,14.986533193043764,36.808540518115166
0.39,31.22221104018777,131.0104021963902,5.787316652586672,4.096641430700089,0.0009192713382325,31.335681548387896,0.0012640110027448,2.872831219844713,357.64062493382744,15.337978856701952,5.770390286512262,71.99716358743511,1.1813915463769678e-06,120.00000654506955,144.01394309468844,15.288,0.0,0.0,0.0450757388736732,2.031886352449547e-09,-0.00054455673306,9.586443829735616e-08,2.295945663566148e-05,4.096641533664766,30.65298398882095,15.338123255506089,31.4670954954126
0.4,31.222210781536543,131.01040272801887,5.931064331106764,4.109028969993624,0.0009451871856381,29.95928076777898,0.0012920492774571,2.8646905607053603,345.465636880754,15.692185018814769,5.906873567965718,71.99684037970908,1.3563276523471372e-06,120.00000700500496,150.74021066990193,15.288,0.0,0.0,0.0461167659598875,2.2617341782092324e-09,-0.0005905037520737,1.0663253249436129e-07,2.5471259834659164e-05,4.1090290785164525,30.09246700352443,15.692333488470696,30.095929256306363
0.41,31.222210517064383,131.01040327160345,6.077922766619747,4.122888296344507,0.0009714525997821,33.78425365340317,0.0013192264430821,2.85640971467756,378.94687077668647,16.03742529732769,6.0405139809190125,71.99649020751959,1.5509747261474075e-06,120.0000074917568,157.44375780268788,15.288,0.0,0.0,0.0471314487675864,2.5105374204052982e-09,-0.0006389770219162,1.1827345344180344e-07,2.816813594418537e-05,4.122888410595805,29.56469007160549,16.037577892745222,33.904791300285986
0.42,31.22221024682894,131.0104038270252,6.227854084363214,4.14444025865494,0.0009995884754813,38.04468161607466,0.0013435485656724,2.8482703202464488,416.2328240017114,16.348862540904037,6.163613566771559,71.99611159893284,1.766920641656551e-06,120.00000800692096,163.6157044470786,15.288,0.0,0.0,0.0480467946810589,2.779304965995011e-09,-0.0006900467934588,1.308321832549104e-07,3.100973487310896e-05,4.144440378988911,29.104646754454564,16.34901955589459,38.15115260238947
0.43,31.222209970843565,131.0104043942566,6.380851271439565,4.1618082623168045,0.0010268052928652,33.45815353250911,0.0013687230309017,2.8397750580998298,375.9031395134336,16.67263197205097,6.290467308135904,71.99570306121484,2.005818691215035e-06,120.00000855220898,170.15779512382937,15.288,0.0,0.0,0.0489983878509763,3.0690566816849196e-09,-0.0007437862329608,1.443552931671376e-07,3.4086145072160934e-05,4.161808388761201,28.640125213458976,16.672793262249197,33.57845085853367
0.44,31.22220968892116,131.01040497368373,6.537047157143216,4.164954087655709,0.0010505545842624,30.86574023822051,0.0013980747538988,2.830419582421933,353.0750125389216,17.050421620730056,6.433992917638883,71.99526304125902,2.269416145406482e-06,120.00000912964636,177.9537948947602,15.288,0.0,0.0,0.050108743779844,3.380847125286677e-09,-0.0008003278134917,1.589055036683518e-07,3.750784460406397e-05,4.164954219916419,28.113519280259386,17.050586641458253,30.99524475496968
0.45,31.22220940081287,131.01040556582012,6.696617751072218,4.165241899529329,0.0010735835484822,35.912216710755274,0.0014280646808282,2.820677244966047,397.2093853562869,17.438293672974723,6.580571293039616,71.99478987454265,2.5595995397253085e-06,120.00000974147088,186.13940823302417,15.288,0.0,0.0,0.0512487363629523,3.7158016249566814e-09,-0.000859850913876,1.745604864109677e-07,4.121350642664912e-05,4.1652420376426775,27.591357195572936,17.43846231108416,36.02281959036367
0.46,31.222209106468902,131.0104061707686,6.859600379555308,4.174585124444534,0.0010989881252456,41.916816790010685,0.0014546917035209,2.811153314474766,449.7140588976434,17.786187321601275,6.714685486378061,71.99428180697711,2.8783880229668832e-06,120.0000103898448,193.6374175079873,15.288,0.0,0.0,0.0522712438446989,4.0751091178509895e-09,-0.0009224765531151,1.9138630415982226e-07,4.50966024037632e-05,4.1745852688465686,27.13985967570823,17.786359950252297,42.01097612387663
0.47,31.22220880579083,131.01040678873238,7.026066274755745,4.1823089530633855,0.0011240727220223,28.37640408484148,0.0014814747534716,2.801325368441072,331.0078106302534,18.138167428286582,6.849989708801916,71.99373704967608,3.2278903746588286e-06,120.00001107707628,201.37401505997488,15.288,0.0,0.0,0.0533057667609836,4.459978104761035e-09,-0.0009883252835099,2.094509673354327e-07,4.927107017839778e-05,4.182309103852639,26.69716826759888,18.13834399721685,28.514342615617974
0.48,31.222208499300592,131.0104074186346,7.195654207463586,4.189479568102716,0.0011490100608361,27.95074823096412,0.0015080719422187,2.7912412472910484,327.2031223011574,18.48995085190441,6.98515976370584,71.99315377257649,3.6103201777021456e-06,120.00001180491516,209.25751230436188,15.288,0.0,0.0,0.0543397174489847,4.8716620260348906e-09,-0.0010573190976925,2.2877013380347535e-07,5.373205427420879e-05,4.189479725385959,26.268461765425428,18.4901313379827,28.089773168283216
0.49,31.222208187201936,131.01040806005494,7.368224738812109,4.202723284133339,0.001175611380853,35.08821363242469,0.0015321405723077,2.781292092003844,389.60000969812296,18.812014261754847,7.111044804193205,71.99253015042137,4.027946338669921e-06,120.0000125755114,216.60722913930897,15.288,0.0,0.0,0.0552863302793499,5.311396446020465e-09,-0.0011294854492155,2.4938633613154685e-07,5.8398320167141767e-05,4.202723448262914,25.88860807032205,18.81219892635871,35.1982716047702
0.5,31.22220786953184,131.01040871291724,7.5437546994244835,4.220815778795054,0.0012036252596423,36.05491615971072,0.0015540388599792,2.7714444106710974,397.97031042210494,19.10875420627192,7.229005658018125,71.99186435180009,4.483102820610566e-06,120.00001339126192,223.4908652241728,15.288,0.0,0.0,0.0561585257949344,5.7804122391526605e-09,-0.0012048912160576,2.713531252030471e-07,6.327866493526626e-05,4.220815950099865,25.54902500917784,19.108943271285572,36.161276053538906
0.51,31.222207546379583,131.0104093770373,7.722184419225251,4.232567510615346,0.0012298790840397,27.54004661432325,0.0015777580800203,2.761017323676155,323.3984349720841,19.430597746636646,7.354673636736509,71.99115452520388,4.978202222778502e-06,120.00001425458936,231.07869697977367,15.288,0.0,0.0,0.0571045034845869,6.2799518101633574e-09,-0.0012835871653678,2.947201005874635e-07,6.854585242460463e-05,4.232567688976395,25.189423168613605,19.430790935591396,27.678103017910345
0.52,31.22220721771188,131.01041005241808,7.903525355504403,4.2415097924277205,-3.6354055158662666,33.130454063920205,0.216746833812361,2.750146446043966,372.0984511843415,19.80076084075216,7.482797145222009,71.99039755454832,-6.808196215839419e-06,120.00000220925692,239.962723405162,15.288,0.0,1.2571453202246052,0.0581924933166111,6.808350568969489e-09,-0.0013691657808241,-3.650535844676362e-05,7.45075026941967e-05,5.584122213908763,21.16290806202134,19.23009576213104,33.24510898081374
0.53,31.2222068832458,131.01041073928965,8.08788602051475,4.250886069097657,-3.583925126386281,34.7942352759525,0.2223119113052473,2.739136694841957,386.5562464348624,20.12707136522249,7.6098468594094015,71.98959184978733,-0.0001289252091773,119.99987415450904,247.93252911890545,15.288,0.0,1.2619814664060325,0.0591516109521276,7.336723917142958e-09,-0.0014547924223916,-0.0001097017900856,8.047037425911318e-05,5.557964516275407,20.8735065887508,19.564476764329072,34.902594471719084
0.54,31.222206542860214,131.0104114378557,8.275340833501035,4.260053521790605,-3.5342337250154325,30.537646133733578,0.2279393962687311,2.7278938853420014,349.2703242098436,20.451444375576976,7.736211707815289,71.98873615222163,-0.0003815254610915,119.9996088983635,255.98380551413544,15.288,0.0,1.2668063719782248,0.0601050404877679,7.859765559441558e-09,-0.0015441008938792,-0.0001848069040885,8.678531556942624e-05,5.533157545470859,20.5935565631052,19.896640227179297,30.660091206765692
0.55,31.22220619685107,131.0104121474975,8.465684169338912,4.270217962888266,-3.48719071283455,32.375636022948804,0.2335624562064168,2.716505299943166,365.2500005919907,20.76811352679549,7.860102681944534,71.98782835642557,-0.0007678946243048,119.99920298410092,263.96763485205474,15.288,0.0,1.2716140983167104,0.0610358350159825,8.377974123869816e-09,-0.0016370614163943,-0.0002617419597092,9.343308132089933e-05,5.511146064568923,20.32759566302153,20.220685009887283,32.49024100181512
0.56,31.222205845219342,131.01041286820475,8.658916020427357,4.282243473057947,-3.44334663333864,30.20639529202166,0.2391277011111409,2.7050457954517007,346.2265619465787,21.072646133143927,7.98014187398901,71.98686634162114,-0.0012912607965549,119.99865301567996,271.7607129497023,15.288,0.0,1.2764043457041352,0.0619309671425073,8.891857601124493e-09,-0.0017337705450412,-0.0003405345253843,0.0001004017508424,5.492918603351969,20.07859574402868,20.53209203590381,30.328217411361287
0.57,31.22220548804209,131.01041359981056,8.854983416228825,4.292055478963098,-3.399320217399535,29.86619225083417,0.2448634411029677,2.693205932813804,343.1828296833023,21.38489778566579,8.102497733527052,71.9858479508437,-0.0019548476041078,119.99795560148598,279.86894193048454,15.288,0.0,1.2811748172386956,0.0628487909443736,9.401956856440272e-09,-0.0018342828935486,-0.000421177359082,0.0001077943280947,5.473160911385572,19.82944439054692,20.851247015569705,29.98837701285482
0.58,31.22220512529625,131.0104143423546,9.053903209054347,4.296992495557742,-3.3530346750228395,39.37831407575118,0.2509367256188754,2.680746613398427,426.1250058573153,21.718631708178,8.231445408943884,71.98477097846002,-0.0027619052090396,119.99710732190138,288.66689092858235,15.288,0.0,1.2859253455298054,0.0638297559616995,9.908830666173362e-09,-0.0019386996487963,-0.0005037005173593,0.000115706328275,5.4484763803802165,19.569430151083612,21.192238835173068,39.47025451012464
0.59,31.22220475655533,131.01041509670875,9.25597340033526,4.307004833623182,-3.312212009493932,31.888967373934936,0.2567667452901588,2.668473430669549,360.68438819711065,22.024071302433374,8.35151523382905,71.983633094209,-0.0037158923708819,119.99610453816832,296.83754765644863,15.288,0.0,1.2906631041887406,0.0647275721621231,1.0413024453347872e-08,-0.0020473346513504,-0.0005882984375261,0.0001239059421653,5.431423602999343,19.33820488793735,21.5040799944374,32.00145183874574
0.6,31.22220438204368,131.010415862402,9.461038503429911,4.3088112791626685,-3.2665646437535103,28.32126130980023,0.2631534339251251,2.6552590357700794,329.4859594986058,22.368716721781045,8.483679961407367,71.98243190830264,-0.0048203105806465,119.99494356565168,306.194378908535,15.288,0.0,1.2953834428762387,0.0657406187711548,1.0915167150277871e-08,-0.0021601765833882,-0.0006749079776637,0.0001327784103363,5.405198586769461,19.082796075406154,21.8558838717361,28.446678056581806
0.61,31.2222040017099,131.01041663953217,9.669135201711768,4.309070287454111,-3.221238843039061,33.21668507781569,0.2697126043577322,2.6416325158000125,372.0984511843297,22.71946194710797,8.617653463087583,71.98116495539243,-0.0060787416560111,119.99362063528442,315.86570872749905,15.288,0.0,1.3000870205953912,0.0667715994390435,1.1415889442784722e-08,-0.0022773574987793,-0.0007635778802712,0.0001421731927615,5.378186630156698,18.829659581396744,22.213737449005883,33.32265197724012
0.62,31.222203615674665,131.0104174278422,9.880180379430753,4.3210798787725615,-3.18597268122558,41.344331655598616,0.2755885328587067,2.6288355177555047,442.86563930529206,23.00599641917136,8.731590528080245,71.97982969344307,-0.0074948451590766,119.99213189578047,323.8766889506701,15.288,0.0,1.3047736898141593,0.0676138738915692,1.1915861024359489e-08,-0.0023989452747571,-0.0008543076369158,0.0001516495236863,5.366833114360185,18.62965630661107,22.505802859718084,41.42873984647602
0.63,31.22220322374439,131.0104182277239,10.094309887065554,4.328983342462256,-3.1488511182877064,23.366762425987574,0.2817781094109261,2.6154322135068604,286.11251274707894,23.31111149833584,8.851211001889155,71.9784235986445,-0.0090721414220518,119.99047364230536,332.5175932540479,15.288,0.0,1.3094401889773524,0.0685107626679546,1.241575893829976e-08,-0.0025251264137052,-0.0009471820979472,0.0001617397764145,5.35130655751342,18.42093936051868,22.816740072474182,23.514367328060036
0.64,31.22220282653372,131.0104190379014,10.31109656884232,4.330512167872539,-3.108316771369048,22.93604174621248,0.2884521285475971,2.601155176712843,282.30782441796754,23.64796531005617,8.980611494445718,71.97694409057361,-0.0108141805513337,119.9886421375294,342.18989753165675,15.288,0.0,1.3140879822696474,0.0695009374128985,1.2916366027962873e-08,-0.0026556633069652,-0.0010419768502167,0.0001725553718464,5.328842323778741,18.195093708385865,23.159951514620666,23.084870020595858
0.65,31.222202424022303,131.01041985840942,10.530555722024456,4.340721244433282,-3.075088477490876,40.67976704590725,0.2946002188203757,2.5875016611460664,436.7781447787475,23.93506568668364,9.09446858573302,71.97538858733652,-0.0127244221853305,119.9866337396078,350.54172510613665,15.288,0.0,1.3187056546324547,0.0703448943292943,1.3418421042108933e-08,-0.0027906867061256,-0.0011387402863457,0.0001835262734764,5.317887574494482,18.00863057468141,23.45226378236189,40.763039644322944
0.66,31.22220201567851,131.01042069033844,10.753058873712058,4.348376594600446,-3.041083654169152,34.5724508937211,0.3009766666369885,2.573354910731094,383.51251517160017,24.23306113367413,9.21162033518172,71.97375441108834,-0.0148063495658428,119.98444478462493,359.3169866374108,15.288,0.0,1.3233078242101206,0.071220878441957,1.3922646267283973e-08,-0.0029305957585465,-0.001237706521833,0.0001951225461705,5.304602027653754,17.818975801169028,23.755593087990786,34.66939721496756
0.67,31.222201601696387,131.0104215332805,10.978472013258504,4.350372216183383,-3.0041856336931554,23.740146886764983,0.3078150769355459,2.5583471871888928,289.1562440103425,24.55985454012676,9.337633617444713,71.97203884926178,-0.0170637095987514,119.98207132257312,369.0654349700122,15.288,0.0,1.3278949488574128,0.0721815066329893,1.44298573338373e-08,-0.0030753859510866,-0.0013388208427592,0.0002075196735874,5.2852167667622165,17.61480378664674,24.088174358445144,23.87958258967194
0.68,31.222201182252206,131.01042238686455,11.206673577044285,4.353514598814858,-2.969079181492124,29.693451240520663,0.3146416337531516,2.543189371354208,340.8999924858462,24.87789617606497,9.460841021926568,71.97023903053844,-0.019500209564978,119.97950945238848,378.6775664867287,15.288,0.0,1.332450790445932,0.0731164204579182,1.4940908836684122e-08,-0.003225073592628,-0.0014420453645686,0.0002204335132852,5.267973600505766,17.421099333108398,24.411723012655827,29.80382287743366
0.69,31.22220075742884,131.01042325091268,11.437607145595628,4.361397745861005,-2.9381299156798075,36.61239542085213,0.3211813724803374,2.528318396608643,401.0140726853634,25.166269633289406,9.574740879666615,71.96835210658864,-0.0221195039242247,119.97675532567445,387.4987761958925,15.288,0.0,1.3369878633826404,0.0739641460369937,1.545666921132238e-08,-0.0033797124114113,-0.0015473687550009,0.0002336755660057,5.257158436911327,17.250362313047457,24.70495151104576,36.700995215954194
0.7,31.22220032708228,131.01042412571576,11.671374363010909,4.368570968222559,-2.9075688034797693,30.670994803120664,0.3278293834402207,2.513124358744093,349.27032420985284,25.455706346106368,9.688882044747873,71.96637520674305,-0.024925199071441,119.9738051443756,396.4543615944648,15.288,0.0,1.3415079080868813,0.0748150033621271,1.5978005664767634e-08,-0.0035394994569889,-0.0016548756827635,0.0002475323498167,5.2461392744379305,17.082575941845587,24.99918250708439,30.775529050858157
0.71,31.222199891267778,131.0104250111532,11.907938110195994,4.371951831426771,-2.875325055247507,25.163954145521,0.3348276387388281,2.497213091133516,301.33126406340574,25.76438220771328,9.808916100904996,71.9643053725158,-0.0279209873579073,119.97065501934924,406.118240449054,15.288,0.0,1.3459979311355807,0.0757224120879786,1.650584147925641e-08,-0.003704504642268,-0.0017645637087086,0.0002622074173435,5.231195120300803,16.906793262891743,25.31291675670278,25.289776017356807
0.72,31.222199449986263,131.01042590721653,12.147299137351876,4.370872694135926,-2.841039649281708,30.86215905397685,0.342250901871982,2.480453737876074,350.79220534145287,26.09698127463604,9.936300503221991,71.9621395217068,-0.0311106262054936,119.96730099515018,416.66171286571546,15.288,0.0,1.3504681502159768,0.0767001393955249,1.7041126546565275e-08,-0.0038748498491076,-0.001876464832894,0.0002777987363934,5.211561012210664,16.720828437862544,25.650894663000223,30.96356968920962
0.73,31.22219900323328,131.01042681390842,12.389462036030826,4.378916601281167,-2.813477127441576,39.10345028118272,0.3490166453920661,2.464590455036776,422.320318528234,26.37279228933896,10.04593936100664,71.95987457838085,-0.034498029802059,119.96373894319989,425.5054981254602,15.288,0.0,1.3549212201389624,0.0775109714797323,1.7584823593696564e-08,-0.0040506745795819,-0.0019906221622508,0.0002934664666622,5.203378119941174,16.571871468695146,25.931029918518416,39.18259617001849
0.74,31.222198550940902,131.0104277313632,12.634475599699936,4.383433086609972,-2.7843821322469378,24.39356577504389,0.3561248333436503,2.448010575554457,294.48281347105944,26.666759045589423,10.161132866013324,71.95750736989932,-0.0380869405020424,119.95996492286828,435.0340021649166,15.288,0.0,1.359351588122382,0.078375171304894,1.813793699804818e-08,-0.0042321169361382,-0.0021070748777986,0.0003100221271358,5.191544600967233,16.415576884448765,26.229561453819432,24.518679244534013
0.75,31.22219809348802,131.01042865879205,12.882077495080765,4.385543134764686,-2.754486323029192,28.51866651038305,0.3634994630510629,2.430823911262117,330.24688556441487,26.972705583920547,10.27996755258298,71.95503470126528,-0.0418811337553305,119.95597495506496,445.0629339974079,15.288,0.0,1.3637525161503927,0.0792745876039533,1.8701554634673166e-08,-0.0044190171864895,-0.0022256729892663,0.0003274195988799,5.177389146837499,16.255868687388045,26.5401985301329,28.624384295171236
0.76,31.222197630756234,131.01042959643402,13.132351779354144,4.3906166363630685,-2.727152897196009,30.717259193897675,0.3706894907260179,2.413776413410753,349.27032420986166,27.257811054826977,10.392233289221698,71.9524533068656,-0.0458843393308993,119.95176511121502,454.51049760608896,15.288,0.0,1.3681332020506696,0.0801127578804214,1.9276718372951572e-08,-0.0046115900299236,-0.0023465059836625,0.0003452913509129,5.1672344066594285,16.11089632245132,26.829592613958745,30.814180820809824
0.77,31.222197162683333,131.0104305444121,13.385343399603451,4.396114938567194,-2.700738485543056,28.707631578148185,0.3779035208212204,2.3965263191318087,331.7687666960708,27.53733901877967,10.502675103925723,71.94975997228778,-0.0501003465055001,119.94733139175376,463.8690066260471,15.288,0.0,1.3724941239835369,0.0809345426132406,1.986449663119664e-08,-0.0048100001284291,-0.0024696289834956,0.0003638317032981,5.158051374830928,15.971780536997104,27.11326509016592,28.809968071763485
0.78,31.2221966893362,131.01043150258266,13.641007433630811,4.398271559850781,-2.672915573227164,23.53894672725245,0.3854745673491518,2.378506563393048,286.8734378128899,27.83491738727099,10.618645020260084,71.94695126686364,-0.0545329210016676,119.94266983127332,473.93700970363886,15.288,0.0,1.3768301022790814,0.0818093863047298,2.0466031965289943e-08,-0.0050143002481469,-0.0025950266420274,0.0003833743824628,5.14540856096828,15.825854665177935,27.415209066973883,23.661950408675224
0.79,31.22219621080664,131.01043247075071,13.899281669051994,4.3983750367199566,-2.6444890629317888,33.547705666974785,0.3933035916674201,2.3598715132550567,373.6203323159534,28.142960394401143,10.737786213305316,71.94402384489891,-0.0591859002802742,119.93777637800792,484.4729547085386,15.288,0.0,1.3811380218573563,0.0827149941054028,2.108247795691384e-08,-0.0052245392528671,-0.0027226820814368,0.000403859052202,5.13081676863218,15.677480672334752,27.72771249334592,33.632904079075054
0.8,31.22219572685907,131.01043344939805,14.160331900529238,4.403829977254475,-2.619882482248095,33.99461783582656,0.4007125386987557,2.341784705833943,377.42502064505743,28.41413378134459,10.845364252195385,71.94097413092113,-0.0640632036575794,119.93264690127108,493.8418980751152,15.288,0.0,1.385427665889076,0.0835122459585462,2.1714978948566e-08,-0.0054410571152823,-0.0028527534334803,0.0004246380079511,5.122887776377066,15.550879376308544,28.002746994864697,34.07753758637858
0.81,31.222195237600648,131.01043443829826,14.42408528604793,4.405264935298513,-2.5934682254250405,22.06215587687992,0.4085592490293131,2.3227725906542034,273.9374926939919,28.7082640241072,10.9599984465424,71.93779851248549,-0.0691687142633108,119.9272773073096,504.10610192549774,15.288,0.0,1.3896968312852684,0.0843769779901051,2.2364780360967883e-08,-0.0056638628113804,-0.0029851968054599,0.0004465908439987,5.110692299697707,15.41513563219703,28.30102208614124,22.187855126253396
0.82,31.222194743229608,131.0104354370364,14.690405597876785,4.4048414674830525,-2.5665482899430248,28.39041051939085,0.4166599151742578,2.3031395271789887,328.72500443277005,29.01194731288502,11.077522597103371,71.93449344586108,-0.074506332316766,119.92166347570962,514.8144681340978,15.288,0.0,1.3939435940948852,0.0852697952523633,2.3033149852759207e-08,-0.0058929115497963,-0.0031199386028165,0.0004695543334304,5.096745439110233,15.277356676836302,28.608929662109368,28.486724392708016
0.83,31.22219424372684,131.01043644564723,14.959308019088352,4.411006226234003,-2.543984060712916,36.12766385109361,0.4241881298485203,2.2843332461184,395.68750322465047,29.26958211083005,11.180625047431162,71.93105515731703,-0.0800799473491262,119.91580130691833,523.984948560439,15.288,0.0,1.3981656018532953,0.0860272776215076,2.3721362484048493e-08,-0.0061283662051738,-0.0032570283306897,0.0004926393130242,5.090779705502266,15.164544609150909,28.87010531663107,36.20229563558701
0.84,31.222193738978504,131.0104374643624,15.230873693275232,4.415450149901862,-2.5209101750923657,22.25204408298693,0.4319386357439852,2.264964048840277,275.4593748256452,29.5353934846798,11.286183991906432,71.92747999242887,-0.0858933682065755,119.90968677786849,533.5313752827477,15.288,0.0,1.4023623283479194,0.0868087993363876,2.443069386104667e-08,-0.0063704295942589,-0.0033965355332639,0.0005167351325003,5.083168403944592,15.049796841998637,29.13953758816107,22.371189038555393
0.85,31.2221932292968,131.01043849253148,15.504887150538249,4.413897600494316,-2.494930872863608,24.27852159867133,0.440361436195195,2.244218402871234,292.96093233939376,29.83846141592368,11.403264436089456,71.92376425615255,-0.0919503799772886,119.9033158888108,544.5225431689237,15.288,0.0,1.4065350905919038,0.0876998310172254,2.5162528392034595e-08,-0.0066189232020196,-0.0035383108045815,0.0005423864702736,5.0690089539499406,14.919627304090609,29.446682429939763,24.386001013930596
0.86,31.22219271449542,131.01043953053613,15.781480086795554,4.416250024567644,-2.471656813887407,30.43853456013584,0.4484584501919471,2.223872416883576,346.2265619465587,30.112559941401607,11.511237353051705,71.91990399325512,-0.0982548765731181,119.89668453297632,554.5578176478813,15.288,0.0,1.4106867739118456,0.088505724978322,2.5918196416374693e-08,-0.0068741801806167,-0.0036824984204861,0.000568462908285,5.059668693946824,14.805308660566473,29.724433402781035,30.522960368822485
0.87,31.222192194598914,131.01044057832175,16.060637402257083,4.420285850171445,-2.4497771198146108,28.334595892953377,0.4564409793887455,2.203555384309028,327.964078366998,30.372162111922886,11.61460808616078,71.91589533549083,-0.1048107284939533,119.88978861920629,564.1456610064881,15.288,0.0,1.414817173476364,0.0892690192686409,2.6699091539611103e-08,-0.0071363016589941,-0.0038291078112761,0.0005952108093204,5.052565899499136,14.699589703360786,29.987469258442182,28.42381605478675
0.88,31.222191669644136,131.01044163580863,16.342335436555103,4.421175458284014,-2.4266032620045563,24.47007973497825,0.4648205596067873,2.1823356478584146,294.4828134710418,30.650293200356977,11.723668109487075,71.91173433756892,-0.11162176485347,119.88262410100036,574.5096806081721,15.288,0.0,1.4189253033035287,0.0900867808055084,2.7506649819152888e-08,-0.0074053494974316,-0.003978126143463,0.0006232902659927,5.042172417924552,14.58737153181182,30.269237192490383,24.571598427223652
0.89,31.222191139716816,131.01044270281568,16.626516572393236,4.418982911729707,-2.402202522208967,26.8513028346224,0.473608156398342,2.160177902744961,315.028134248087,30.94705823862521,11.8384555244459,71.90741697369955,-0.1186918316651012,119.87518691328144,585.6726934563053,15.288,0.0,1.4230108285737677,0.0909593188284195,2.8342341669376653e-08,-0.0076813805988975,-0.0041295384011928,0.0006527651417241,5.028572279788888,14.468946033090472,30.56983168743709,26.942218490204468
0.9,31.22219060473589,131.01044377950754,16.913239329290402,4.423545113570524,-2.381884864741151,29.673870652380725,0.4817196105520329,2.1390783394243287,339.37814235421445,31.193769395080373,11.937556055812728,71.90293913221976,-0.1260248885494536,119.86747286772616,595.0315406785778,15.288,0.0,1.427073069833726,0.0916847466802444,2.9207632659159578e-08,-0.0079646283847287,-0.0042834259229111,0.0006822125644857,5.022932282361159,14.374377711133066,30.819731553096183,29.754769523886534
0.91,31.22219006477553,131.01044486572772,17.202454171315974,4.425002026547751,-2.360286261960318,22.548587980548007,0.4902350874269336,2.117044172567291,277.7421810230789,31.459105657102867,12.042380203820043,71.89829662279168,-0.1336246861358244,119.85947800235267,605.1805383786549,15.288,0.0,1.4311105473494063,0.0924649249258615,3.0104067772447005e-08,-0.0082551245258036,-0.0044397579155749,0.000713089886438,5.014031545596993,14.27334775566189,31.08845761098004,22.653057771216222
0.92,31.22218952004903,131.01044596103108,17.494014754152005,4.423440307249559,-2.337486427989819,26.86872214878084,0.4991631939642477,2.0940445546854423,315.02813424806214,31.74299890795432,12.15291569572152,71.89348526866945,-0.1414950031996931,119.85119831856008,616.1351089408574,15.288,0.0,1.4351242763245544,0.0932996538029934,3.1033245351801165e-08,-0.0085527504120524,-0.0045984250992931,0.0007454454493687,5.001980195765462,14.166186938904008,31.3759292422333,26.954821765309493
0.93,31.22218897045952,131.010447065616,17.787990681020705,4.428058056291569,-2.318319803862209,31.983992987925976,0.5074355911672828,2.072087969271013,359.1625070654728,31.979641460623984,12.248631418987348,71.88850090009542,-0.1496396361189881,119.84262979330455,625.3382116008861,15.288,0.0,1.4391163312948416,0.0939955100860608,3.1996691640333015e-08,-0.0088577804914596,-0.0047595283024542,0.00077776493141,4.99715907951588,14.080494300220249,31.61557999654475,32.05505961440844
0.94,31.22218841588984,131.0104481797237,18.084465681654084,4.426585428298124,-2.296337903120158,23.179114554574348,0.5164865390565753,2.048465469767345,283.0687504837787,32.25695245168568,12.356954885094412,71.88333922340098,-0.1580622574588455,119.83376853993164,636.2123401330897,15.288,0.0,1.4430866688864463,0.0948109079360764,3.2995992422477386e-08,-0.0091704263084185,-0.0049231312779711,0.0008121763642943,4.985712526252453,13.97941718958514,31.896341097045905,23.27518680182688
0.95,31.22218785664608,131.01044930271652,18.38322892704709,4.425690379482633,-2.2750285592071333,30.059076986751737,0.525538345196858,2.024639051849454,342.4218736174873,32.52724622843914,12.463015791561066,71.87799582428366,-0.166766676485883,119.82461052395146,646.9005991101897,15.288,0.0,1.4470336952695364,0.0956056883687744,3.403286590055284e-08,-0.0094904985258896,-0.0050890896332783,0.0008475422342984,4.975157430303951,13.882872422974277,32.16997947458412,30.131768337387935
0.96,31.22218729241672,131.01045043523956,18.684499480071462,4.427779797804658,-2.255598410260865,29.44845269807177,0.5342884465687131,2.001194367785565,337.09533515678345,32.772503680909566,12.561179622172922,71.8724662224695,-0.1757566362989254,119.815151781637,656.6737171451956,15.288,0.0,1.4509605162739068,0.096326888637592,3.510889758629024e-08,-0.0098185039301722,-0.005257618960823,0.0008834203486276,4.968181248780036,13.797870583447546,32.41828662252133,29.521206095828198
0.97,31.22218672322217,131.01045157724892,18.988265384222004,4.428054070202811,-2.235577687599908,18.78366104445365,0.5433232293975367,1.9770029489865897,245.02188719299323,33.027848221236944,12.662412211427563,71.86674593585143,-0.1850359637929403,119.80538825194272,666.9269730822068,15.288,0.0,1.4548667514005726,0.0970777452125383,3.622580066728172e-08,-0.0101545483756816,-0.0054287246046988,0.0009207477831143,4.959386566047873,13.710175427660564,32.67677359552859,18.89522857826362
0.98,31.22218614936681,131.01045272811055,19.29431711312271,4.422534005207762,-2.212989541053013,27.43230712231964,0.553166783022011,1.9510280153375008,319.5937466429581,33.32348308232737,12.776161067971245,71.86083028576297,-0.1946083960035458,119.79531597649124,678.8998835385268,15.288,0.0,1.4587497582394424,0.097947033976969,3.738542654583578e-08,-0.0104983666022587,-0.0056022251703877,0.0009604154684728,4.944329974592408,13.608213136470845,32.97595392103826,27.507162301112405
0.99,31.222185570693103,131.01045388815032,19.60276659994929,4.426252002954982,-2.1953375788623863,29.99697572282186,0.5618810739145934,1.9270542408078448,341.6609485517054,33.54669080014392,12.867204538720888,71.85471463803309,-0.2044777728266193,119.78493087666082,688.0047897888616,15.288,0.0,1.462612497103636,0.098603447054595,3.8589477988433854e-08,-0.0108503561528918,-0.0057782751621524,0.0009992354576378,4.93979974882169,13.535673225616597,33.201932351080075,30.064061616884086
1.0,31.22218498719917,131.0104550573718,19.913617484328512,4.424329127449664,-2.1751944555994327,26.825980504375583,0.5713913120205448,1.9013107740452928,314.2672081822764,33.809134416194645,12.970434354068836,71.8483942695543,-0.214647640664469,119.7742291922238,698.790879468672,15.288,0.0,1.466453803704697,0.0993751934734456,3.983977460044863e-08,-0.0112105881765178,-0.005956861324812,0.0010404558148162,4.92917338374501,13.449283035230104,33.467537740460536,26.89934387140497
1.01,31.222184399074745,131.01045623537925,20.22674007839245,4.423135558289034,-2.155716996171976,28.067572353300104,0.5808659130913649,1.8754243299254645,324.9203161036979,34.06291077877984,13.070885381436264,71.8418644277635,-0.2251217225903532,119.76320696541924,709.2993742565859,15.288,0.0,1.4702731397164437,0.1001214721253085,4.113820203253264e-08,-0.0115789823354436,-0.0061378975102336,0.0010826804079881,4.919553616327536,13.367448339122436,33.72437143034223,28.13615537762763
1.02,31.22218380623873,131.01045742234095,20.54219315664844,4.423179467710441,-2.1371318772809675,23.393068855692444,0.5902257495586803,1.8495549180453883,284.59063161540416,34.3038760104706,13.167257749573462,71.83512029485513,-0.2359035932224118,119.75186039773352,719.348416961397,15.288,0.0,1.4740714481830592,0.1008301026786629,4.248659392206734e-08,-0.011955775735838,-0.0063214532397114,0.0011257862113547,4.911493817287105,13.291541979424853,33.96825395738395,23.473493355644273
1.03,31.222183208762576,131.0104586181083,20.859929388510416,4.419312155439728,-2.116953458590655,19.069369092746687,0.6001873581575241,1.8222612964379,247.30469339049705,34.571889439217614,13.27202486559265,71.82815703912325,-0.2469967483858486,119.74018577051584,730.6104530394471,15.288,0.0,1.477848045796382,0.1016182445124367,4.38868653887676e-08,-0.0123409858015735,-0.0065074895801816,0.0011711018997926,4.899277531217984,13.206861225753416,34.23943482080286,19.16563848904571
1.04,31.22218260671037,131.01045982254726,21.179906590116843,4.418828681415045,-2.0986756665871384,30.4710835559282,0.6097362911649756,1.7955782236021307,345.46563688072297,34.81032375734167,13.367469208146524,71.82096963559117,-0.2584047889256539,119.72817925451008,740.7001426107649,15.288,0.0,1.4816034783296164,0.1023194514624241,4.5340969342218326e-08,-0.0127346949296841,-0.0066960002243823,0.0012167601510486,4.890986580118434,13.134090103398757,34.48073826516536,30.530031322849894
1.05,31.222181999783714,131.0104610362808,21.502334761245976,4.41515304535827,-2.079163331804279,18.281104145898503,0.6198003052033064,1.7676288911815807,240.45625879819983,35.07044281245427,13.469630401468462,71.81355316296961,-0.2701312204294203,119.7158371118886,751.7879364900444,15.288,0.0,1.4853398220008356,0.1030844054197884,4.6850750556227684e-08,-0.0131374504557735,-0.0068871975947559,0.0012645827725665,4.879337641021742,13.054615379606934,34.74392027383995,18.376817817795807
1.06,31.22218138823009,131.01046225879298,21.827044176537544,4.40874302079434,-2.058656010764156,26.152444653884977,0.630338908345513,1.7384760359974585,308.17968365593924,35.349230928370346,13.577578516293428,71.8059023225417,-0.282179673419263,119.7031554816934,763.7641121006213,15.288,0.0,1.4890554936785425,0.10390424277604,4.8418343157736584e-08,-0.013549035593542,-0.0070809301770774,0.0013145276596102,4.864844422159759,12.969762363270112,35.02592757233953,26.217741844820054
1.07,31.222180771928105,131.01046349033757,22.154121750962304,4.408069379291948,-2.041091051808881,30.84459075710853,0.6400908818504624,1.7107054648691544,348.5093681440308,35.578898960595986,13.670070443933437,71.79801186646702,-0.2945538655540814,119.6901303976483,773.696572800277,15.288,0.0,1.4927526364883783,0.1045797066211955,5.004574213951868e-08,-0.0139698336460925,-0.0072773298994674,0.0013641165259848,4.8568410218114,12.903192406152286,35.25835293622564,30.898624702372537
1.08,31.222180150772424,131.01046473113584,22.483643195357047,4.405968077189007,-2.0231129662715674,20.679420187179176,0.6501101974716509,1.6821571665166433,261.00157857466235,35.8163834626879,13.764940161393673,71.78987638992777,-0.3072573034685062,119.67675812501174,784.0348752097034,15.288,0.0,1.4964314893908257,0.1052781539738713,5.173501929929056e-08,-0.0144001097774792,-0.0074764687668742,0.0014154727725829,4.84741880744676,12.834804522127971,35.49865965341697,20.757907295284696
1.09,31.222179525049768,131.01046598059017,22.815411533552275,4.397344078557744,-2.0024129538366355,19.00211607556396,0.6611983660765129,1.6511471925135266,246.54375332474407,36.10361618738176,13.875353482336983,71.78149058107724,-0.3202935145648396,119.66303489268564,796.6351898101053,15.288,0.0,1.5000898841875432,0.1061228389551514,5.348842459690745e-08,-0.0148395397046573,-0.0076781471680497,0.0014703180201227,4.830985011995603,12.750500056485444,35.78914192232791,19.0851744995914
1.1,31.222178894839097,131.01046723853642,23.14937434320443,4.39182388801239,-1.9833928043283653,38.38725561619911,0.6718796584625968,1.6207337637940535,413.1890617385841,36.36250861967157,13.976826507687836,71.77284891653821,-0.3336659825741082,119.64895698116013,808.0752820596458,15.288,0.0,1.5037285404789555,0.1068842292446189,5.530814111262056e-08,-0.0152881986282472,-0.0078823523118364,0.0015255848549173,4.818117475784733,12.6769349244744,36.051020225582135,38.42732873817757
1.11,31.22217825972193,131.01046850585175,23.485825193454204,4.392704661366386,-1.9674871909909013,28.038462314863608,0.6815908251547154,1.592120650309598,324.1593910376397,36.5647998106487,14.06046491717173,71.7639457426719,-0.347378211349471,119.63452064827464,817.0648223903743,15.288,0.0,1.507350934108468,0.1074792535539505,5.719619065879089e-08,-0.0157469363574589,-0.0080894192844254,0.0015800522620352,4.8124081412406685,12.623063545257022,36.25580837961169,28.091898889183412
1.12,31.222177619763336,131.01046978240302,23.82472126271354,4.3811291109642125,-1.9462612530106609,10.423458656590592,0.6933837272453987,1.5588633063810204,172.73281794065943,36.867104969303405,14.175444048143984,71.75477556372118,-0.3614335566086671,119.61972229593144,830.6040540804291,15.288,0.0,1.5109554886889531,0.1083682694089365,5.915485624618413e-08,-0.0162157310485048,-0.0082992831446706,0.0016404900871621,4.7932076035219415,12.5371347745388,36.56144575634601,10.562164842817179
1.13,31.22217697557753,131.01047106690504,24.16563802265059,4.376058716589888,-1.928171727971528,33.098726079452504,0.7041810443532044,1.5274529237095635,367.5328077900705,37.11197609316872,14.272344545605083,71.74533237828875,-0.3758356958669359,119.6045579923516,841.6468712766723,15.288,0.0,1.5145398182381449,0.1090884705901697,6.118674938623055e-08,-0.0166937750668421,-0.0085115356154427,0.0017000138433329,4.781265891965576,12.471025485741492,36.80915675214542,33.14143405859205
1.14,31.22217632647625,131.01047236080282,24.509056514285817,4.375511830257006,-1.9122837304572875,18.22247023610232,0.7142637220752471,1.4973222431245414,239.69531773195544,37.314623383040974,14.355906102524788,71.73561046228183,-0.390587772031798,119.58902436790342,850.8354038820605,15.288,0.0,1.518108674685716,0.1096845654575151,6.329381462991267e-08,-0.0171823958249871,-0.0087267132255358,0.0017592691074494,4.774392187153292,12.419224716015547,37.01429832137002,18.297829599984347
1.15,31.22217567296465,131.010473663041,24.85462798691346,4.362329820002425,-1.8911175478359767,17.95944651059454,0.726564057546295,1.4621677657715386,237.41251153546767,37.62148454160784,14.472191437151944,71.72560419081645,-0.405692891468822,119.57311807693296,864.8581236095204,15.288,0.0,1.521657736059254,0.1105870005446572,6.54786625319235e-08,-0.017680770379178,-0.0089444007450038,0.00182512322295,4.753875618453249,12.335112736907751,37.32448242492704,18.033511828589734
1.16,31.222175015185528,131.01047497332155,25.202255781892013,4.362572839872974,-1.875973954769188,47.39112571508191,0.7365911715670468,1.4316486227527467,490.0437743845894,37.80964708688532,14.551095734184829,71.71530737281067,-0.421154445235732,119.55683548406864,873.5017047763079,15.288,0.0,1.5251860745509769,0.1111405335864653,6.77437484933934e-08,-0.0181889274582921,-0.009164564340077,0.0018869061106415,4.748106564864374,12.28923795974134,37.51502243498644,47.418466665169156
1.17,31.22217435223556,131.01047629354585,25.55257024837293,4.356069219520994,-1.8581301977343352,8.213722095199179,0.7478429458222605,1.3982178060409902,153.70937929486794,38.05182462162056,14.64692603383677,71.70471423432025,-0.4369753543633613,119.54017343734016,884.697638852803,15.288,0.0,1.5286980146577511,0.1118528507287397,7.009098418634204e-08,-0.0187086059728147,-0.0093878992364948,0.0019531827356196,4.735116840460792,12.227124943114104,37.76000137250272,8.365375829089174
1.18,31.22217368530664,131.01047762121365,25.904745462942845,4.340627266209704,-1.8367178314096493,22.93542320737012,0.7607807965951288,1.3608177332622913,280.02501822196746,38.36912359896669,14.766396442345725,71.69381863565941,-0.4531587363928005,119.5231285772728,899.4830053252898,15.288,0.0,1.5321883554032376,0.1127859952639729,7.252355591392963e-08,-0.019237670710002,-0.0096134369043177,0.0020250960954449,4.7125492705384495,12.142882233276676,38.08066204821118,22.988350311077156
1.19,31.22217301386236,131.01047895745492,26.25915684847715,4.344228184553062,-1.823544175975532,40.23808487497644,0.7702821927676746,1.3306780669463445,428.4078130529292,38.51506366274557,14.831826879084392,71.68261427032925,-0.4697077833250794,119.50569746329596,906.307675679848,15.288,0.0,1.5356632934179235,0.1132154387416679,7.50435917693291e-08,-0.0197774925942836,-0.0098417137089256,0.0020897692548365,4.71075968179761,12.111551736622095,38.22867036939327,40.26744979732581
1.2,31.22217233744221,131.01048030324517,26.61612676046065,4.332114034580775,-1.8039748011928871,3.956501287536737,0.782736042986449,1.293764092632302,117.1843741360236,38.79578216699634,14.939682666822884,71.67109519852688,-0.4866250680419367,119.48787730351049,919.5356051593031,15.288,0.0,1.5391232544377664,0.1140410731913095,7.765337095954197e-08,-0.0203289407265178,-0.0100730362854897,0.002163619337746,4.692049962912861,12.04008491797008,38.51246128374672,4.235611370115845
1.21,31.22217165723956,131.01048165607534,26.97482862148636,4.320598907679673,-1.7848753614461912,32.26835261283513,0.7951513412922013,1.256629567719246,359.92343213200894,39.0682942072759,15.044945757984808,71.65925491406271,-0.5039137006180111,119.46966473486276,932.466976942401,15.288,0.0,1.5425624430118028,0.114842593357463,8.035625745104266e-08,-0.020889838168595,-0.0103064431636888,0.0022388559581361,4.674111004622788,11.972019429256331,38.787971985762745,32.302599955302185
1.22,31.2221709723468,131.01048301786193,27.335895505722647,4.322186970405283,-1.7713539192671632,23.30903236937548,0.8050698547750398,1.2247787782557256,283.0687504825761,39.21847340098675,15.11154240970006,71.64708713122391,-0.521576349855208,119.4510568578706,939.6170027721668,15.288,0.0,1.5459878676397592,0.1152845200298986,8.315417801722517e-08,-0.0214623012048048,-0.0105427629191881,0.0023089712998251,4.670443280473547,11.940609908525538,38.94027409992995,23.35506819778797
