Time,Latitude,Longitude,Altitude,Angle of Attack,Angle of Sideslip,X-Acceleration,Y-Acceleration,Z-Acceleration,Thrust,True Velocity,Ground Velocity,Pitch,Roll,Yaw,Dynamic Pressure,cp,cg,parachute_deploy_gain,Wind Speed,Wind Direction,Mach,omega_x,omega_y,omega_z,Cmq,Angle of Attack(total),Angle of Attack(gust),True Velocity(gust),Acceleration
0.0,31.222216000000007,131.010392,3.000000004412624,0.0,0.0,0.0,0.0,0.0,2.2828121974499247,0.0,0.0,69.99999999623412,0.0,119.9999999935444,0.0,1.274,1.0271675151847728,0.0,0.0,0.0,0.0,0.0,0.0,0.0,-0.0,0.0,90.0,0.0,0.0
0.01,31.22221599999084,131.01039200000497,3.000002745347096,0.0,0.0,0.0,0.0,0.0,34.242186961749226,3.465174813755316e-14,2.8705476994166025e-14,69.9999999962611,-2.1713911667908447e-11,119.99999999352175,7.352495975525499e-28,1.274,1.0271659134330349,0.0,0.0,0.0,1.0183245502395064e-16,-3.3305335486039093e-18,7.169286865560398e-18,5.624298769768554e-18,-7.715917190115602e-34,0.0,89.99999999999979,3.465174813755316e-14,0.0
0.02,31.222215999994315,131.0103920000094,3.0000030495639742,0.0,0.0,0.0,0.0,0.0,25.871876237766216,3.8197434737535036e-11,2.4171837235633357e-11,69.99999999628672,-1.1921727947863515e-11,119.99999999353136,8.93414285188691e-22,1.274,1.027164492361118,0.0,0.0,0.0,1.1225230367947217e-13,-6.657678965418802e-18,1.4338573731120796e-17,1.1241821275959074e-17,-1.7010872994127372e-30,0.0,89.99999999975682,3.8197434737535036e-11,0.0
0.03,31.222215999994315,131.0103920000094,3.0000030495639742,0.0,0.0,9.81877837424427,-2.5122800045972096e-05,3.3498614629347925,180.34219359854663,1.2659015405517447e-10,1.1364406173918436e-10,69.99999999631459,-1.6431898037347223e-11,119.99999999352724,9.812605835254651e-21,1.274,1.0271551940870716,0.0,0.0,0.0,3.720154642239108e-13,-9.991600645811728e-18,2.150108433310316e-17,1.6859343782149594e-17,-8.453698244545225e-30,0.0,89.99999999919412,1.2659015405517447e-10,10.374487003414373
0.04,31.222215999994315,131.0103920000094,3.0000030495639742,18.83801224594347,-0.0001111777826462,48.68248476615645,-1.016330065874988e-05,3.3497854396877287,548.635972453808,0.1556173050466994,0.0975908358443652,69.99999999633813,-2.0932768807056278e-11,119.99999999352085,0.0148286043323172,1.274,1.027133720825283,0.0,0.0,0.0,0.0004573186944143,-1.3322134194415637e-17,-1.04744143520903e-11,1.336824254131964e-11,5.0626055458604615e-15,18.83801224625964,89.06236267790787,0.1555998412814392,48.79759610369246
0.05,31.22221599164764,131.01039201704114,3.002326315126219,5.772385609593056,-4.395076213712875e-06,71.20344550265034,4.905512691849684e-05,3.349217396035405,761.6984298824663,0.8326471944351852,0.3620326097059287,70.00000001316391,-1.0866255162484559e-10,120.00000000231074,0.4245281043148827,1.274,1.027093426565204,0.0,0.0,0.0,0.0024469331205246,-5.0245994431125096e-18,-7.32924164976824e-07,2.217344936947165e-11,1.895424184525467e-09,5.772385609594774,84.74112356985832,0.8326465040582279,71.28217104309611
0.06,31.22221596664444,131.01039206837547,3.015081730143309,4.056581213689704,3.169093567502233e-05,53.16249142470188,0.0001203825427859,3.3481235983850643,590.4875390737236,1.657216205300742,0.6755452977614796,69.99999964391398,-3.9285905645317736e-10,120.0000000287861,1.6816755551786196,1.274,1.027050317124926,0.0,0.0,0.0,0.0048701272653724,3.095757869075056e-13,-7.483541766772344e-06,3.074135420506017e-11,3.8518749565858254e-08,4.056581213813337,79.59316473687034,1.657221183301277,53.26781792157489
0.07,31.22221592883117,131.0103921460222,3.034593611434361,4.115662018628709,6.450869598349036e-05,81.18203554989698,0.0001593212642178,3.347059402768047,855.2937749779172,2.099899704220947,0.8579771146174259,69.99999543281565,-8.233801910783518e-10,120.00000006883089,2.700101932075157,1.274,1.027003201295312,0.0,0.0,0.0,0.006171060252819,3.4704292086287e-12,-2.6327204536316785e-05,1.9541142932033486e-10,1.7170712165327165e-07,4.115662019133419,76.90111966094352,2.099909837223217,81.2510043180746
0.08,31.22221588914193,131.01039222747755,3.0542761843835606,3.459696193892355,8.037433511260004e-05,16.298214211652088,0.0002413456836072,3.344878926597744,241.2171988638792,3.051964775152957,1.2149999716613011,69.99998042886442,-1.0128995578004475e-09,120.00000011111383,5.703497661025892,1.274,1.0269597189470347,0.0,0.0,0.0,0.0089689344021769,1.458982438104473e-11,-5.702803872814215e-05,7.043261397829576e-10,5.405702492731987e-07,3.459696194824858,71.30331929508368,3.051977400323993,16.63790856991177
0.09,31.2222158241468,131.01039236098703,3.0886872184095737,4.313676956300389,0.0001337561018991,50.35975918308536,0.0002293282821279,3.344215841840564,563.0937377043203,2.893161298572128,1.191209213966114,69.99994788602814,-7.098432023887522e-10,120.00000018106356,5.125380275808925,1.274,1.026918932011013,0.0,0.0,0.0,0.0085022553945842,3.8672912027154325e-11,-0.0001115933708951,2.016054215232918e-09,1.0027525988343615e-06,4.313676958370176,72.2316578138625,2.893182308931483,50.47067588835877
0.1,31.2222157788302,131.01039245392113,3.109877853389092,4.035124630954496,0.0001457499816535,47.804664812504015,0.0002878217657545,3.341734392237128,538.7437595981891,3.5677148583138303,1.4531247507621967,69.99988403958329,1.9248461973355822e-09,120.0000002323013,7.7939962029572305,1.274,1.0268846934974103,0.0,0.0,0.0,0.0104845969583028,8.579678749070606e-11,-0.0001726817043215,3.984565639703107e-09,1.913455350430327e-06,4.0351246335824245,68.43243098813296,3.567737752667411,47.92132267234452
0.11,31.222215703308,131.01039260899836,3.148841432727305,4.043401107254707,0.0001752764476999,37.67622367577205,0.0003286462930162,3.3392563999062723,442.86563930529127,4.034183355956686,1.6436552022667772,69.99978525353545,7.302513231814865e-09,120.00000031883242,9.96528118825134,1.274,1.026848594915519,0.0,0.0,0.0,0.0118554331868328,1.5870341853361987e-10,-0.0002596204409236,7.232030302688121e-09,3.252930323390323e-06,4.04340111104746,65.92012987243639,4.034210888316708,37.82391391539392
0.12,31.222215627491828,131.01039276462643,3.186995101203875,4.17874459224363,0.0002066711490009,41.15991989399172,0.0003576945202315,3.336766085769504,475.58594813540793,4.361857560629481,1.7865750500940407,69.99963665601238,1.781774420198147e-08,120.00000041104812,11.649831899889556,1.274,1.0268114448194128,0.0,0.0,0.0,0.0128183893919737,2.682972478760441e-10,-0.0003710216542429,1.2215991071490164e-08,5.026311388647148e-06,4.178744597345269,64.21681651392016,4.361890024457652,41.29495143136631
0.13,31.22221554594398,131.01039293200228,3.2277173449026786,4.202734874672792,0.0002327160860324,45.44886120763352,0.0003953741266062,3.333578629398489,515.9156326236897,4.792165672014363,1.9646716520715424,69.99942424225341,3.613383418913551e-08,120.00000051758742,14.061726603124043,1.274,1.026779572895131,0.0,0.0,0.0,0.0140829618979635,4.248908088871395e-10,-0.0005056103199642,1.908859219307828e-08,7.5253154423526356e-06,4.202734881104192,62.048594618540655,4.792202226971676,45.570952718869485
0.14,31.222215454191247,131.01039312033683,3.2737880595608355,4.184830647080848,0.000257138757548,42.32232525579263,0.0004369426767266,3.329727443445437,486.2390860568421,5.269261304374574,2.158791628597544,69.99913473613935,6.515851355725497e-08,120.00000064630268,17.000925061330125,1.274,1.0267449573927567,0.0,0.0,0.0,0.0154850332441425,6.382432869666793e-10,-0.0006690086306358,2.8426433029675884e-08,1.0948547100483978e-05,4.184830654966803,59.74181173116622,5.269301695636157,42.45310707234106
0.15,31.222215353826755,131.0103933263496,3.3242182719560263,4.21963947489699,0.0002846467688673,40.886944113003565,0.0004726792395108,3.325585650885676,472.5421858721398,5.6781946837482895,2.329510773545807,69.99875162806286,1.0876776246115984e-07,120.00000079954532,19.742017654108928,1.274,1.0267115958081523,0.0,0.0,0.0,0.0166867950518804,9.204756288136623e-10,-0.000865746478554,4.08948221429571e-08,1.526771148078443e-05,4.219639484480408,57.84996018384879,5.678239395958187,41.02196629910223
0.16,31.222215247130432,131.01039354534575,3.3775922280208457,4.253495568077899,0.0003118339050386,32.26872905470846,0.0005078415214353,3.32090791922544,391.1218908297597,6.081244877834229,2.4981889727471702,69.99825581174558,1.7187028096464329e-07,120.0000009800088,22.644030778355887,1.274,1.026675762255412,0.0,0.0,0.0,0.0178712695992133,1.2856146928958252e-09,-0.0010961187242953,5.6923362293832417e-08,2.0702404729358337e-05,4.253495579487569,56.06022383757386,6.081293860589489,32.43916312841722
0.17,31.22221513260033,131.01039378041813,3.4348437275053194,4.364838523348639,0.0003448792023946,40.840448242802736,0.0005326487904353,3.3162727284953744,471.78125980632416,6.362544479165355,2.6250789114832647,69.99762801982864,2.5997588617291615e-07,120.00000119506798,24.78723182122683,1.274,1.0266409836796937,0.0,0.0,0.0,0.0186979513961862,1.747791994374917e-09,-0.0013624931601664,7.706724512977917e-08,2.6923621797558364e-05,4.364838536947241,54.85936171416122,6.362598652663785,40.97486885600156
0.18,31.222215014088988,131.01039402363364,3.4935801365785646,4.353948305387995,0.0003681615230806,33.992183768165326,0.0005718025428208,3.310131992647221,407.1015672119096,6.81502088160835,2.810667639293692,69.99684761766231,3.794979223522764e-07,120.00000144728236,28.437950785509614,1.274,1.0266048342046536,0.0,0.0,0.0,0.020027681385988,2.3221419748804155e-09,-0.0016616990447559,1.0147209890543081e-07,3.517105786247627e-05,4.353948320923495,52.99157233768714,6.815078712285162,34.152972512863755
0.19,31.22221488419521,131.01039429023237,3.558399965607869,4.432620772533925,0.0003996774584738,38.45149959021069,0.0005986099513107,3.304145139297767,448.95313283182486,7.1223367465208405,2.946425726785696,69.99589577323147,5.440084577183829e-07,120.00000176148238,31.060341085698347,1.274,1.026566130444714,0.0,0.0,0.0,0.0209308229359413,3.022391489754689e-09,-0.0020041563310821,1.3135864879722746e-07,4.433199397898183e-05,4.432620790516937,51.77883352025967,7.122399527709208,38.59320142454953
0.2,31.222214751373183,131.01039456280608,3.624052454705669,4.443889400961181,0.0004246617145652,35.23432408779927,0.0006337972852267,3.2968110145188256,418.5156301991588,7.530482904611057,3.1167566004785483,69.99474776398331,7.478025600151903e-07,120.00000211715036,34.72195181863731,1.274,1.026529240027363,0.0,0.0,0.0,0.0221302820454282,3.866698391504749e-09,-0.0023849544920781,1.668144671071589e-07,5.57780533277244e-05,4.443889421210987,50.22448880200342,7.530549610317194,35.38822625098952
0.21,31.222214608673173,131.01039485566503,3.6948551453492566,4.493351735844891,0.0004538195602194,33.79371564104691,0.0006629296043866,3.2891790438445727,404.8187610144608,7.868284042829251,3.2629204975089228,69.99338155599101,1.0150082652278477e-06,120.00000255293388,37.906665490338085,1.274,1.0264923657015164,0.0,0.0,0.0,0.0231230169900677,4.871073773182836e-09,-0.0028117605859743,2.089322918608601e-07,6.870935089180403e-05,4.493351758715364,48.992529909481824,7.868355328639073,33.95340801819282
0.22,31.22221446109996,131.01039515850383,3.767700382407304,4.5412639153933885,0.000482649303782,41.008966751568416,0.0006914639179131,3.2808061382386606,472.5421858721387,8.20057841132235,3.4071691679735228,69.9917708347139,1.3454961520984431e-06,120.00000305929996,41.175744234065135,1.274,1.0264494137127138,0.0,0.0,0.0,0.0240995709751246,6.054779813287368e-09,-0.0032829112061357,2.580881224843564e-07,8.3609968899004e-05,4.54126394098788,47.82515604752711,8.2006542256977,41.13999323561041
0.23,31.22221430675399,131.0103954752338,3.843768625625224,4.52371495179584,0.0005047555656171,33.98493478127787,0.0007294889663961,3.2705214710765107,406.340642146096,8.647938096586296,3.5908865300848416,69.98989017772566,1.7539876018835507e-06,120.00000365514876,45.79040229326471,1.274,1.0264133390858623,0.0,0.0,0.0,0.0254142776666487,7.436335125872812e-09,-0.0038001790077148,3.1489825108822685e-07,0.0001020628978177,4.523714979897577,46.31461705147579,8.648017383405135,34.14194053232237
0.24,31.222214142622448,131.0103958120587,3.92493179063287,4.57837522350066,0.0005351929930195,35.051650311058864,0.0007555049947555,3.26053011385611,416.2328240017099,8.954297884844461,3.72617527247482,69.98771316795013,2.25257161141768e-06,120.0000043564586,49.09180568115741,1.274,1.0263750048312463,0.0,0.0,0.0,0.0263146218848643,9.034877387788232e-09,-0.0043732521010013,3.809642748985157e-07,0.00012161410144,4.578375254714954,45.32798984252032,8.954381952763216,35.20297212911011
0.25,31.22221397517227,131.0103961556623,4.0071748888306855,4.6034117733065,0.0005618935542827,36.03738579534623,0.000785606492708,3.249069743648399,425.3640807915084,9.311611941121669,3.8789349536029696,69.98520781816889,2.8559738498748624e-06,120.00000517181904,53.08749562138344,1.274,1.0263373768840591,0.0,0.0,0.0,0.0273647110956883,1.0873791100894836e-08,-0.0049950711786164,4.5609738277273444e-07,0.0001444478241125,4.603411807525074,44.2165428352526,9.311700203154778,36.183554686886296
0.26,31.22221379934012,131.01039651647062,4.09364247475714,4.621386912291471,0.0005881033207375,39.29107511182762,0.0008162761165496,3.236407051295005,455.80158342417656,9.67833954512075,4.034902068846398,69.98234620927953,3.5784678110229355e-06,120.00000612171208,57.350948423913096,1.274,1.0263006300381676,0.0,0.0,0.0,0.0284424679130479,1.2973286442992724e-08,-0.0056712051373577,5.414206381221602e-07,0.0001704578711045,4.621386949630312,43.12063533194282,9.678431924174348,39.42414126789902
0.27,31.222213616776543,131.01039689108487,4.183310605341074,4.617158109135719,0.0006115457810536,35.90419462403674,0.0008503454714941,3.221982799915672,423.8421996598744,10.088790784535757,4.205862468567124,69.97909721779352,4.436165972465058e-06,120.000007221354,62.31798301949865,1.274,1.026260090595354,0.0,0.0,0.0,0.0296487219805601,1.5355910600537293e-08,-0.0064045199323113,6.379142666348734e-07,0.0002006609239367,4.617158149547818,41.94410287616451,10.08888684592241,36.048472443180565
0.28,31.22221342607797,131.0103972823952,4.277051150896916,4.642105655370123,0.0006389739579882,41.51133203546672,0.0008785747638736,3.2071101123224945,476.3468732012228,10.432377224420517,4.35383399240675,69.97542808435722,5.446665372087172e-06,120.00000849080963,66.63429581008447,1.274,1.0262212716723291,0.0,0.0,0.0,0.0306584788590473,1.8045308789081613e-08,-0.0072006835403936,7.469524967369969e-07,0.0002332868227611,4.642105699250441,41.0023231023774,10.432477594215127,41.63503624837164
0.29,31.22221323001776,131.01039768469093,4.373143569786686,4.62134615173668,0.0006600657405645,33.17552944492765,0.0009148746278066,3.1894209319791806,397.9703104221098,10.876662296046485,4.536381530986506,69.9713027936179,6.629751536885327e-06,120.00000994797426,72.43000748232016,1.274,1.026183007522519,0.0,0.0,0.0,0.0319641703260467,2.1067646517035105e-08,-0.0080566154554079,8.688043379161898e-07,0.000272130659453,4.621346198772975,39.83162628795024,10.876765978930557,33.32848872465723
0.3,31.22221302403368,131.01039810736614,4.4744193758467325,4.664362353358112,0.0006905183788532,31.08096762732793,0.0009381960428197,3.172549142946348,378.1859457108735,11.168362145070317,4.66647911311536,69.96668711012893,8.005507138509574e-06,120.00001161892672,76.36634300732833,1.274,1.0261430389738484,0.0,0.0,0.0,0.0328214509167604,2.4447409007156216e-08,-0.0089829108229115,1.0056222251461646e-06,0.0003115527202986,4.664362404357781,39.09908960432563,11.168470611443622,31.242464973103964
0.31,31.22221281503337,131.01039853619727,4.576593712520673,4.700143580504286,0.0007196683316923,32.79732593144512,0.0009620705970519,3.154230688182399,394.1656220930229,11.470279728974068,4.800072153432283,69.96154070456518,9.597499105113692e-06,120.00001352112182,80.55022837857167,1.274,1.0261054058068628,0.0,0.0,0.0,0.0337087616009043,2.8214060606649844e-08,-0.0099686353219717,1.1565909895184251e-06,0.0003550834484269,4.700143635477137,38.36463422765983,11.47039277421126,32.94865339301887
0.32,31.222212598991007,131.01039897947376,4.68216432480395,4.718667719113184,0.0007464384342556,35.7316568886908,0.0009885845337584,3.133859770838664,421.5593934624264,11.808280530415894,4.946054328851105,69.95582953472353,1.14278227255889e-05,120.00001568218067,85.36654007972253,1.274,1.026068246703101,0.0,0.0,0.0,0.0347021168382987,3.2392058795580455e-08,-0.0110163301561155,1.3226102501723267e-06,0.0004039614423012,4.718667778018562,37.5686120062341,11.808397780690962,35.8688218659563
0.33,31.222212376029034,131.0103994369436,4.791055524254013,4.72141404831576,0.0007708346814671,35.42013590291081,0.0010176135371143,3.1111955852784385,418.5156301991632,12.181577273013426,5.104163223586657,69.94951809396906,1.351997394754887e-05,120.00001812674968,90.84831229869296,1.274,1.0260310883392356,0.0,0.0,0.0,0.0357992034445943,3.700677535501642e-08,-0.0121310534481307,1.5051409581878843e-06,0.0004588955105349,4.721414111097893,36.7208578211118,12.181698355442045,35.55651229220977
0.34,31.222212145785647,131.0103999093516,4.903491659547144,4.73024573449122,0.0007962944975467,27.63851074646407,0.0010446307681611,3.0871492806781062,345.4656368807584,12.53557620048282,5.2556261014174765,69.94256797855994,1.5899658158227497e-05,120.000020882338,96.20413272674828,1.274,1.0259901535019136,0.0,0.0,0.0,0.0368395817555172,4.208561016221623e-08,-0.0133180771902383,1.7057647550599631e-06,0.0005184333231541,4.730245801363397,35.94841996438923,12.535701282129995,27.810389570354005
0.35,31.222211909310875,131.01040039453565,5.018822212845608,4.780248518778662,0.0008286678570753,30.332092807652543,0.0010618579815451,3.063967690608957,370.5765700527057,12.774786382148209,5.367579971644358,69.93493776125636,1.8594985713558667e-05,120.00002397748868,99.9096898192772,1.274,1.025950003202184,0.0,0.0,0.0,0.0375426220587071,4.7658312175989686e-08,-0.0145774693288123,1.9252724355785177e-06,0.0005782798420984,4.780248590437683,35.44790728185619,12.774916548990808,30.486451961956565
0.36,31.22221166933814,131.0104008868675,5.135354490370708,4.798132156899578,0.0008554457330409,34.32674769697476,0.0010851169437774,3.0374319611165923,407.8625232777224,13.09301701329486,5.506730645516068,69.92658597246795,2.163521613217148e-05,120.0000274401514,104.94818266210537,1.274,1.0259105142325406,0.0,0.0,0.0,0.0384778908056978,5.3755109608570216e-08,-0.0158991451700967,2.162609490834569e-06,0.0006464142451675,4.798132232978766,34.796094028187134,13.09315138639638,34.46087058603792
0.37,31.222211421355144,131.01040139563804,5.255882891363927,4.797392186816851,0.0008791822061288,32.551601855236584,0.00111162791192,3.0078619428913056,391.1218908297639,13.457513730739372,5.661815946371007,69.91747693543164,2.5047738471809164e-05,120.0000313040604,110.87154396328836,1.274,1.025872170958032,0.0,0.0,0.0,0.0395491312153729,6.040098808671168e-08,-0.0172926678053148,2.420031948898497e-06,0.0007226353721561,4.797392267189059,34.07332166419882,13.457651832357364,32.69027405888565
0.38,31.22221116634284,131.01040191882743,5.379799334000849,4.811698494594017,0.0009057112478668,34.02947987649063,0.0011338447913587,2.9774881690446744,404.81876101445977,13.77554886562956,5.800899861213392,69.90756948297444,2.886339581486796e-05,120.00003560072224,116.17243393848278,1.274,1.02583050512925,0.0,0.0,0.0,0.0404838339452728,6.762496638941508e-08,-0.0187646375218858,2.69955777313946e-06,0.0008026686661094,4.8116985796350695,33.46655348088405,13.775691134419684,34.15949264475229
0.39,31.222210906095896,131.01040245274032,5.505993307722699,4.813508003664984,0.000929862892873,29.00025983045028,0.0011579891265804,2.9442136901860865,357.6406249338268,14.124492165837273,5.950648592462506,69.8968186645841,3.311602501056718e-05,120.00004036395212,122.13093644173792,1.274,1.02579027384009,0.0,0.0,0.0,0.0415093739609825,7.545934774906889e-08,-0.020311592409804,3.0013532510753577e-06,0.0008908380763632,4.813508093268025,32.821616487639595,14.124638228358922,29.149330452482886
0.4,31.222210638473225,131.0104030017851,5.635788650457906,4.841647069358873,0.0009592124397379,27.71178845184976,0.0011749448424961,2.91135549588368,345.4656368807565,14.390874239274588,6.07193451174791,69.8851815212744,3.783947407715338e-05,120.00004563180136,126.77947425345651,1.274,1.0257493418632293,0.0,0.0,0.0,0.0422922854866381,8.39343718693383e-08,-0.021938519432511,3.3271332720311508e-06,0.0009803271643914,4.841647164150728,32.348088166612904,14.391024912012275,27.864299944624147
0.41,31.22221036681104,131.01040355909262,5.767123077463226,4.86553909860892,0.0009876699832274,31.306062598221665,0.0011918093836199,2.876450850006428,378.9468707766882,14.663028799871563,6.195223154320929,69.87261222561014,4.307011032901644e-05,120.0000514391194,131.6183642808765,1.274,1.025708445186429,0.0,0.0,0.0,0.0430921644173401,9.308325447883581e-08,-0.0236371933433427,3.6760977501392174e-06,0.0010761942383903,4.865539198612839,31.87689439156756,14.663183942709727,31.437931330109585
0.42,31.22221008906472,131.01040412887247,5.901259531771367,4.867510642114694,0.0010118258958528,35.308283402190774,0.0012128114559048,2.8374461227958245,416.23282400171047,14.9952917972178,6.33928625560071,69.85906967380902,4.884273094936628e-05,120.00005782486392,137.64909586091787,1.274,1.0256701057426505,0.0,0.0,0.0,0.0440686959134695,1.0293499639582845e-07,-0.0254093547296826,4.049238334851429e-06,0.0011830797791891,4.867510747027452,31.315270489291198,14.995450734457847,35.422111438762386
0.43,31.222209804115888,131.01040471342728,6.038886819939341,4.854590670645608,0.0010330089741511,31.00586934514032,0.0012363751872706,2.794478603999558,375.90313951343126,15.369430568701889,6.497852263156962,69.8445117629242,5.519340856908871e-05,120.00006482835984,144.60167924299955,1.274,1.0256308158337524,0.0,0.0,0.0,0.0451682983415116,1.135186446762958e-07,-0.0272634397889413,4.449073329427772e-06,0.0013010625065656,4.854590780289497,30.70250814963406,15.369592833372094,31.13154422839874
0.44,31.22220951192321,131.01040531284193,6.180028459770617,4.866912332640401,0.0010595850174406,28.57707721036899,0.0012525768202179,2.752165534925872,353.07501253892326,15.659290812546615,6.627318538707029,69.82889155423543,6.216182865383864e-05,120.00007249162944,150.1053167542629,1.274,1.025586171750536,0.0,0.0,0.0,0.0460202245100907,1.2486676023179565e-07,-0.0292060158163984,4.8779154055816594e-06,0.001420032405556,4.866912447705031,30.24619499837236,15.659457251771938,28.709297424144207
0.45,31.222209215425703,131.01040592106523,6.322872201489905,4.881836476567178,0.0010866574689855,33.31904824532484,0.0012669045761511,2.7082028218433374,397.2093853562887,15.934249290371609,6.751662050993672,69.81215834018458,6.97909417564726e-05,120.00008085697964,155.42080512416243,1.274,1.0255397023523487,0.0,0.0,0.0,0.0468283602442113,1.3701614206272197e-07,-0.0312276295846745,5.334643585560923e-06,0.0015449645531859,4.8818365972149325,29.82567893138932,15.934419982127675,33.428929688274074
0.46,31.22220891307435,131.0104065412864,6.468371919199588,4.869610441729251,0.0011078049156487,38.95909776354321,0.0012868374716666,2.6582856015412624,449.7140588976424,16.292139278621757,6.904766425053949,69.79426683863348,7.812149592850748e-05,120.00008996920153,162.4785746623087,1.274,1.02549635315424,0.0,0.0,0.0,0.0478802236363867,1.499987870203256e-07,-0.0333272350234362,5.819761874615242e-06,0.0016858511402973,4.869610567434908,29.29014635640275,16.292313292210977,39.04968351401366
0.47,31.22220860266524,131.01040717804253,6.6178810515614845,4.838450928223533,0.0011247917292402,26.253747818137555,0.0013104398935566,2.6026193242279367,331.0078106302504,16.710658191447514,7.078951441335346,69.77517236812905,8.719457259907165e-05,120.0000998741591,170.9309671061642,1.274,1.025453319323251,0.0,0.0,0.0,0.0491102725711187,1.6384464803343264e-07,-0.0355167087264168,6.3368207228363735e-06,0.0018427306558807,4.838451058652396,28.68386015667837,16.710834873319172,26.382435512333956
0.48,31.222208284201663,131.0104078313267,6.771393590864176,4.869339340099417,0.0011561785713505,25.860860976019296,0.0013165328518772,2.5543454292827983,327.20312230115803,16.911139899671,7.177575416403102,69.75482343794755,9.70562828082882e-05,120.00011062072316,175.0543877818846,1.274,1.0254092882449153,0.0,0.0,0.0,0.0496995461609974,1.7858865391586845e-07,-0.0378054080201581,6.88909442277235e-06,0.0019849793891693,4.869339477030596,28.40887970825325,16.911321511776286,25.986704537635287
0.49,31.22220796480208,131.01040848648364,6.924537656029012,4.881367714530694,0.0011829003785372,32.565703383222065,0.0013261973190012,2.5011623511055703,389.6000096981238,17.169005224738054,7.296160258358563,69.73316318155707,0.0001077573203115,120.000122255028,180.4309832312717,1.274,1.025367445590036,0.0,0.0,0.0,0.05045746454003,1.942747077649401e-07,-0.0401641298712614,7.47069711110948e-06,0.002140948887153,4.881367857509675,28.058569663954906,17.169191034294997,32.66161128464712
0.5,31.222207637929923,131.01040915697027,7.081324512896956,4.862566137860805,0.001202418260511,33.47759680712428,0.0013425340759632,2.4399894027711366,397.970310422106,17.52898693231981,7.450304424940405,69.71015149227495,0.0001193385310595,120.0001348274002,188.0736471953394,1.274,1.0253278572281015,0.0,0.0,0.0,0.0515154948878309,2.109295159784217e-07,-0.0426011733481599,8.084173008518589e-06,0.0023184335011768,4.862566286171007,27.57768313050809,17.529175807738486,33.56639745442473
0.51,31.22220730314019,131.01040984370235,7.24202048914867,4.8479762258125,0.001223054804074,25.49162310288008,0.0013562860883156,2.3767006597692686,323.39843497208153,17.86914397471067,7.597652147346554,69.68574349602717,0.0001318441288964,120.00014838524436,195.4407439266201,1.274,1.025286455263166,0.0,0.0,0.0,0.0525152689856776,2.2858192086249162e-07,-0.0451315948093539,8.734206149830708e-06,0.002503767471626,4.847976379721193,27.13799345359824,17.86933609171003,25.602178740977283
0.52,31.222206962738102,131.01041054193402,7.405210501673173,4.865306299521403,0.0012516517170965,30.733671928447727,0.0013599291289974,2.317711624364424,372.098451184342,18.08534843773428,7.701914987606457,69.65988568649581,0.0001453248538387,120.00016298000436,200.19561780583155,1.274,1.0252426840672306,0.0,0.0,0.0,0.0531507657929359,2.4726951523704535e-07,-0.0477531686556663,9.421346966092632e-06,0.0026812161964639,4.865306460134566,26.8699055233151,18.085545046726228,30.820940596104087
0.53,31.222206619320115,131.01041124632013,7.569307468221277,4.848802699234936,0.0012715119568563,32.301199055744725,0.0013711327835325,2.2490252325653923,386.55624643486095,18.41963113311156,7.8474319110539055,69.6325258319474,0.0001598315062727,120.0001786629144,207.6614205945027,1.274,1.0251993415311351,0.0,0.0,0.0,0.0541332845214831,2.67031759303889e-07,-0.0504479325599339,1.0141887756417996e-05,0.0028848299490111,4.848802865552398,26.45837260670532,18.419830861742675,32.37940050117613
0.54,31.22220626697288,131.01041196903336,7.737918664599091,4.831496690588052,0.0012913635058467,28.31291960103712,0.0013809098107221,2.177242866245296,349.2703242098436,18.75116898748492,7.992112829440902,69.60362200959217,0.0001754082864028,120.00019548734956,215.20067397992847,1.274,1.0251561018460285,0.0,0.0,0.0,0.0551077428911958,2.878941684235108e-07,-0.0532336286085667,1.090122304443916e-05,0.003098869611663,4.831496862756785,26.061835558272342,18.751371834390056,28.396510432451375
0.55,31.222205908994248,131.01041270328463,7.909026079894722,14.193861641631903,17.30827178555825,30.54741720668075,-1.1206419029467845,1.502983954635326,365.2500005919912,21.8890205352718,8.113323699629928,69.57312211246325,0.0001921068626005,120.00021350480982,293.246240929438,1.274,1.025112921033824,0.0,7.519210697837553,0.0,0.0643296876565522,3.0989272306468813e-07,-0.0561100530405476,1.1700476995263424e-05,0.0038128415497007,22.245252871972426,41.161555875709446,24.566634922506456,30.604893351252613
0.56,31.222205546564343,131.01041344664463,8.081909946161325,-18.17256787800354,-0.0536372960013537,28.270295210771167,-0.2577280358508853,2.892516823676284,346.22656194657776,17.499340161786375,8.24480645417527,69.54097415464405,0.0002099796112633,120.00023276987916,187.4199999357476,1.274,1.0250709539098009,0.0,7.546643356335294,120.00005142262596,0.0514289472423976,3.3296850471894137e-07,-0.0663687823322451,0.0135876122741358,0.0036054548655131,18.17264436220651,32.29026129970783,17.49091483626318,28.419054674986377
0.57,31.222205179969823,131.01041420541662,8.258425056245468,-17.87341631067654,-0.0420317681713073,27.939540128537704,-0.2599427515358281,3.0677592460805743,343.1828296833045,17.739700951810146,8.385904970246587,69.50294694945941,0.0210379424507234,120.02246589255763,192.6006793741961,1.274,1.0250279191823897,0.0,7.573861694433826,120.00005142262596,0.0521354492573119,3.678296803525768e-07,-0.0572738675460947,0.0135542859900818,0.0031540602458439,17.87346411870201,31.887633824482258,17.733098617697113,28.108657378468962
0.58,31.222204804279528,131.01041497570327,8.436596959550803,-17.594965748083833,-0.0486193884757564,36.85334727265467,-0.2615304997595078,3.250215275236397,426.12500585731766,17.98930160154767,8.522221414867705,69.47012795210959,0.0417464443703669,120.04457659224228,198.05526956494404,1.274,1.024981594484354,0.0,7.601138657571381,120.00005142262596,0.0528691102781349,3.987454765331398e-07,-0.0480676147667737,0.0135263686155665,0.0026842726367423,17.595030796871193,31.47572961593937,17.981664486781337,36.997317507308125
0.59,31.222204424029705,131.01041575839068,8.61751406606551,-17.192547406661504,-0.0547249988654829,29.809875860209665,-0.2648009871339525,3.439826991353005,360.68438819710633,18.368744045588485,8.706337615883406,69.44258098076014,0.0623602969931796,120.06659056494232,206.4948270668673,1.274,1.0249386802161349,0.0,7.6281927730306975,120.00005142262596,0.0539843712757372,4.256730893823059e-07,-0.0387353587371736,0.0134940824882141,0.002208712808949,17.19263187318763,30.874006074119777,18.360147864175325,30.008852495461046
0.6,31.222204033370023,131.01041656187726,8.803269867996194,-16.934173602033116,-0.0610609833784746,26.44757170092604,-0.2659483512717117,3.6379208691320817,329.4859594986072,18.605405412554457,8.838159889608761,69.42037826608427,0.0828893647296396,120.08851755995536,211.8462498456913,1.274,1.024891335813742,0.0,7.655187414910292,120.00005142262596,0.0546800159981666,4.485535481258919e-07,-0.0292092124312155,0.0134570055426677,0.0016869547883935,16.934280463755222,30.49883178389509,18.595813977529897,26.697925867962752
0.61,31.222203639832223,131.0104173711782,8.989514654094325,-16.690791841743636,-0.0673255631126491,31.025676473445507,-0.2667720940303699,3.8418817609488327,372.0984511843332,18.82799798923905,8.964836773237035,69.40363091053567,0.1033431686743173,120.11036694503896,216.94169278728128,1.274,1.0248423929069768,0.0,7.6824196233746145,120.00005142262596,0.0553343166410049,4.673121578897241e-07,-0.0195715396373868,0.0134152801617459,0.0011438414401426,16.69092376374201,30.149680555268173,18.81742251694905,31.263778137809492
0.62,31.222203239879807,131.01041819355302,9.17838089253384,-16.37375059751164,-0.0731876817766421,38.63308770549828,-0.2685872276551388,4.054326997234011,442.86563930529206,19.133108696874075,9.12178713496906,69.39240284689305,0.1237314537824095,120.13214833600578,224.02574978038032,1.274,1.0247996097896497,0.0,7.709248832949904,120.00005142262596,0.0562311378674777,4.819049155897074e-07,-0.0098331787836663,0.0133688117859504,0.0005839938715181,16.3739096873632,29.68837748121869,19.121612405830284,38.846173198399896
0.63,31.22220283159358,131.01041903291753,9.37100673591469,-15.98639033459251,-0.0785838978000893,21.74322067700948,-0.2714385844943454,4.278975995314269,286.11251274707456,19.52661952572523,9.311096622966367,69.38675179405172,0.1440638974227806,120.1538712745139,233.33127668041777,1.274,1.024756158874558,0.0,7.7359734313607635,120.00005142262596,0.0573877689224159,4.922884918215315e-07,4.609185275264725e-05,0.0133172412507102,-2.793650111950098e-06,15.986578441610286,29.116948295153957,19.514275599794388,22.161925906445056
0.64,31.22220241409901,131.010419891041,9.567903159024052,-15.837098991859524,-0.084910098948139,21.32048902516372,-0.2703438024936384,4.499340996847107,282.3078244179702,19.640644130534664,9.398082144010411,69.38675851390673,0.1643499253445884,120.17554502948468,236.05981983523,1.274,1.024708534665538,0.0,7.762765936232566,120.00005142262596,0.0577230098125366,4.984027133620991e-07,0.0101095752232337,0.0132601225065076,-0.0006163128264098,15.837320785023682,28.93043072736932,19.62730648826315,21.791750903715435
0.65,31.222201997464115,131.0104207473129,9.763038933521726,-15.623113629313815,-0.0908451339179545,37.94698546142158,-0.2701331677630863,4.726691572529716,436.7781447787504,19.830207921464712,9.512579527961853,69.39252855711095,0.1845987301487266,120.19717860153064,240.6340141750448,1.274,1.0246641738210605,0.0,7.789684922822139,120.00005142262596,0.0582802579524529,5.001898290892003e-07,0.0202011886048972,0.0131981879572088,-0.0012433935920064,15.62337117124988,28.64400728128518,19.81593800717716,38.24118579175455
0.66,31.222201572682536,131.01042162015747,9.961810498353428,-15.216025487910144,-0.0955948032674888,32.18978424625835,-0.2729906034302514,4.976710688798702,383.5125151715984,20.262860751045164,9.715698644907931,69.40407808273669,0.2048201166368379,120.2187816613666,251.24400668076248,1.274,1.0246195561629028,0.0,7.815911658730358,120.00005142262596,0.0595519423815812,4.976410966429245e-07,0.0303577391596452,0.0131311116081583,-0.001909265518631,15.216318679740525,28.04913025417303,20.247844761428524,32.57336922963645
0.67,31.222201135713625,131.01042251779552,10.166620154991447,-14.940561682193664,-0.1009236249580525,22.00040445113689,-0.2734846607596419,5.224939416912797,289.15624401033847,20.53284505601284,9.859339478439887,69.42144432865501,0.2250236450604422,120.24036361219326,257.9787353369783,1.274,1.024572383541697,0.0,7.842183309697433,120.00005142262596,0.0603455576188937,4.907238359155466e-07,0.0407034085713891,0.0130578678746895,-0.0025939853096749,14.940894787187764,27.671570737188414,20.51699201827363,22.6139908415937
0.68,31.222200696375047,131.01042342016743,10.371594667958314,-14.754012076479912,-0.1067056876916831,27.55957692493279,-0.2722396687504252,5.468519503060252,340.89999248584934,20.683488420223508,9.959383039987092,69.44473565697707,0.2452182644665903,120.26193318078418,261.77289531448923,1.274,1.0245245285832842,0.0,7.868796107450582,120.00005142262596,0.0607884355566548,4.793754522779881e-07,0.0511451550558157,0.0129788925751895,-0.0032832756214144,14.754389369557892,27.44399900623553,20.666727139685243,28.09820457384919
0.69,31.22220025321553,131.01042433024358,10.577607701560698,-14.470262966885649,-0.1117376217041861,34.02028955654566,-0.272521618172936,5.728759721578814,401.0140726853658,20.964656879384982,10.10658480316414,69.47400714280641,0.2654133669102025,120.28349956779356,268.93295739548535,1.274,1.024479631064582,0.0,7.8949746868008175,120.00005142262596,0.0616149282798946,4.635718708791244e-07,0.0616148290708737,0.0128945625130734,-0.0040090684403387,14.470685161377284,27.06103841919201,20.94710518593676,34.500334164920275
0.7,31.222199800714822,131.01042525925942,10.787960318938246,-14.141014294590676,-0.1162880147668902,28.41240025815556,-0.2734621801708413,6.003837375687108,349.270324209851,21.31356893070944,10.2779995631967,69.50927482173097,0.2856186589823567,120.30507230771624,277.9534655664224,1.274,1.0244351749185203,0.0,7.920876717893998,120.00005142262596,0.0626405261513361,4.433062131594693e-07,0.0721748727204307,0.0128042224655801,-0.0047742361347615,14.141482683345084,26.60602205904093,21.295302464605715,29.041097314449388
0.71,31.222199340408377,131.01042620406335,11.001735343140124,-13.89003309875998,-0.1212952557751585,23.21192653050984,-0.2727494150782595,6.273623782563111,301.3312640634036,21.55034061322681,10.40856934575707,69.55059049289702,0.3058434928527745,120.32666054152078,284.157484677261,1.274,1.0243880468141104,0.0,7.946914720191095,120.00005142262596,0.0633365502887711,4.185497101029904e-07,0.0828534461520778,0.0127074179152729,-0.0055413743659048,13.89055228080034,26.28621433753447,21.531287613235516,24.04633612146253
0.72,31.22219887635128,131.01042715639855,11.216507565322477,-13.668899980348735,-0.126448994427933,28.5226641113573,-0.2712352986214455,6.541938174943553,350.7922053414578,21.739229196741864,10.52157799949037,69.59802208601569,0.3260970720486093,120.34827323640532,289.15462821551546,1.274,1.024337302174265,0.0,7.972898611458499,120.00005142262596,0.0638918495147736,3.892715399138037e-07,0.0935854879056342,0.0126045408078312,-0.0063138821147075,13.669473710514714,26.02225914736629,21.719366651268302,29.2645329995425
0.73,31.22219840716388,131.0104281190687,11.433107341594871,-13.38012586787162,-0.1309047897762166,36.21418045695034,-0.2708062211082554,6.828994202782518,422.3203185282354,22.03150141740608,10.671320157943082,69.65160026358548,0.346388989731122,120.36991976877349,296.9757731799334,1.274,1.024292465384646,0.0,7.998598856180998,120.00005142262596,0.0647509992252029,3.554664040760245e-07,0.1043398620037356,0.0124957378539828,-0.0071339348422018,13.380754525084646,25.647951717003924,22.0109389590012,36.85343083078686
0.74,31.22219792940882,131.01042909903998,11.653606869860436,-13.039877301123449,-0.134729271382513,22.371240297418264,-0.2712002451474451,7.136609236866551,294.4828134710563,22.41109487841201,10.851753661611724,69.71133785235311,0.3667290369402285,120.39160971811212,307.29096040588365,1.274,1.0242470321640116,0.0,8.02412216777996,120.00005142262596,0.065866795436319,3.1713720565232386e-07,0.1151616230492719,0.0123803779950305,-0.0080093346705288,13.040561242266822,25.188440021267983,22.38993167345541,23.48355027285116
0.75,31.222197442964955,131.0104300965361,11.878091842464627,-12.842080082476448,-0.1398174426137615,26.198955801624,-0.2684342465045025,7.412846117369517,330.24688556441737,22.55174112812337,10.946547766450983,69.77727348849892,0.3871267406328247,120.41335236662344,311.1533130152652,1.274,1.0241984712898409,0.0,8.049710012928326,120.00005142262596,0.0662803263135459,2.7427043288011764e-07,0.1260862903713282,0.012257838830006,-0.0088239730438134,12.84282839950836,24.981990545781034,22.529778677392947,27.228801471969796
0.76,31.222196956320435,131.01043109434252,12.101445986606375,-12.570204121447468,-0.1440528951498756,28.214609923971487,-0.2669552141399607,7.712676933959838,349.2703242098581,22.81652564177021,11.084976249702628,69.84946614409901,0.4075914245392862,120.43515675439296,318.49600281081405,1.274,1.0241522053390697,0.0,8.075303507350178,120.00005142262596,0.0670587058907645,2.268496662582169e-07,0.1369858617023044,0.012129371050131,-0.0096991164180134,12.571016223082642,24.650595083794688,22.793897889752717,29.250997653684617
0.77,31.222196460047577,131.0104321115598,12.329375935842254,-12.290394727252467,-0.148083158897239,26.27963920202056,-0.2653635380866441,8.019682835531702,331.76876669606884,23.0930227097072,11.226944014566316,69.92790148433124,0.4281333516814876,120.45703292698914,326.2548817436573,1.274,1.0241065975906936,0.0,8.100384073641012,120.00005142262596,0.0678715166598569,1.7490222523279232e-07,0.1479145317055551,0.011994178693316,-0.0105995891619067,12.291273074778216,24.31133414670673,23.06976188739805,27.47735735434257
0.78,31.222195958037936,131.01043314028578,12.559541843323911,-12.030582961865818,-0.1522146346713239,21.37957852758309,-0.263079759795294,8.32428683684951,286.8734378128874,23.3321215033212,11.35514613131262,70.01259620144954,0.4487624346788078,120.47899052942172,333.0384012366464,1.274,1.0240588105546735,0.0,8.125595888670858,120.00005142262596,0.0685744177101587,1.1843741537557217e-07,0.1588682039652484,0.011852100384443,-0.011502149892461,12.03153166434604,24.01248416699181,23.30821171254358,22.944483875634507
0.79,31.222195450868657,131.01043417934747,12.79160240750777,-11.800711013781315,-0.1566089775934985,30.71485024844708,-0.2598488609052762,8.619369128883838,373.6203323159581,23.50959032374919,11.461204368533524,70.10356464836876,0.4694886632659148,120.50103927602036,338.11644840926,1.274,1.0240083170932772,0.0,8.15067517450055,120.00005142262596,0.0690961894596932,5.7468392825559386e-08,0.1698201165457677,0.0117032925364864,-0.0123883174415484,11.801735423847504,23.774172363240947,23.484990273706337,31.902399147948092
0.8,31.222194939552008,131.01043522669383,13.024947574724312,-11.487180052013311,-0.1598295749564307,31.074620128381287,-0.2582020707072578,8.951839796341815,377.42502064505805,23.84898720429389,11.622981865756612,70.20080584380021,0.4903223213995728,120.5231891771494,347.94157526042886,1.274,1.0239625010683884,0.0,8.175575831523936,120.00005142262596,0.0700938831281237,-7.979531955474488e-09,0.1807319915171904,0.0115481128445974,-0.0133743711911818,11.48827697459177,23.38798634182463,23.823881265929185,32.33935868522884
0.81,31.222194418223417,131.01043629415375,13.263195871526133,-11.193611131351016,-0.1631703887775016,19.820623986304987,-0.2558067222478807,9.281345377330576,273.9374926939922,24.14897394313663,11.770205739112948,70.30429688796089,0.5112741037342604,120.5454506713405,356.7416967703465,1.274,1.0239149950770308,0.0,8.200207821534276,120.00005142262596,0.070975756439714,-7.7864598800421e-08,0.191670574038228,0.0113853975852731,-0.0143619227922451,11.194785176060652,23.043829309749437,24.123343233048825,21.887575112353844
0.82,31.22219389187809,131.01043737162863,13.503299340033546,-10.9771923262989,-0.1674770082937095,25.69495205454813,-0.2513210072587495,9.574875657630267,328.725004432774,24.282474276489552,11.859398786646464,70.41405310623935,0.5323541691654142,120.5678335982832,360.6885605910479,1.274,1.0238644186635044,0.0,8.224989097593214,120.00005142262596,0.0713683178748068,-1.5217068796535336e-07,0.2026059540427165,0.0112153292303525,-0.0152648868243218,10.978454166703768,22.850232766466725,24.256167087006325,27.422107271201778
0.83,31.222193363599043,131.01043845290545,13.743349486931129,-10.692573558561527,-0.1706996006510544,32.88446213246086,-0.248131885784334,9.903485969463718,395.6875032246518,24.558585588639183,11.99674460169846,70.53007269112167,0.5535730251499746,120.59034814960836,368.9293305345325,1.274,1.0238188483711983,0.0,8.249599213190761,120.00005142262596,0.0721800286818041,-2.3087058801977845e-07,0.2134521567857076,0.0110390777170781,-0.0162645605605094,10.693920169941771,22.533676096538617,24.531772197736583,34.344263764439035
0.84,31.2221928260297,131.0104395527966,13.987940098050991,-10.37336231394976,-0.1732540370337551,19.797789295157298,-0.2454516618068621,10.2558252346578,275.45937482564227,24.91290322868488,12.159651079127826,70.65230459252824,0.5749421694397097,120.61300556086891,379.642621306012,1.274,1.0237739661568126,0.0,8.273848403491169,120.00005142262596,0.073221604126886,-3.13895521594822e-07,0.2242638068708995,0.0108555670197154,-0.0173345178217865,10.374793201059884,22.15593682833631,24.88568858966112,22.29786220106251
0.85,31.2221922809329,131.01044066772897,14.236016780365029,-10.14982460909126,-0.1772151341923681,21.62784416033485,-0.2401190349710463,10.550922259417934,292.9609323393965,25.03979343646637,12.244820368841015,70.78072904475935,0.5964726062558111,120.63581651610522,383.51064101062815,1.274,1.0237227741398531,0.0,8.298201900619596,120.00005142262596,0.0735947535810998,-4.011976634390241e-07,0.2350631305571123,0.010664134853054,-0.0182613611655177,10.151355357628251,21.970922863653477,25.0119565926661,24.06539550264999
0.86,31.22219173564393,131.01044178294762,14.482970147302195,-9.88518202605315,-0.1804061687303404,27.329540917043943,-0.2354894462744718,10.869827326909624,346.2265619465616,25.2590060243056,12.360286098772209,70.91533900979714,0.6181751401814793,120.6587914603736,390.2457194240425,1.274,1.023674789281455,0.0,8.32254821419653,120.00005142262596,0.07423925074443,-4.927487989164962e-07,0.2457398083044339,0.0104665486778604,-0.0192574757712007,9.886811746116493,21.71150698877745,25.23066793641327,29.412793273208802
0.87,31.22219118240208,131.01044291405023,14.733717929728838,-9.588199068374704,-0.1829187581417403,25.2755400788838,-0.2313228195909383,11.211180159106792,327.9640783669946,25.554569860407668,12.500146877708492,71.05606426509644,0.640062051682001,120.68194239711497,399.4223177540738,1.274,1.0236288969245204,0.0,8.346411916838013,120.00005142262596,0.0751081608241937,-5.884618670696738e-07,0.2563237644997999,0.0102620881639487,-0.0203214446367025,9.589927409762836,21.394131693492422,25.525837097877343,27.65134711159792
0.88,31.22219062237197,131.01044405867563,14.9875726630109,-9.312556943771297,-0.1856856327028367,21.568498341102664,-0.2262863084673085,11.537051173024736,294.4828134710421,25.792745761915263,12.619936728607946,71.2028517198251,0.6621453717459655,120.70528103682376,406.8925554269071,1.274,1.0235805388426191,0.0,8.37029565876565,120.00005142262596,0.0758084074955693,-6.882601360952321e-07,0.2668344592155962,0.0100501193476165,-0.0213513841376725,9.314391651126543,21.125887088320734,25.763578381993767,24.461293423540376
0.89,31.222190058181944,131.01044521154157,15.242873499645398,-9.050959634007372,-0.1886138365642958,23.717153086773465,-0.2205567692265761,11.848943791424285,315.02813424808807,25.98725145523065,12.724452439920368,71.35565943441819,0.684436937658689,120.72881886203444,413.0424030323406,1.274,1.0235293752791452,0.0,8.394136726419033,120.00005142262596,0.0763803063426916,-7.920819963265972e-07,0.2772360565429295,0.0098311257930982,-0.0223504337687502,9.052908320818908,20.893705734562783,25.957624116575943,26.513194164457662
0.9,31.22218948948594,131.0104463733389,15.499856753540971,-8.768997505329162,-0.1910293192368018,26.274567122286697,-0.2150215520967494,12.175282909040664,339.3781423542166,26.232992246269585,12.844617225121988,71.5144249421359,0.7069492264123961,120.75256801200504,420.8805775663543,1.274,1.0234837388140003,0.0,8.417780253685683,120.00005142262596,0.0771027977759498,-8.998503787714004e-07,0.2874995003248087,0.0096055135908378,-0.0233964573095776,8.771061741673707,20.625585388452496,26.20298548656625,28.959223498681606
0.91,31.222188914385235,131.01044754786125,15.759793639964304,-8.476212418777203,-0.1930902147568659,19.499207811901208,-0.2094297671015174,12.510044335959144,277.7421810230785,26.507208031205856,12.972748684141688,71.67906913089541,0.7296953068262113,120.77654123044545,429.7148423034485,1.274,1.023436404813438,0.0,8.441251353673227,120.00005142262596,0.0779089886239346,-1.0114673962523007e-06,0.2976327191235924,0.0093728755589368,-0.0244736640057503,8.478395391134914,20.34041464859149,26.476877548610005,23.168171602582728
0.92,31.22218833341513,131.01044873402356,16.022378693054172,-8.218210018017158,-0.1957969042519284,23.456965831391944,-0.2025717051773154,12.805829550169948,315.0281342480675,26.669434036506743,13.06400922132024,71.84951743021543,0.7526882254226342,120.80075121287216,434.9797389388788,1.274,1.0233859136578225,0.0,8.46466668503843,120.00005142262596,0.0783860294309973,-1.1268386327935796e-06,0.3076336455935472,0.009132985805281,-0.0254501891467959,8.220526081765982,20.13901161609224,26.6386783905676,26.725634731074834
0.93,31.222187749951896,131.0104499250679,16.285393918738247,-7.928876790344435,-0.1976777388957545,28.15455233758628,-0.1962341605152177,13.129891644017496,359.16250706547066,26.925086206972463,13.183762185185932,72.02569408265936,0.7759411450755616,120.82521075166244,443.34790877634,1.274,1.0233407575091376,0.0,8.487997710251081,120.00005142262596,0.0791376697465169,-1.2458845518398685e-06,0.317447958179491,0.008886937043436,-0.0265131942252252,7.93132485036925,19.87425358808179,26.89403512196003,31.066241802948724
0.94,31.222187159152863,131.01045113066678,16.552105375985892,-7.623422278009798,-0.199033395304533,19.794755390276755,-0.1899853662127203,13.47007051145584,283.06875048378083,27.232220307971566,13.318202426545568,72.20749221910435,0.7994684229106235,120.8499338819088,453.50850774215127,1.274,1.0232914783978162,0.0,8.51105045853107,120.00005142262596,0.0800406329617543,-1.3684783488453172e-06,0.3270976018035309,0.0086339339725573,-0.0276300518784265,7.626004686374272,19.578608635561643,27.200956278224503,23.94391853861556
0.95,31.222186562151613,131.0104523485385,16.821817928920304,-7.358774993701094,-0.2012818225531142,26.1434603506781,-0.1822718555565147,13.754947804892888,342.421873617488,27.393054362704813,13.405999658083642,72.39481753852009,0.8232840717994617,120.87493424784093,458.8693015636916,1.274,1.0232418269359267,0.0,8.534113416869006,120.00005142262596,0.0805135996085168,-1.494504831818804e-06,0.3365865369867193,0.0083735376951058,-0.0285987623685632,7.361512124966959,19.38595818684713,27.36143715298656,29.541704948295276
0.96,31.222185963341207,131.01045356991344,17.091555216332722,-7.055240391294602,-0.2023856464094557,25.461726758201085,-0.175322244713166,14.085330631209604,337.09533515678265,27.69100473659143,13.53463500711719,72.58757800782124,0.8474020175856277,120.90022537601637,468.89355433565646,1.274,1.0231951201821403,0.0,8.55712365152338,120.00005142262596,0.0813895823398602,-1.623880707485843e-06,0.3458510211938564,0.0081072614409752,-0.0297047953465196,7.0581279173071385,19.105888928899297,27.65921413970308,29.09857052140665
0.97,31.222185356083177,131.0104548080218,17.365922461225484,-6.761578600082038,-0.203619606507209,15.350049710858904,-0.1677392077828546,14.397172446821166,245.0218871929888,27.94868461774264,13.64948275796806,72.78564508730305,0.8718378370893034,120.92582251380212,477.648190767898,1.274,1.0231476260761452,0.0,8.57982983164786,120.00005142262596,0.0821472110394788,-1.7564509734026693e-06,0.3549238193117308,0.0078338531173838,-0.0307669087733138,6.764629587609361,18.857007474902908,27.916700192072,21.045919724050403
0.98,31.22218474491565,131.01045605380523,17.641837426952232,-6.502466117380523,-0.2057350088437565,23.350320078148016,-0.1588646710862722,14.647218472756652,319.593746642963,28.06040313508161,13.719392599696,72.98890899846492,0.8966062787680513,120.95174000630772,481.4616444869645,1.274,1.0230935628253934,0.0,8.602622034870445,120.00005142262596,0.0824758326190932,-1.8921030312255748e-06,0.363776587168026,0.0075538149004197,-0.0316595316888542,6.505706005020636,18.704376244492117,28.028086424909198,27.56453690386155
0.99,31.222184132138743,131.01045730268703,17.917677154899042,-6.201119576629764,-0.2064552623854538,25.638120245942208,-0.1509006507995043,14.95653570634052,341.66094855170127,28.342853453770623,13.838706192005729,73.19724372719092,0.9217228292956778,120.97799295191092,491.19000373823866,1.274,1.0230490803133316,0.0,8.62524150092196,120.00005142262596,0.0833062768808361,-2.0307358970449164e-06,0.3723521214864021,0.0072687663006917,-0.0327311854378983,6.204541983182518,18.448140544372567,28.310423607168364,29.682215905940083
1.0,31.22218351099912,131.0104585680919,18.19830084659472,-5.900535900306171,-0.2070410077892097,22.546109268198304,-0.1425770961838353,15.2587683020606,314.2672081822764,28.6210819624784,13.955036694707667,73.4104904939286,0.947204889970754,121.00459843830164,500.8674016100204,1.274,1.022999484445133,0.0,8.647560480938884,120.00005142262596,0.0841243219279334,-2.1721608411194607e-06,0.3806887203170173,0.0069771116638768,-0.0337915942755227,5.90415432061814,18.1999944699674,28.588560107802287,27.224573118009822
1.01,31.22218288558807,131.01045984186945,18.48085842690894,-5.611792364583027,-0.2078608947884619,23.59044246750035,-0.133602970669894,15.5317164990192,324.92031610370094,28.84314981475659,14.05356672669578,73.62851245492426,0.973068570281508,121.03157217071596,508.65610116383857,1.274,1.0229507481225095,0.0,8.669975000754329,120.00005142262596,0.0847773036534014,-2.316239630046512e-06,0.3887698054247427,0.0066790284919443,-0.034775713799987,5.615628321589439,17.990690083988024,28.81049917337597,28.244663973432594
1.02,31.22218225633864,131.0104611231573,18.76505466197024,-5.315912567278176,-0.2082835162554622,19.084526172178823,-0.1245349134750335,15.810204648400376,284.59063161543185,29.097566518681727,14.159818485890757,73.85116327769897,0.999330396373168,121.05893027291424,517.6549506858476,1.274,1.0229039803623294,0.0,8.692253996086961,120.00005142262596,0.0855253728749076,-2.462841155544863e-06,0.396565866530486,0.0063752716813629,-0.0357849970858591,5.319979689309859,17.767125740677038,29.064849492514053,24.78300262650903
1.03,31.222181621554647,131.01046241531387,19.05219279769393,-5.032580644185299,-0.2090351658610378,14.908022477686188,-0.1148055905958869,16.050417798088056,247.3046933904342,29.28088970636964,14.244556118199368,74.07827972405262,1.026007968767822,121.0866899710772,524.1837977102849,1.274,1.022853416101322,0.0,8.714376724494578,120.00005142262596,0.0860644866079616,-2.6118011937894937e-06,0.4040711724706835,0.0060656746331449,-0.0366909659558048,5.036908894550824,17.58924899798641,29.24805461214097,21.90612302558375
1.04,31.222180983912185,131.01046371302488,19.34032027659432,-4.7547050910120765,-0.2098792960291811,25.474886700921,-0.1046707109730434,16.263948391792642,345.4656368807608,29.42559857706512,14.317337975889588,74.30969526883493,1.0531189217963897,121.11486850334232,529.3630810239445,1.274,1.0228049544826707,0.0,8.73644631784198,120.00005142262596,0.0864901064690736,-2.7629820175553385e-06,0.4112544011137343,0.0057511945345543,-0.0375267414788355,4.759324391009887,17.437210352350345,29.392630888065728,30.224110006307743
1.05,31.222180343001977,131.01046501709908,19.62976876060919,-4.446561494524851,-0.2092842475159688,13.917293620955029,-0.0951656460651493,16.545014549803934,240.4562587980608,29.75045736645596,14.437786808453332,74.54522544323605,1.0806822269092464,121.14348448340972,541.100901164892,1.274,1.022755494436122,0.0,8.758314051031357,120.00005142262596,0.0874452433791578,-2.916227506105941e-06,0.4180948986125364,0.0054324786934452,-0.0385710474138841,4.451474031349636,17.18966763064961,29.717583146833128,21.620305841622372
1.06,31.222179694346263,131.01046633638725,19.924086421470108,-4.172951672662599,-0.2100715270339999,21.17351822775998,-0.0843844848093989,16.718197212868684,308.1796836557233,29.851262303582644,14.496146632671396,74.78467395116368,1.1087179192052252,121.17255761542684,544.7585916092509,1.274,1.0227013895379469,0.0,8.780009718483635,120.00005142262596,0.0877418297895015,-3.071305589012047e-06,0.4246194370301493,0.0051077717985083,-0.0393045846659101,4.178226615734724,17.070214208637797,29.818264419210397,26.978196991847526
1.07,31.222179046478207,131.010467654003,20.216651628291704,-3.8747646958020816,-0.2095170594623609,25.443549662159384,-0.0741271413374938,16.95335346233392,348.5093681440431,30.119556825065484,14.597637966259253,75.02785983030881,1.1372439413624051,121.20210540411496,554.5792784948941,1.274,1.0226540159946436,0.0,8.801799355451047,120.00005142262596,0.0885307202717167,-3.22812475523918e-06,0.4307676887157806,0.0047797810032061,-0.0402309357773776,3.88041646018688,16.86507086187244,30.086646035671865,30.574432257405586
1.08,31.22217839095932,131.01046898662457,20.51418282141936,-3.57343877907356,-0.2085931139648877,15.782928928349454,-0.0636937895881613,17.19065269060929,261.0015785751465,30.41703799165058,14.704677973458688,75.27456756745174,1.1662819530355386,121.2321492092118,565.5720164340372,1.274,1.0226061614050743,0.0,8.823194002777212,120.00005142262596,0.089405409860122,-3.3864419099808893e-06,0.4365613786141324,0.0044469115465996,-0.0411735447805657,3.579513844616245,16.65103200593607,30.38427233431024,23.337168688281672
1.09,31.22217773109737,131.01047032769955,20.81416310652221,-3.293012233618528,-0.2086095240742296,14.08504749606695,-0.0524479870961685,17.341646066115636,246.54375332456465,30.549961452433006,14.767727132399411,75.52459409357382,1.1958515552562816,121.26270823366129,570.5095160526935,1.274,1.0225512795791307,0.0,8.844689891684892,120.00005142262596,0.0897964184152097,-3.5460679122594948e-06,0.4419901070109747,0.00410909311994,-0.0418665069967721,3.2996059729654106,16.528268597494634,30.5171932174158,22.34108327812768
1.1,31.222177070254016,131.01047167059522,21.113839321170488,-3.009209788112042,-0.208276159017669,32.13301451595449,-0.0411527452522255,17.48968541442004,413.1890617384087,30.7070160424748,14.83565971912114,75.77773038855406,1.2259720929767015,121.29380140794612,576.3738794630498,1.274,1.0224981043155532,0.0,8.866101944660022,120.00005142262596,0.0902583589011888,-3.706885089476087e-06,0.4470140561687835,0.0037684357492498,-0.0425588425351483,3.016402263323648,16.397824629223805,30.6743001719717,36.58444220329676
1.11,31.222176405221795,131.0104730216347,21.415903571063872,-2.6981950569842272,-0.2059037031451019,22.29759749983808,-0.030406705749628,17.753235795159842,324.1593910379213,31.144279798776708,14.971075513758285,76.03374461652373,1.2566660636427027,121.3254509169804,592.8885234558627,1.274,1.0224548851875197,0.0,8.887237841669517,120.00005142262596,0.0915439377603007,-3.868692677974689e-06,0.4516271615787026,0.0034249660018321,-0.0436090632664393,2.706034285658028,16.133193174620583,31.11193659033637,28.501950109265938
1.12,31.222175731226063,131.01047439020385,21.72459573461764,-2.411563716568931,-0.2049244829270677,5.658908916066064,-0.0187499183137605,17.89475241014237,172.7328179403806,31.34546051622856,15.046385651880977,76.29240147557245,1.2879560134011108,121.35767898822942,600.5551446048454,1.274,1.0223979224661404,0.0,8.908292345773422,120.00005142262596,0.0921355992379536,-4.031179727771835e-06,0.4558532919933305,0.0030758407443082,-0.0443001590882212,2.420249739533113,15.992949515998648,31.31327112235186,18.768211569035152
1.13,31.222175057537527,131.01047575804384,22.03199972218404,-2.1411744456848414,-0.2050483024286834,26.7967144175153,-0.006596342220854,17.928083126268287,367.5328077894322,31.347668525505817,15.073022655100798,76.55347935143178,1.3198592271315708,121.39050241496028,600.6220207505971,1.274,1.0223460397860296,0.0,8.92955639638657,120.00005142262596,0.0921424090017703,-4.194261941484329e-06,0.4596472172755732,0.0027240169314407,-0.0446706830913135,2.150965652603468,15.954257120518076,31.31545968223176,32.240969459183276
1.14,31.222174383476844,131.01047712650444,22.33859826331656,-1.8419548687678504,-0.2024027335469383,12.722455860890095,0.0049349432422552,18.133245143687148,239.6953177322812,31.751148222828697,15.19251894082834,76.81673071106408,1.3523974770204688,121.42394262634272,616.1647373277757,1.274,1.0223022138470996,0.0,8.95048545782252,120.00005142262596,0.0933287081797244,-4.35783449923858e-06,0.4629799064477686,0.002372083396907,-0.0455723580874948,1.8530381785010777,15.728530242402789,31.71935494191581,22.151196060868024
1.15,31.22217369908491,131.0104785151408,22.65349931828979,-1.5647850463315776,-0.2015862677014095,12.359789368216925,0.0171360123565526,18.174762711658584,237.4125115347709,31.839355573577127,15.23698495689633,77.08189138267457,1.3855971489176069,121.4580258019794,619.5742668852001,1.274,1.0222426194541194,0.0,8.971122381334295,120.00005142262596,0.0935883157196645,-4.521504578147937e-06,0.4658786642996699,0.0020158619352342,-0.0459836962517454,1.5777132694830098,15.65863430802914,31.807690542022343,21.97923307339687
1.16,31.222173017519733,131.01047989810206,22.96481461467512,-1.2850872363867416,-0.2001635355207134,39.83225148819312,0.0292844602855702,18.230619950503343,490.043774385954,31.993597114117943,15.295287533780307,77.34871285356418,1.4194757330364631,121.49276896872652,625.5729914040152,1.274,1.02219674531104,0.0,8.992075730664217,120.00005142262596,0.0940420222944303,-4.685229951912892e-06,0.4683059643084834,0.0016592432452856,-0.0464458121122203,1.3005798427634487,15.563160784736844,31.962155563438035,43.80598840316205
