Time,Latitude,Longitude,Altitude,Angle of Attack,Angle of Sideslip,X-Acceleration,Y-Acceleration,Z-Acceleration,Thrust,True Velocity,Ground Velocity,Pitch,Roll,Yaw,Dynamic Pressure,cp,parachute_deploy_gain,Wind Speed,Mach,omega_x,omega_y,omega_z,Cmq,Angle of Attack(total),Angle of Attack(gust),True Velocity(gust),Acceleration
0.0,31.222216000000007,131.010392,3.000000004412624,0.0,0.0,0.0,0.0,0.0,2.2828121974499247,0.0,0.0,69.99999999623412,0.0,119.9999999935444,0.0,15.288,0.0,0.0,0.0,0.0,0.0,0.0,-0.0,0.0,90.0,0.0,0.0
0.01,31.22221599999846,131.01039200000315,3.000000962795229,0.0,0.0,0.0,0.0,0.0,34.24218696174923,5.969113392958395e-11,5.745056751963284e-11,69.9999999962392,-5.1146258746678e-13,119.99999999354512,2.1817458343801e-21,15.288,0.0,0.0,1.754166827906095e-13,-3.2864878353466853e-19,6.911788849595093e-19,5.692061405548897e-19,-1.134401665437238e-31,0.0,89.99999999962,5.969113392958395e-11,0.0
0.02,31.222215999997086,131.0103920000059,3.0000018098304624,0.0,0.0,0.0,0.0,0.0,25.871876237766408,1.2379461539866492e-10,1.192526349549112e-10,69.99999999624445,-1.0322244947058248e-12,119.99999999354591,9.384000171377332e-21,15.288,0.0,0.0,3.6380010482638883e-13,-6.67461962436389e-19,1.423015351387225e-18,1.1180834903756764e-18,-4.8437074435615215e-31,0.0,89.9999999992119,1.2379461539866492e-10,0.0
0.03,31.222215999135628,131.01039200176055,3.00018190920821,20.41311665082849,-0.0001313569271933,11.042464942064028,-1.723290922245469e-05,3.3498343099213166,180.34219359854663,0.0816366034365899,0.0529245383182506,69.99999999792094,-6.277040846687968e-12,119.99999999445566,0.0040808848840867,15.288,0.0,0.0,0.0002399086975844,4.364930183790861e-17,-8.76934256689775e-10,1.0793647029492311e-11,1.9684234014952338e-13,20.41311665123309,89.51280501600182,0.0816159699387164,11.539385681262939
0.04,31.22221599460537,131.0103920110161,3.0016524389412607,10.098052136602243,-4.3493216031672665e-05,52.407265263551366,7.378164109130209e-06,3.3496400078494384,548.6359724538078,0.3534495401970737,0.177248343572065,70.00000000400651,-3.680670767176037e-11,119.99999999925132,0.0764960958328229,15.288,0.0,0.0,0.0010386960834656,2.3014495040621363e-15,-1.7020658972887836e-08,2.4208054289452663e-11,1.6541324688573997e-11,10.098052136694946,87.78583860090743,0.3534427082986754,52.514203227188716
0.05,31.222215981796897,131.01039203726373,3.00727077892404,5.687315185156671,2.9851010711006404e-06,76.38015681649837,6.063676896296257e-05,3.348980036821532,761.6984298824644,0.9633260300793628,0.4175628991422375,70.00000000080173,-1.5056528646332016e-10,120.00000001282264,0.5682386700241646,15.288,0.0,0.0,0.0028309643220846,2.3776597688320366e-14,-1.1744104970597922e-07,3.7550409403262497e-11,3.1107096814271056e-10,5.687315185157463,83.920726961782,0.9633264989779424,76.45354159621115
0.06,31.222215957593047,131.01039208692197,3.01897384998626,4.534742003111488,3.306728518905801e-05,57.180088899246606,0.0001186703769057,3.347903322077104,590.4875390737208,1.6309646911593505,0.6772498253640761,69.99999991718114,-3.861635513930124e-10,120.00000003847693,1.6288189910250284,15.288,0.0,0.0,0.004792981105652,1.2156455245107382e-13,-4.156663396574442e-07,5.234504070293763e-11,1.864039835116932e-09,4.534742003231746,79.76096265527917,1.6309698853563617,57.27801518203823
0.07,31.222215922331383,131.0103921592957,3.036552211275368,4.028174810191838,5.919479428216222e-05,87.00777126914893,0.0001778069776649,3.346424892556479,855.2937749779139,2.3121618939528674,0.9414795592602606,69.99999961518033,-7.346648472124432e-10,120.00000007586092,3.273553567909824,15.288,0.0,0.0,0.0067948438910673,3.968344072400808e-13,-1.0033578415824737e-06,7.260782344017509e-11,6.378802101113245e-09,4.028174810626075,75.62832900107698,2.31217119224941,87.0721012771466
0.08,31.222215874024847,131.01039225847637,3.0612408959997364,3.7819748155080166,8.679483772995006e-05,17.94310324247781,0.0002348929762766,3.344598315526808,241.2171988638848,2.9696322212167257,1.1975263131828895,69.99999889659122,-1.2078048876335384e-09,120.00000012709653,5.399919396768028,15.288,0.0,0.0,0.0087269810254414,9.985811345023833e-13,-2.0300664069272924e-06,1.0606984746503984e-10,1.65758925169738e-08,3.781974816502462,71.78047399173725,2.969645854917955,18.252158555020753
0.09,31.222215816576487,131.01039237642703,3.090615345633256,3.742462701290812,0.0001151338990646,54.201679520403935,0.0002823035586269,3.3426291480478945,563.0937377043176,3.51321268100106,1.4145118807504564,69.99999749616813,-1.7297848620758175e-09,120.00000018807135,7.55769919090588,15.288,0.0,0.0,0.0103244268246441,2.1163140616581137e-12,-3.495852759681344e-06,1.6010488766737046e-10,3.3769167939526324e-08,3.742462703059233,68.72426813392622,3.513230766191634,54.30465203399843
0.1,31.222215749705686,131.01039251372544,3.124850470010186,3.803279151767724,0.0001458380012471,51.48357674082691,0.0003215629160157,3.3405726337200288,538.7437595981919,3.9608940619046136,1.598607884800665,69.99999513841028,-2.264625619290124e-09,120.00000025912485,9.606512346717734,15.288,0.0,0.0,0.0116400515445924,3.953209873846066e-12,-5.491676054424043e-06,2.4454780197792576e-10,5.980802980388759e-08,3.8032791545596942,66.30140454574848,3.96091697008428,51.59184140591588
0.11,31.222215674184927,131.01039266878078,3.163466903919903,3.8300859757623247,0.0001747820839343,40.70244047143577,0.0003628580511638,3.3381919758962058,442.8656393052949,4.433130943059972,1.7910993684695211,69.99999150994162,-2.7479292757789583e-09,120.00000033949512,12.033689463377202,15.288,0.0,0.0,0.0130278402682532,6.738607844061817e-12,-8.070352360829204e-06,3.693541371935378e-10,9.837003012963677e-08,3.830085979744325,63.839712268934186,4.433158397765515,40.83910119150979
0.12,31.222215590453462,131.01039284068858,3.206192415009293,3.847835699837056,0.0002025805957921,44.411855923924605,0.0004044955583309,3.3355234128534232,475.58594813540446,4.9099608380758415,1.9851426626913848,69.99998625859595,-3.1022975289221e-09,120.0000004287921,14.761549803925773,15.288,0.0,0.0,0.0144291285709166,1.0730708646146132e-11,-1.1289805930818607e-05,5.454623693235081e-10,1.524131613553851e-07,3.847835705161703,61.45591273303058,4.909992659361416,44.53693594320053
0.13,31.222215498941715,131.0103930285625,3.2527603144156534,3.930772257273564,0.0002334616495416,48.97912281630604,0.0004381514255012,3.332879966784005,515.9156326236895,5.29291000910811,2.14697837450085,69.99997899746312,-3.2319846316879605e-09,120.00000052665445,17.15390411677898,15.288,0.0,0.0,0.0155545271480821,1.6213054976934845e-11,-1.5205939668980214e-05,7.845246266453874e-10,2.2129102376247746e-07,3.9307722641957192,59.61963379714752,5.292946681178265,49.09238801402675
0.14,31.222215399761225,131.0103932321728,3.303102074660876,3.974215206688169,0.0002619973838136,45.6517752367845,0.0004751336112202,3.329871372909933,486.2390860568404,5.715810529806,2.3224822505960248,69.99996931796493,-3.0278168662960357e-09,120.00000063307752,20.00449107882533,15.288,0.0,0.0,0.0167973346214232,2.348527623730837e-11,-1.987978818240245e-05,1.0991767488468514e-09,3.124233627664308e-07,3.97421521531032,57.66849562457096,5.715851684258813,45.77305567531807
0.15,31.222215293031446,131.01039345127347,3.3571443345376384,4.030931671998899,0.0002913354896882,44.124602394241606,0.0005095530500122,3.3267272281353586,472.54218587214,6.108994465322584,2.4877686209990464,69.99995676574102,-2.357902735496902e-09,120.00000074807213,22.851203022750223,15.288,0.0,0.0,0.0179528146098546,3.288031851387467e-11,-2.5378271243788897e-05,1.5034697031657684e-09,4.262686944225194e-07,4.030931682509686,55.92867820417046,6.10904022819429,44.24983221165899
0.16,31.22221517862932,131.0103936861179,3.414964471116177,4.057116225061584,0.0003184878395489,34.94960252438948,0.0005470725375113,3.323196743142103,391.1218908297564,6.539585577143328,2.665849413176809,69.9999408523298,-1.0712414023203007e-09,120.0000008719298,26.185908695629568,15.288,0.0,0.0,0.0192182272759739,4.4756083943651465e-11,-3.1779328439600124e-05,2.0133564729348115e-09,5.714052209131901e-07,4.057116237541457,54.10165065632164,6.539635605096177,35.10724075608521
0.17,31.22221505695945,131.0103939358729,3.4763120799159446,4.099545518910809,0.0003467542977815,44.07630532014902,0.0005817005264383,3.3195579766366445,471.78125980632376,6.936626615296848,2.8323944385797657,69.99992104168773,1.016644284999395e-09,120.00000100441054,29.46193536662665,15.288,0.0,0.0,0.0203850469570753,5.950431587961884e-11,-3.913067225188746e-05,2.643640979372208e-09,7.462980903150452e-07,4.099545533550593,52.49050467438938,6.936681083334573,44.20113297386871
0.18,31.222214927410462,131.01039420179745,3.541568076373892,4.126035718855391,0.0003738700001966,36.78558867933042,0.0006179144513995,3.315589539785537,407.10156721191447,7.353258426044315,3.005621312112812,69.99989676504829,4.1031464496287365e-09,120.00000114637932,33.10713304790504,15.288,0.0,0.0,0.0216094417287421,7.754136502203104e-11,-4.755122955509847e-05,3.4161158738609714e-09,9.613589257123115e-07,4.126035735764705,50.87178797575381,7.353317153406615,36.934708187056735
0.19,31.222214790139244,131.01039448356835,3.6106361285624846,4.136772710021156,0.0003995496830814,41.53375929098243,0.0006560487455098,3.3112519952292927,448.9531328318269,7.793532823357761,3.186918580880849,69.99986739175792,8.429575187085977e-09,120.00000129792224,37.19013657987096,15.288,0.0,0.0,0.0229033191622591,9.932750207115759e-11,-5.710786433899303e-05,4.350039530606893e-09,1.2236899421406852e-06,4.136772729282848,49.23867244380923,7.793595584475216,41.66554393077785
0.2,31.222214644888776,131.01039478171495,3.6836771513173066,4.161251349606604,0.0004266621814203,38.10870203954219,0.0006915769884064,3.306807008108728,418.51563019916136,8.203783546260416,3.35788040905875,69.99983224044425,1.4267041115642336e-08,120.00000145960136,41.20826942345071,15.288,0.0,0.0,0.0241089672630582,1.2535980041774772e-10,-6.790794132349291e-05,5.4699603530811015e-09,1.5316968341971372e-06,4.161251371441442,47.7877992679645,8.20385056619915,38.251903798448545
0.21,31.222214492094366,131.0103950953408,3.760421952988731,4.186064616731456,0.0004538603467106,36.57478245250286,0.0007265138738411,3.3021460369944022,404.8187610144644,8.607934680276639,3.5267096729910485,69.99979058962766,2.192925899529008e-08,120.00000163128033,45.36811295159783,15.288,0.0,0.0,0.025296693152619,1.5616338658067604e-10,-7.998949025659573e-05,6.794896566544546e-09,1.8930703296165788e-06,4.186064641291782,46.42202656960046,8.608005972493187,36.72354667546929
0.22,31.22221433156076,131.01039542484804,3.840993185559904,4.175394457350496,0.0004771679592329,44.25760196318328,0.0007673339681754,3.296817563783205,472.5421858721365,9.08307208038572,3.719839568287328,69.99974168614344,3.175564915976781e-08,120.00000181352692,50.514371239944495,15.288,0.0,0.0,0.0266930343524808,1.9228606256416743e-10,-9.34485084604498e-05,8.350741548940591e-09,2.3336548926177835e-06,4.175394484567796,44.8905351204417,9.083147033753482,44.38022462954909
0.23,31.22221416277729,131.01039577128805,3.92570956920936,4.209443008955568,0.000505765656011,36.7786340412207,0.0007996839279338,3.2918139266714004,406.3406421461021,9.458524236434032,3.8787362532927343,69.99968468956638,4.4134592484546667e-08,120.00000200729951,54.77629577857664,15.288,0.0,0.0,0.0277964273977853,2.343382725212661e-10,-0.0001084436749086,1.0173004907507112e-08,2.820041971903665e-06,4.2094430392847935,43.73971965245185,9.4586036819175,36.92565451695285
0.24,31.22221398685498,131.0103961323732,4.013882316366318,4.226355780966644,0.0005323088933744,37.91406416481804,0.0008347231802975,3.28636104697172,416.2328240017114,9.86704080888363,4.048926673681761,69.999618738399,5.950917427324776e-08,120.0000022118724,59.609581133674325,15.288,0.0,0.0,0.0289969924907082,2.82944921127775e-10,-0.0001249186601224,1.2273105339801697e-08,3.388742191673149e-06,4.226355814427991,42.53987357223445,9.867124423769072,38.05622723184414
0.25,31.222213803630748,131.01039650843933,4.105614225224368,4.250726977132892,0.0005598096662028,38.963629936951286,0.0008678254867445,3.28080108474911,425.36408079150686,10.2535781252756,4.2115310363162175,69.9995429564904,7.834040249749122e-08,120.00000242790726,64.37085622778616,15.288,0.0,0.0,0.0301329690744244,3.387401576346815e-10,-0.0001429762508148,1.46812886422381e-08,4.030508232633567e-06,4.250727013927986,41.45459411788383,10.253666059972335,39.101510384823996
0.26,31.22221361346708,131.01039689873997,4.200681624225886,4.280022833195929,0.0005879700694368,42.428544424409935,0.000899380783966,3.2751199063545235,455.8015834241788,10.622759307411528,4.368133919288619,69.99945642645852,1.0113816052219233e-07,120.0000026555526,69.08903309685961,15.288,0.0,0.0,0.031217943340396,4.023873408921221e-10,-0.0001626482146837,1.7419827808866557e-08,4.75010424746895e-06,4.280022873507026,40.46133870532814,10.62285166553406,42.55476228560104
0.27,31.22221341587333,131.0103973042854,4.299390933358716,4.288954726903664,0.0006134368256322,38.82149253004484,0.0009347091972342,3.268858480171694,423.84219965987256,11.038194799634429,4.540548891648532,69.99935819651039,1.2844423117296304e-07,120.000002895907,74.59786954437136,15.288,0.0,0.0,0.0324388526128282,4.745725096604839e-10,-0.0001840812175003,2.0527513668309224e-08,5.58624418122839e-06,4.288954770690711,39.389094836202666,11.03829115806567,38.95887214611582
0.28,31.22221321097416,131.01039772481914,4.401666446214242,4.310252170513284,0.0006407043903845,44.79251079770861,0.0009669748860291,3.2626027871023395,476.3468732012221,11.418286963605956,4.700787784300965,69.99924722718289,1.6087221115281322e-07,120.00000314948416,79.82298394273762,15.288,0.0,0.0,0.0335558994872681,5.560447479146829e-10,-0.0002073517863757,2.40358312999752e-08,6.509038691964439e-06,4.310252218042685,38.45127188214632,11.418387605216251,44.91117457208496
0.29,31.22221299869305,131.0103981604986,4.507557431429972,4.33080717220119,0.000667995064167,35.91485116315614,0.0009989186689034,3.2561205133972857,397.97031042211177,11.795804966795355,4.860087560212415,69.9991224463575,1.9907974597475025e-07,120.00000341706016,85.18768232753585,15.288,0.0,0.0,0.0346653854370455,6.475748976156737e-10,-0.0002325547559602,2.7980173614973404e-08,7.541478754631267e-06,4.330807223619667,37.557581047963424,11.795909895214663,36.06215267932938
0.3,31.222212779390045,131.01039861058248,4.616841976960967,4.344738525158667,0.0006942792653683,33.68258333945627,0.0010319291143868,3.249272073547617,378.1859457108711,12.187413638396588,5.024164554357965,69.99898274169081,2.4378072155520574e-07,120.00000369900152,90.93690764507603,15.288,0.0,0.0,0.0358162849634036,7.499624915938063e-10,-0.0002597161121192,3.2386462322168265e-08,8.701809876242333e-06,4.344738580524408,36.667707016109794,12.187522695528566,33.83894487853059
0.31,31.22221255326192,131.0103990746656,4.72939966561378,4.369905962488509,0.0007223625906907,35.50926141184227,0.0010618548284546,3.2424739845996444,394.1656220930212,12.543367579808756,5.175954082954748,69.99882696664343,2.9573650386807245e-07,120.0000039959002,96.3253696798132,15.288,0.0,0.0,0.0368624066903811,8.64029624235462e-10,-0.0002888920106672,3.7285535922285255e-08,9.961944858252052e-06,4.369906022077402,35.89205157355072,12.54348104825916,35.65699489136586
0.32,31.222212320415327,131.01039955252838,4.845166075804711,4.39807618108077,0.0007510187674379,38.63349933457177,0.0010905253902974,3.2355605876941422,421.55939346242695,12.885567954069788,5.3229668707910935,69.99865395506153,3.5575129701873545e-07,120.0000043084901,101.6517102133595,15.288,0.0,0.0,0.037868113456023,9.906104870923314e-10,-0.000320143098302,4.270948617781289e-08,1.134063400150072e-05,4.398076245076961,35.17417826836373,12.88568592382191,38.768751905887335
0.33,31.222212080873128,131.01040004412383,4.964128894296181,4.425713788936582,0.0007796876762773,38.30082919906452,0.0011187787338321,3.2284491303630096,418.5156301991682,13.22408850258808,5.468656854436143,69.99846250071204,4.2468247034601643e-07,120.00000463765105,107.06168940513132,15.288,0.0,0.0,0.0388630099617664,1.1305658659519532e-09,-0.0003535456684034,4.869388751687942e-08,1.285274622490222e-05,4.425713857479497,34.4892716534602,13.22421097564187,38.43665441183612
0.34,31.22221183441487,131.0104005499059,5.086427021783056,4.435299079744822,0.0008052578337322,30.010721980631395,0.0011510599851172,3.2206243890205184,345.46563688075645,13.612521547010312,5.631407545500433,69.99825134876096,5.03443648881149e-07,120.00000498458364,113.442204819837,15.288,0.0,0.0,0.0400045939040519,1.2847878499241579e-09,-0.0003892251998318,5.528436700020823e-08,1.456528864513084e-05,4.435299152698686,33.730361219265234,13.612648036615042,30.18303922037748
0.35,31.22221158127713,131.0104010693876,5.2119155227844844,4.451140951711821,0.0008319311218575,32.876948950481385,0.0011813644212286,3.2127538662822457,370.5765700527033,13.978664830288436,5.78644863411102,69.99801916895188,5.930289919943723e-07,120.00000535008272,119.62546784157963,15.288,0.0,0.0,0.041080677044885,1.4542237170451227e-09,-0.0004272273809612,6.25140196395632e-08,1.641720053346394e-05,4.451141029300564,33.043251686793674,13.978795509723469,33.03355205080877
0.36,31.22221132137484,131.01040160274394,5.340649277689694,4.470871795790244,0.0008593868335543,37.12982177754661,0.0012102107266143,3.2047924094093707,407.8625232777193,14.328751539450977,5.935915881219735,69.9977646029183,6.944832418318251e-07,120.00000573534184,125.69083220353572,15.288,0.0,0.0,0.0421095774438511,1.6398360318698202e-09,-0.0004676587149044,7.042792887364916e-08,1.842070927606237e-05,4.4708718782178165,32.41061321886577,14.328886531619116,37.26787304213097
0.37,31.22221105479027,131.0104021498057,5.472579298133437,4.492751270871511,0.0008873387205905,35.237171596407954,0.0012380101787731,3.196701600983687,391.1218908297666,14.667729709084224,6.081505365132911,69.99748624112608,8.089205574640237e-07,120.00000614144794,131.7064951787677,15.288,0.0,0.0,0.0431058363739955,1.8426231283820915e-09,-0.0005105900024629,7.906588445277736e-08,2.0587265640723503e-05,4.492751358318509,31.819586778172766,14.66786909192451,35.38187621895001
0.38,31.22221078145016,131.01040271072378,5.607753228783809,4.504833865489776,0.0009134297099396,36.8087409690572,0.0012680086293389,3.1880577272422475,404.8187610144602,15.034920606866043,6.23670690222942,69.99718263654728,9.3751501452472e-07,120.0000065697184,138.3815012693368,15.288,0.0,0.0,0.0441850121759254,2.063606005012593e-09,-0.0005561218113114,8.847459548912545e-08,2.2984173649357096e-05,4.504833957905382,31.200345314391413,15.035064088069351,36.94654416054666
0.39,31.22221050128408,131.0104032856433,5.7462170817616816,4.520196036895042,0.0009402453237621,31.44888917855291,0.0012966932072084,3.1793094536966406,357.64062493382744,15.387893782246987,6.386959977590487,69.99685225940496,1.081529528302919e-06,120.00000702156134,144.9533796271686,15.288,0.0,0.0,0.0452224094745528,2.303861542187792e-09,-0.0006043723643915,9.870626060740209e-08,2.5564413289001297e-05,4.520196134482236,30.62657456600317,15.388041475637063,31.60918602002716
0.4,31.222210214527887,131.01040387407852,5.887826550794832,4.533791752550154,0.0009667246619936,30.072600788636176,0.0013254526530203,3.170272180782971,345.465636880754,15.743485717342091,6.538041627660393,69.99649354633307,1.24229483596895e-06,120.00000749812732,151.7280477118728,15.288,0.0,0.0,0.0462675077582819,2.5644924285132603e-09,-0.0006553732003486,1.0979644913264656e-07,2.8361926046035863e-05,4.533791855400607,30.068183611635103,15.743637570096892,30.23924512367583
0.41,31.222209921318,131.01040447574871,6.0324991887325154,4.549004288611489,0.0009935596311391,33.897690037275574,0.0013533311526904,3.1610785147326426,378.94687077668647,16.09011680252082,6.685977797357622,69.99610490270214,1.4212047094681615e-06,120.0000080007402,158.48072218594007,15.288,0.0,0.0,0.0472862765130008,2.846619413295346e-09,-0.0007091788840361,1.217857472523865e-07,3.136570890080698e-05,4.549004396886388,29.542503202313995,16.09027287050272,34.044761844827484
0.42,31.22220962171824,131.01040509052245,6.1801976388590925,4.572673185272796,0.0010222996112874,38.158239187620815,0.0013782916001677,3.1520398650715578,416.2328240017114,16.40296409109418,6.82224841531518,69.9956846942591,1.6197217448777265e-06,120.00000853087433,164.701121867162,15.288,0.0,0.0,0.0482057649085166,3.1513867850350822e-09,-0.0007658674597202,1.347205112149839e-07,3.453105980274359e-05,4.572673299306379,29.084410276890203,16.4031246735416,38.288204124904695
0.43,31.222209315743413,131.01040571836938,6.33091503252134,4.591739767344378,0.0010501025410706,33.57183574216778,0.0014041216059294,3.142606316849173,375.9031395134336,16.728136780385512,6.962675166412128,69.99523126356827,1.8393686915651208e-06,120.00000909012005,171.2934458637999,15.288,0.0,0.0,0.0491614805418438,3.4799513354189686e-09,-0.0008255202107696,1.486487368915847e-07,3.795796773287221e-05,4.591739887163257,28.62191685786476,16.72830173010693,33.718602158650526
0.44,31.22220900318596,131.010406359717,6.484782670095661,4.595168506343871,0.0010743724850206,30.97954919353824,0.0014342179253276,3.132220103019705,353.0750125389216,17.107298636892306,7.121555382370644,69.99474288619324,2.081754608970904e-06,120.00000968039768,179.14391522307454,15.288,0.0,0.0,0.0502758675318522,3.833509174938745e-09,-0.0008882840927688,1.6363500165629029e-07,4.1769047958047424e-05,4.595168631671208,28.09759078371132,17.107467398927604,31.13748983244471
0.45,31.222208683769857,131.01040701513364,6.641974530220857,4.595454055519364,0.0010979081784372,36.02615596348977,0.0014649648405323,3.121404582890456,397.2093853562869,17.496536863493112,7.283815508888181,69.99421771417538,2.3486168706172e-06,120.00001030383676,187.38586392091827,15.288,0.0,0.0,0.0514198733592113,4.213336549982715e-09,-0.0009543579922293,1.7975923149083397e-07,4.589634599484739e-05,4.595454186389628,27.57774237926561,17.496709322506486,36.16112667246281
0.46,31.2222083574398,131.0104076847333,6.802527558570676,4.605693931211119,0.0011238632949492,42.03089166868429,0.0014922747036166,3.110829076791483,449.7140588976434,17.845819468429536,7.432281453576888,69.99365380022755,2.641814335539715e-06,120.00001096245848,194.9390873810532,15.288,0.0,0.0,0.0524464610435695,4.6207817585703335e-09,-0.0010238761783054,1.9708944401374445e-07,5.022176121859575e-05,4.605694068035973,27.128383920160587,17.84599600446308,42.145855243861995
0.47,31.2222080240866,131.010408368741,6.966512203030794,4.614152084805998,0.0011494918595856,28.490618487892032,0.0015197424981915,3.099915844341456,331.0078106302534,18.199185973875867,7.582065698179987,69.99304915837178,2.9632890424399526e-06,120.00001165842936,202.7323365583046,15.288,0.0,0.0,0.0534850565726997,5.0572153111741515e-09,-0.0010969724208529,2.156956667325637e-07,5.487175347465589e-05,4.614152227678824,26.687844807764478,18.19936653563493,28.658765192768367
0.48,31.222207684289,131.01040906596495,7.133571627664612,4.622000730656878,0.0011749698515564,28.06510627105611,0.001547018922232,3.088717757681936,327.2031223011574,18.55235577928948,7.731702584359075,69.99240175688175,3.315079936035433e-06,120.00001239327932,210.6736704367175,15.288,0.0,0.0,0.0545230797586266,5.524058679156961e-09,-0.0011735606209308,2.3559420055732242e-07,5.984099314341719e-05,4.622000879678751,26.261284180455707,18.55254034312216,28.234559847561997
0.49,31.222207338272955,131.01040977594008,7.303568125522389,4.636524090644438,0.0012021420624493,35.202720564130615,0.0015717106705237,3.077667389442432,389.60000969812296,18.875822822956383,7.871063983102338,69.99170956919154,3.69927702677942e-06,120.00001316897072,218.0804973046144,15.288,0.0,0.0,0.0554738157864,6.0227131705570115e-09,-0.0012536714490896,2.568289336145449e-07,6.503943185674631e-05,4.636524246147742,25.88346412185407,18.876011654989966,35.337000072821354
0.5,31.222206986079385,131.0104104985822,7.476478876276843,4.656375591223089,0.0012307521817739,36.169577190075735,0.0015941837088904,3.066727704024089,397.97031042210494,19.1739813587936,8.001656074502515,69.99097056176137,4.118029932696616e-06,120.00001398772736,225.02068144441787,15.288,0.0,0.0,0.0563501784527681,6.554574856807533e-09,-0.0013373792370606,2.794550708457881e-07,7.04768975800381e-05,4.656375753518283,25.54582834856768,19.17417468489422,36.29935447719281
0.51,31.22220662780727,131.0104112336875,7.652244990363699,4.669255194951922,0.0012575689539911,27.65486509657103,0.0016185154268181,3.0551456206668206,323.3984349720841,19.49722881327577,8.140779540594588,69.99018267863804,4.57356113317684e-06,120.00001485178718,232.66779886583944,15.288,0.0,0.0,0.0573002800427077,7.1210529347542515e-09,-0.001424740489152,3.035237721175428e-07,7.634511016922899e-05,4.669255363927167,25.18826056936022,19.49742635174512,27.82311055386537
0.52,31.222206263441503,131.01041198133484,7.830876048198871,-2.239531339951907,0.0001910607360723,33.22783031067854,0.0014583640390579,3.441336322481437,372.0984511843415,18.918196149398288,8.284554409709862,69.98934936836653,1.5080862311642845e-05,120.00002641960144,219.0496196068649,15.288,0.0,2.510430879228099,0.0555986767176733,7.723251504312094e-09,-0.0014564291263351,1.305053458246479e-05,7.572411418221992e-05,2.2395313480977856,25.53397598081529,18.918226161148528,33.405560988651324
0.53,31.22220589268032,131.01041274212463,8.0124677265359,-2.1263616163149925,0.0002320006528923,34.89064611479552,0.0014819044295973,3.4396535186213937,386.5562464348624,19.240294933640087,8.42891334076836,69.98852612810728,3.56143274207812e-05,120.0000486643166,226.5681887087989,15.288,0.0,2.5200389637760154,0.0565454084993681,8.320309818793154e-09,-0.0014158669453356,1.3054991550396512e-05,7.486722178631827e-05,2.1263616289654905,25.153143157915743,19.240331376217423,35.05978329699288
0.54,31.222205515375403,131.01041351632907,8.197091469233113,-2.017089968308545,0.0002723271783461,30.63307748785103,0.0015051592473231,3.437830605115136,349.2703242098436,19.560517005134496,8.572586150362604,69.98772602636886,5.6154046270920816e-05,120.00007092244388,234.1684830196908,15.288,0.0,2.529617682932799,0.0574866306337019,8.898707363394606e-09,-0.0013757593944538,1.306037201318889e-05,7.395587282671727e-05,2.017089986684463,24.78497600053074,19.56055978218764,30.825381066771197
0.55,31.222205131855223,131.01041430327183,8.38454383543468,-1.912044277041825,0.0003121247437723,32.470070489400065,0.0015277197676241,3.435840349420827,365.2500005919907,19.87307135458026,8.713587959468015,69.98694877390214,7.67015687209679e-05,120.0000931952879,241.70740197171733,15.288,0.0,2.539161124577604,0.0584053237482833,9.458676051197312e-09,-0.0013362198694864,1.3066724413349063e-05,7.29768226522474e-05,1.9120443025084384,24.43519939339076,19.873120383020364,32.651347274304705
0.56,31.222204742121125,131.01041510295008,8.57482455421617,-1.811315134593056,0.0003515366122679,30.2998128969957,0.0015492724874791,3.4336662984698254,346.2265619465787,20.173503640798355,8.85039351298804,69.98619403236187,9.7258520183129e-05,120.00011548458504,249.06614194495603,15.288,0.0,2.5486707662530628,0.0592883968171633,1.0000465393587626e-08,-0.0012973023230165,1.3074104148331427e-05,7.192115034333795e-05,1.811315168694436,24.107512733806093,20.173558860040284,30.49374900274546
0.57,31.222204346258813,131.0104159151873,8.767881029960101,-1.7128551712419875,0.0003902548909625,29.958584602323825,0.0015712196208821,3.431392404910048,343.1828296833023,20.481749952553606,8.989828138002963,69.98546142382732,0.0001178266097543,120.00013779206996,256.7308746311697,15.288,0.0,2.558141826709672,0.0601944404399403,1.052436370516818e-08,-0.0012590795608398,1.3082564825827712e-05,7.086736437775284e-05,1.7128552156864476,23.78001825127388,20.48181125364853,30.1544565144159
0.58,31.222203944243,131.01041674003565,8.963729650840701,-1.6156025049920624,0.000427981655549,39.46968077398095,0.0015945217783732,3.429065986687103,426.1250058573153,20.81162910620584,9.136622810116984,69.9847505360777,0.0001384076316001,120.0001601196871,265.06230387155097,15.288,0.0,2.567573799725481,0.0611640674942859,1.10306779538639e-08,-0.001221606006925,1.3092164622187756e-05,6.986426867818703e-05,1.6156025616642486,23.43913427899003,20.811696333407085,39.61835681200718
0.59,31.22220353560092,131.01041757846846,9.162664589978489,-1.5234342055526156,0.0004658005068176,31.97927866864501,0.0016156670291186,3.42649399821006,360.68438819711065,21.11315237578887,9.273663154868688,69.98406094974683,0.000159003482947,120.00018246997112,272.79328866807504,15.288,0.0,2.576980839772207,0.0620503646520329,1.1519680237316652e-08,-0.0011848631058995,1.3102984739981572e-05,6.874337383523321e-05,1.5234342767467155,23.13524687305157,21.113225543561384,32.162324665623956
0.6,31.222203120581607,131.01041842997293,9.364531965420584,-1.4312129666477766,0.0005022337906876,28.410527242468667,0.0016393937914895,3.423922584126928,329.4859594986058,21.454100812942944,9.424155311510168,69.98339220958313,0.000179616167497,120.0002048447944,281.66944178533174,15.288,0.0,2.5863535350628166,0.063052536479137,1.1991733396187409e-08,-0.0011489555237395,1.311507969958475e-05,6.773524410644097e-05,1.4312130547499906,22.801132537465435,21.454179703642303,28.616102228374164
0.61,31.22220269912838,131.01041929466575,9.569367755836511,-1.3414900549765691,0.0005379696726536,33.30489606162831,0.0016633648793643,3.4212198785350973,372.0984511843297,21.80122876687027,9.57671532324155,69.98274382984393,0.0002002477907766,120.00022724646622,290.85229905975285,15.288,0.0,2.595693080731464,0.0640728763509072,1.244719549455911e-08,-0.0011139366647293,1.3128518792548551e-05,6.673199284255742e-05,1.3414901628260991,22.47039845295112,21.80131327094884,33.480156061463205
0.62,31.222202271375263,131.01042017227093,9.77708958426738,-1.2582366259107602,0.0005748228172166,41.43143638667154,0.0016826728912291,3.4181622801508778,442.86563930529206,22.08393190952073,9.707167629003962,69.98211529178842,0.000220900570952,120.00024967721052,298.43839321053366,15.288,0.0,2.604999078152564,0.0649038808569461,1.2886461568161144e-08,-0.0010798812006589,1.3143365992338708e-05,6.552942259057633e-05,1.2582367571930757,22.20711912700653,22.084022202477712,41.572199331616375
0.63,31.22220183710784,131.01042106323,9.98783143335196,-1.1761062564340738,0.0006108122576967,23.452758958724967,0.0017031012242796,3.415023761206556,286.11251274707894,22.3853436617814,9.843976723851217,69.98150601658033,0.000241576802088,120.00027213970633,306.6342326436982,15.288,0.0,2.6142730850423512,0.0657898755585098,1.3309951750417548e-08,-0.00104683506907,1.3159701758480475e-05,6.438981861500778e-05,1.176106415024649,21.93314586742931,22.38543960794647,23.7000905687344
0.64,31.222201397007943,131.01042196613895,10.201171011781929,-1.0945699417282229,0.0006454277900378,23.020935827669007,0.001725554779376,3.411822238276669,282.30782441796754,22.71868228061353,9.99166357556205,69.9809153859771,0.0002622788930806,120.0002946357918,315.82789426348074,15.288,0.0,2.6234909502284567,0.0667697087876991,1.3718199426706424e-08,-0.0010149549274256,1.3177551443182444e-05,6.335722830509405e-05,1.0945701319977623,21.63800234698213,22.718783664173703,23.272387508478648
0.65,31.22220095105328,131.01042288104367,10.417123197434506,-1.017574734941433,0.0006809965273287,40.763515921706606,0.0017443738424541,3.4083344665340176,436.7781447787475,23.00211247630062,10.122208643460356,69.98034272994433,0.0002830093300083,120.00031716814362,323.7506494264399,15.288,0.0,2.632662820121181,0.0676028686126171,1.4111701583719617e-08,-0.0009842935679099,1.3196986263547648e-05,6.220848709339563e-05,1.017574962791034,21.39259876258183,23.002219446984988,40.90575726200203
0.66,31.222200498654388,131.01042380915797,10.6360548630137,-0.9420414221521958,0.0007158965721541,34.655048118125684,0.0017637604434432,3.404731573494581,383.51251517160017,23.29652684736909,10.256463895723844,69.97978734139505,0.0003037706976925,120.00033974015236,332.0843666420822,15.288,0.0,2.641810856740968,0.0684683172067291,1.4490932778021956e-08,-0.0009548518620928,1.3218121598559495e-05,6.111887025446931e-05,0.9420416941475598,21.14347929207861,23.29663930013968,34.82189771204333
0.67,31.222200040026728,131.0104247500381,10.857833357012876,-0.8672958469122669,0.0007495067182473,23.821596571377384,0.0017849382210586,3.4010368640166995,289.1562440103425,23.61991096441399,10.4005829511897,69.97924849420193,0.0003245657410873,120.00036235451437,341.3605549871368,15.288,0.0,2.650904978358568,0.0694189143817622,1.4856462058609061e-08,-0.0009267261773315,1.3241017585121516e-05,6.0140713653366176e-05,0.8672961707450566,20.876533784336488,23.62002869665398,24.06315686159785
0.68,31.22219957536604,131.01042570328113,11.082338346705658,-0.7948635586425477,0.0007829638373711,29.77373526314012,0.0018053103758661,3.397161530552137,340.8999924858462,23.934553407100005,10.541653966868871,69.97872541617541,0.0003453973124169,120.00038501406118,350.50814758584465,15.288,0.0,2.659959301670085,0.0703438266340317,1.5208886802839557e-08,-0.000900004476954,1.3265736469131555e-05,5.918334748986217e-05,0.794863944238813,20.622975571659847,23.934676394771977,29.9669154442589
0.69,31.22219910476436,131.01042666869748,11.309513860131588,-0.7252155984580814,0.0008170027928559,36.69148310562714,0.0018234470327775,3.3930715475875024,401.0140726853634,24.219448308379807,10.67248381243274,69.97821728567138,0.0003662683611087,120.00040772183873,358.89423230438945,15.288,0.0,2.668977123760621,0.0711813172544371,1.5548833642906165e-08,-0.0008747657144518,1.3292346344813392e-05,5.8207112089359896e-05,0.7252160586372209,20.398340094201,24.2195766428784,36.84803753719496
0.7,31.222198628062166,131.01042764661557,11.53946012590302,-0.6571367858508081,0.0008506664715573,30.74887385886349,0.0018414564494877,3.3888254787829744,349.27032420985284,24.505459623855742,10.803637611920434,69.97772323387503,0.0003871819335189,120.00043048126632,367.41264740282367,15.288,0.0,2.677941029522472,0.072022095585783,1.58769370240945e-08,-0.0008510677630262,1.3320941976135865e-05,5.729773528816021e-05,0.6571373364224583,20.17763003347932,24.50559324623262,30.9350510764878
0.71,31.22219814532095,131.01042863690887,11.772140262684283,-0.5901741140324379,0.000883302620236,25.24062363329272,0.0018605702807278,3.3844462806780413,301.33126406340574,24.81083452334846,10.941363557802871,69.97724235461169,0.0004081412115427,120.0004532956696,376.6183161967273,15.288,0.0,2.686861435722407,0.0729197906844521,1.6193883863521177e-08,-0.0008289914242038,1.335159810509522e-05,5.6505688349842805e-05,0.5901747750201245,19.947234649403583,24.810973272199583,25.466518440612415
0.72,31.22219765654195,131.0104296395749,12.007554801136555,-0.5243629875128122,0.000914698952314,30.937620808380405,0.0018810892258179,3.3799260949104792,350.79220534145287,25.140271731078872,11.08727067440562,69.97677370193891,0.0004291495116936,120.00047616858224,386.6774180355703,15.288,0.0,2.695745661791715,0.0738882128110429,1.6500379468316437e-08,-0.0008086097939552,1.3384400436068526e-05,5.584700746110068e-05,0.5243637852903582,19.70454424333281,25.14041541165431,31.12170119432236
0.73,31.22219716172034,131.0104306546235,12.245708071521973,-0.4613038166284004,0.0009478223047692,39.177657085372246,0.0018975341665163,3.375171905538076,422.320318528234,25.41272882467664,11.213607275095027,69.97631629200869,0.0004502103073977,120.00049910371092,395.0950123559084,15.288,0.0,2.7045883611554125,0.0746891752271552,1.6797149901932672e-08,-0.0007899947939765,1.3419440457496598e-05,5.515139997816649e-05,0.4613047903320273,19.507954929022883,25.41287770825611,39.322774618426756
0.74,31.222196660780977,131.0104316822094,12.486648100011402,-0.3992963772976452,0.0009799625867024,24.46651644012816,0.001914988953442,3.370266063592585,294.48281347105944,25.70346130850498,11.346139743605622,69.97586908635391,0.0004713271542433,120.00052210492515,404.17748372727687,15.288,0.0,2.7133786084398697,0.0755438566771944,1.7084966191183922e-08,-0.0007732245307338,1.345681201855477e-05,5.4596926563817456e-05,0.3992975798000208,19.302522303403368,25.70361524066813,24.69755299056261
0.75,31.222196154144253,131.01043272146708,12.7301154821874,-0.3385378549725858,0.0010112822512036,28.590356155213463,0.0019330252624689,3.36519281746183,330.24688556441487,26.0062634387594,11.48274304480687,69.97543100134043,0.0004925037443961,120.00054517570716,413.7468072919359,15.288,0.0,2.7221244843507417,0.0764340183908786,1.7364686446534643e-08,-0.000758402256375,1.3496546413982845e-05,5.417992271789805e-05,0.3385393654064032,19.09312722600875,26.006422290603947,28.787722930395795
0.76,31.222195641678983,131.01043377266672,12.976193088411785,-0.2794298700062921,0.001043079873044,30.78766304118052,0.0019494304123415,3.359932508174064,349.27032420986166,26.288178145381696,11.612131367120451,69.97500090596957,0.0005137438777287,120.00056832024588,422.75568440943175,15.288,0.0,2.730829815717501,0.0772627976707808,1.7637128843034583e-08,-0.0007455959179315,1.3538753919748764e-05,5.3841178228348165e-05,0.2794318168321007,18.902145295161443,26.288341991985,30.970459244206193
0.77,31.222195123316315,131.01043483595004,13.224925169059365,-0.2216443060424077,0.0010747966102943,28.77673421261878,0.0019652309763291,3.354494975981732,331.7687666960708,26.56453298367408,11.739551563002344,69.97457762425154,0.0005350514929491,120.0005915428109,431.68054310345,15.288,0.0,2.739488803504127,0.0780752430033683,1.7903155046199696e-08,-0.0007348827622604,1.358353777830354e-05,5.362414941426759e-05,0.2216469119632805,18.718596912237555,26.56470181233082,28.971590780447727
0.78,31.222194599130585,131.010435911164,13.476267158001145,-0.1649437632700264,0.0011054653436977,23.60674752707565,0.001981998640927,3.3488747484978005,286.8734378128899,26.859054205374143,11.873126439537751,69.97415993354645,0.0005564306629628,120.0006148476604,441.295046724517,15.288,0.0,2.7480921663585,0.0789410877943717,1.816368090921836e-08,-0.0007263487006804,1.3630977759436624e-05,5.358775558758429e-05,0.1649474676738535,18.52691513443284,26.85922785146426,23.843101619054035
0.79,31.22219406922372,131.01043699809878,13.730157415639631,-0.1094658034366921,0.0011353637751438,33.61419952844544,0.0019992127158701,3.343061959327316,373.6203323159534,27.16411964970404,12.010246623518684,69.97374656462304,0.000577885607318,120.0006382391786,451.36543887797535,15.288,0.0,2.756652347109684,0.079837930263859,1.841965410342785e-08,-0.0007200779265548,1.3681152944419856e-05,5.372720302008248e-05,0.1094716911877685,18.33248655052729,27.164297992228786,33.7800307459732
0.8,31.22219353333457,131.0104380972921,13.986759608407024,-0.0553461221231979,0.0011665184217097,34.05977057498715,0.002013729723918,3.33707535168647,377.42502064505743,27.4322020485548,12.134636088252147,69.97333620182313,0.0005994207165623,120.00066172232148,460.3070984415688,15.288,0.0,2.765175972844356,0.080626083340732,1.8671998986254448e-08,-0.0007161479732038,1.3734215935336448e-05,5.3959986873110354e-05,0.0553584139890212,18.164958159529288,27.432385284839985,34.22285855358522
0.81,31.2221929915821,131.0104392084992,14.246001608248552,-0.002318479678045,0.0011964043359849,22.125970757407167,0.0020295111377223,3.330886018366895,273.9374926939919,27.723369168854006,12.266863737944506,69.9729274793604,0.0006210405131448,120.0006853017766,470.1187087258306,15.288,0.0,2.7736586462515334,0.0814820919926095,1.89217401042143e-08,-0.0007146497266724,1.3790241500192032e-05,5.441727938268873e-05,0.0026089713375202,17.986486030429376,27.723557099607625,22.375285199163486
0.82,31.22219244418632,131.01044033126695,14.507748635045903,0.0495628817515721,0.0012255516204901,28.45288228112103,0.0020456561203635,3.324485872292946,328.72500443277005,28.024165749413367,12.40231980680439,69.97251898155606,0.0006427496610402,120.0007089822734,480.36348564432217,15.288,0.0,2.7820885994891333,0.0823664101272919,1.916994225373484e-08,-0.0007156702954763,1.3849289392541949e-05,5.5084873089199615e-05,0.0495780316661148,17.80578627288025,28.024358258611727,28.646443419788003
0.83,31.22219189112609,131.01044146563888,14.77201554995862,0.1004714150213208,0.0012564257175317,36.18875317807701,0.0020585193304609,3.3179354956495946,395.68750322465047,28.278768723801896,12.521885727615723,69.97210924255091,0.0006645529755522,120.00073276896092,489.1190432201628,15.288,0.0,2.790468081517156,0.0831149668563809,1.941766447149061e-08,-0.0007192955161888,1.3911473550133286e-05,5.5865474992826336e-05,0.1004792706982639,17.65572327798857,28.27896608269208,36.34053600010011
0.84,31.222191332275266,131.0104426118749,15.03888241318134,0.1503716846056865,0.0012866769104603,22.31174607881085,0.0020716586924463,3.311183468802412,275.4593748256452,28.54161551782348,12.644204627241976,69.97169674706069,0.0006864553755235,120.00075666721068,498.24110296788245,15.288,0.0,2.7988064340675978,0.0838877602375515,1.9665997334505386e-08,-0.0007256175451664,1.3976922048256577e-05,5.687885469100292e-05,0.1503771893090797,17.50348850360702,28.541817628559937,22.556106785994153
0.85,31.22219076798024,131.01044376926183,15.30813615677216,0.1990560237401548,0.0013149306261267,24.336849340514767,0.0020869497241703,3.3041677848758497,292.96093233939376,28.841900885773743,12.779274299571616,69.9712799297271,0.0007084619215189,120.00078068203732,508.7670531992326,15.288,0.0,2.8070969033206805,0.084770598040424,1.9916130707554864e-08,-0.0007347179066486,1.40456588711918e-05,5.819662386613433e-05,0.1990603667808967,17.3327468161069,28.84210743459348,24.56012550718918
0.86,31.222190198034408,131.01044493822505,15.579906802751944,0.2469222474645683,0.0013442148331201,30.495460092637448,0.0021000789598153,3.296990147220741,346.2265619465587,29.113136009725665,12.904322808207557,69.9708571716764,0.0007305778781287,120.0008048192659,518.3676170058187,15.288,0.0,2.8153452775023324,0.0855680604294516,2.016919652063462e-08,-0.0007466925962848,1.4117850996358492e-05,5.969978753678249e-05,0.2469259062854946,17.18147349200772,29.113347158497877,30.673167992609525
0.87,31.222189622465063,131.0104461187084,15.85417931414918,0.2939863643897408,0.0013738998198898,28.390100716450167,0.002111994636912,3.289634909785113,327.964078366998,29.36985139017733,13.024325411771448,69.97042680273474,0.000752808648035,120.00082908461704,527.5358066247034,15.288,0.0,2.823551158049721,0.0863228542184982,2.042640440830663e-08,-0.0007616342046395,1.4193603980726514e-05,6.142974328282247e-05,0.2939895746978942,17.040820899446576,29.37006720185636,28.580054600899253
0.88,31.2221890413132,131.0104473106276,16.13093019282632,0.3399574760986379,0.0014024398715514,24.524166395378465,0.0021248168076911,3.282026493744657,294.4828134710418,29.645200951257344,13.150636551432491,69.96998710136411,0.0007751597754698,120.00085348394678,537.4594446044744,15.288,0.0,2.8317125821638767,0.0871324242269023,2.06890055731765e-08,-0.0007796337061496,1.4273013004272205e-05,6.34693388108071e-05,0.3399603688232072,16.89251309537467,29.6454212459972,24.742805819241653
0.89,31.22218845467391,131.01044851378683,16.410102398259706,0.3847907027784389,0.001429796334798,26.903974320851407,0.0021385314762766,3.274144416519156,315.028134248087,29.93929143429106,13.283291533063068,69.96953629211274,0.0007976369753326,120.00087802323424,548.1612018262274,15.288,0.0,2.8398206541944546,0.0879970847115049,2.0958285559303127e-08,-0.0008007807062611,1.4356172335862668e-05,6.58358494353954e-05,0.3847933591315676,16.73694217422572,29.939516026174115,27.10246963821881
0.9,31.22218786245737,131.0104497283712,16.691753651895645,0.4293929942581617,0.0014592796474908,29.725086798058264,0.002148755651235,3.2661755136816595,339.37814235421445,30.18316761706638,13.39867143586994,69.96907254031038,0.0008202461788956,120.00090270888704,557.1128060289055,15.288,0.0,2.84788511116722,0.0887141635955986,2.123553550646192e-08,-0.000825179062774,1.4443232375109837e-05,6.839251791640204e-05,0.4293954738650671,16.610352730342722,30.18339684017736,29.903991242899703
0.91,31.222187264745887,131.01045095421122,16.975834918033897,0.4729137246287056,0.0014875971897938,22.59835281379931,0.0021598666778277,3.257932824300983,277.7421810230789,30.445772188783465,13.520390226403071,69.96859396564777,0.0008429933939889,120.00092754720896,566.8336816663981,15.288,0.0,2.85590600280924,0.0894862960216933,2.1522115788970105e-08,-0.0008529200717077,1.4534283451067336e-05,7.130484769301113e-05,0.4729160642623187,16.47616495124952,30.446005860003588,22.831988105498674
0.92,31.22218666177609,131.01045219081973,17.26220146100365,0.5153057019010508,0.0015147075280281,26.91703997239197,0.0021718406280292,3.249396964313872,315.02813424806214,30.727035958986367,13.648424039695824,69.96809863232622,0.0008658848043426,120.0009525445247,577.3392113251198,15.288,0.0,2.8638795167583377,0.0903132790698243,2.181944319395261e-08,-0.000884076301561,1.4629366713583536e-05,7.459027388988963e-05,0.5153079280288576,16.334819153625006,30.727273888688455,27.112462562886662
0.93,31.222186053440566,131.010453438418,17.550921994501838,0.5576987416636312,0.0015438836706877,32.03082650285952,0.0021805342228008,3.2407949016134987,359.1625070654728,30.960900689593227,13.760143612759167,69.96758454871089,0.0008889267647182,120.0009777077102,586.1447068168419,15.288,0.0,2.871809816942004,0.0910009535943758,2.2128901792120533e-08,-0.0009187602425644,1.4728650614624948e-05,7.810440380840763e-05,0.5577008785668524,16.219455694311435,30.96114320227309,32.19435669190085
0.94,31.22218543960935,131.0104546972737,17.842079223547103,0.5985856301441081,0.0015707657511017,23.22448326205564,0.0021914572400935,3.231808233808624,283.0687504837787,31.235617541503103,13.8857793687855,69.96704967442886,0.0009121257475898,120.0010030437904,596.5759254539134,15.288,0.0,2.879696826634927,0.0918087089603941,2.245192512025516e-08,-0.0009570844315221,1.483228777577242e-05,8.208200299253901e-05,0.5985876910114178,16.08583433871451,31.235864276810283,23.448266717437786
0.95,31.22218482062201,131.0104559666877,18.135464676332138,0.6388187800050809,0.0015977037958275,30.10297018231129,0.0022016149708591,3.222602102306084,342.4218736174873,31.503320720634125,14.008934050206433,69.96649190153492,0.0009354884840799,120.00102855956072,606.8284901490608,15.288,0.0,2.8875373635751065,0.0925958570875495,2.279004697603237e-08,-0.0009991093479778,1.4940296979662109e-05,8.64181006777034e-05,0.6388207778700499,15.957857864339909,31.50357168735947,30.27497288114423
0.96,31.222184196132964,131.01045724737165,18.431294841227924,0.678811382335234,0.0016256580395287,29.4908484341163,0.0022098894840704,3.213259324236537,337.09533515678345,31.74592310119863,14.123409929570307,69.96590906884967,0.000959021847592,120.00105426270352,616.1931608733337,15.288,0.0,2.895337657045962,0.0933092354565447,2.3144724246180668e-08,-0.0010449886070982,1.5052935925560229e-05,9.107989814884238e-05,0.6788133288532624,15.843886314483871,31.74617845896631,29.665386930435012
0.97,31.22218356616484,131.010458539279,18.72955785041289,0.7178682140498703,0.0016528411862325,18.82456060924515,0.0022184523275638,3.203626725244696,245.02188719299323,31.998678740799846,14.241283914485887,69.96529894992419,0.0009827329412532,120.00108016074977,626.0263385583174,15.288,0.0,2.903096953979024,0.0940524642470992,2.3517522759882252e-08,-0.0010948276204482,1.5170330342980637e-05,9.618079697502693e-05,0.7178701167233578,15.726886685473907,31.998938368486225,19.095216973037434
0.98,31.222182931055272,131.0104598417146,19.030046531721105,0.7552709778491083,0.0016776408979259,27.47173178039609,0.002229133818833,3.193536466975956,319.5937466429581,32.29190126639065,14.372942455635922,69.96465926283521,0.0010066290286238,120.00110626106226,637.5337949289071,15.288,0.0,2.910809971551898,0.0949146435597481,2.3910099887202845e-08,-0.0011486724899669,1.5292473101428895e-05,0.0001018328461493,0.7552728409637932,15.593087017047909,32.29216478960663,27.656730232422042
0.99,31.222182290629533,131.0104611550384,19.33287149241896,0.7936620975197533,0.0017059497264016,30.03487460540602,0.0022350469383905,3.1835552050112934,341.6609485517054,32.512459274115656,14.479623098294622,69.9639876564641,0.001030717611294,120.00113257180726,646.2536222772305,15.288,0.0,2.9184826468460137,0.0955632498171705,2.4324043157065323e-08,-0.0012066708204514,1.5419594706618836e-05,0.0001077020691062,0.7936639308410107,15.494539424484213,32.51272724407201,30.20312436323853
1.0,31.222181644885445,131.01046247925493,19.638036316675542,0.83042739690767,0.0017319368120208,26.86237549027575,0.0022429920532269,3.173107757124141,314.2672081822764,32.77242395025393,14.599723941987696,69.9632817454405,0.0010550062239969,120.00115910100024,656.6103855118689,15.288,0.0,2.9261126569115854,0.0963276907142598,2.476102291671032e-08,-0.0012689245797172,1.5551811633866046e-05,0.0001141608148688,0.8304292028402611,15.379695359514354,32.77269600225215,27.04913741415615
1.01,31.222180994033504,131.01046381393084,19.945412758253568,0.8667323941089565,0.0017581002648007,28.102439477207348,0.0022500532092547,3.1624400400580224,324.9203161036979,33.023717319432684,14.716771704514008,69.9625390644031,0.0010795027038214,120.00118585674988,666.6988619538841,15.288,0.0,2.933698931607291,0.0970666517171804,2.522277401152559e-08,-0.0013355053897378,1.568918401167832e-05,0.0001210685852733,0.8667341770571382,15.270463782957874,33.02399348117645,28.27981853972553
1.02,31.2221803379837,131.01046515925145,20.25505890893455,0.9027206195444688,0.0017846791906246,23.42632095842971,0.0022559830576507,3.1515802245734874,284.59063161540416,33.26217992619087,14.82933998798744,69.96175709983568,0.0011042150016733,120.00121284760824,676.341908133946,15.288,0.0,2.9412433677158507,0.0977679067451625,2.571101129136816e-08,-0.0014065435615639,1.58318927652938e-05,0.0001284253753931,0.902722383552902,15.168455847415144,33.26246026294254,23.637363995351627
1.03,31.222179676815248,131.0104665150539,20.56692796719501,0.9373186135828578,0.0018095229306422,19.101008882524937,0.0022631508097104,3.140273695679981,247.30469339049705,33.52781258559671,14.951136310845843,69.96093328387653,0.0011291512223592,120.001240082109,687.1670282918543,15.288,0.0,2.9487446043273824,0.0985490306729379,2.6227518269377587e-08,-0.0014821303093713,1.5980037233023183e-05,0.0001364035107147,0.937320360095511,15.056246622602972,33.528096824793934,19.357424010852473
1.04,31.2221790105992,131.01046788119191,20.880978206659403,0.9721034630984104,0.001835686579404,30.501099342904368,0.0022681827378756,3.1288763312592254,345.46563688072297,33.76378632956513,15.06268538322892,69.96006496722661,0.0011543197658336,120.0012675691084,696.8528153967768,15.288,0.0,2.9562037418851537,0.099242985138642,2.677411321645664e-08,-0.0015623671827717,1.6133742068214636e-05,0.0001447955085912,0.9721051961543472,14.95832973944446,33.764074678538684,30.66116327484475
1.05,31.222178339004405,131.0104692583474,21.197417273351324,1.005625509520594,0.0018604082031056,18.30949857120026,0.0022741001775178,3.117045186719701,240.45625879819983,34.02154467688729,15.181616154443669,69.95914941437995,0.0011797359251031,120.00129532769888,707.5117042688336,15.288,0.0,2.963624946475588,0.1000009796331858,2.7352583245241866e-08,-0.0016474583427528,1.6293320635770157e-05,0.0001538424223474,1.0056272302211888,14.852683314650545,34.02183690912442,18.57292959649523
1.06,31.22217766230538,131.0104706459552,21.51607734976097,1.0379432291166693,0.0018838167210061,26.1793246753336,0.0022806992632086,3.10477619998786,308.17968365593924,34.29806044313836,15.306892623648972,69.95818390239441,0.0012053950564827,120.00132334769864,719.0372720462418,15.288,0.0,2.9710050536002326,0.1008141167485201,2.7964874232010628e-08,-0.0017374471832715,1.6458784823925436e-05,0.0001635594041918,1.0379449384461177,14.740902535503224,34.29835635237688,26.362789702725525
1.07,31.22217698036736,131.01047204429295,21.837044388817954,1.071126729120625,0.0019096622054997,30.869927240681584,0.0022840290132256,3.092571142987491,348.5093681440308,34.525309607686694,15.415198008296858,69.95716552185807,0.0012313130793222,120.0013516486552,728.5746480794115,15.288,0.0,2.978348363156249,0.1014824498864004,2.8612898181683505e-08,-0.0018325074554879,1.663039003040399e-05,0.0001736458027962,1.071128431245125,14.650877213225652,34.52560957672442,31.024448574248705
1.08,31.22217629307332,131.01047345360155,22.16039330036846,1.1034767334664124,0.0019348213419935,20.703219721336083,0.002287402336436,3.0800102898248745,261.00157857466235,34.76042600956717,15.526114043975108,69.95609135325859,0.0012574992533617,120.0013802405406,738.5086457347987,15.288,0.0,2.985655360700138,0.1021739153705663,2.9298612210861568e-08,-0.0019327951893757,1.6808350711546022e-05,0.0001843904382171,1.103478429500412,14.558890325273518,34.76072993059281,20.93107200903852
1.09,31.22217560074137,131.0104748732263,22.485929331207128,1.1336298503409987,0.0019569141642443,19.02441207605905,0.0022931996001841,3.0667291472296747,246.54375332474407,35.04548273125646,15.654065602065412,69.95495840490275,0.0012839630761279,120.00140913311232,750.6472825391807,15.288,0.0,2.992921708783393,0.1030121822907058,3.0024107234008974e-08,-0.0020383258454515,1.6992635564542892e-05,0.0001960467053908,1.1336315391685687,14.448391277649504,35.045790122614505,19.2700048718451
1.1,31.22217490345903,131.01047630298694,22.81360066757969,1.164083388332808,0.001980295013837,38.40803376923993,0.0022969314428337,3.053352507952945,413.1890617385841,35.30212482683086,15.772192519587128,69.95376361178434,0.0013107142784632,120.0014383366236,761.6577184045373,15.288,0.0,3.000148854874064,0.1037669360257879,3.0791445053084376e-08,-0.0021492052189646,1.7183378430976935e-05,0.0002082183278829,1.164085072501639,14.35072385687101,35.30243589084417,38.52921002087625
1.11,31.222174200761703,131.01047774384023,23.14369770183121,1.1958384543055876,0.0020066124705637,28.057692202887328,0.0022970274519102,3.040158734862205,324.1593910376397,35.50199846737472,15.87076919440881,69.95250382658713,0.0013377628638965,120.00146786221084,770.2824209627857,15.288,0.0,3.007343769275888,0.1043548325952593,3.1602618769619866e-08,-0.0022657408208599,1.7381053276678196e-05,0.0002207442917,1.1958401376041845,14.276337452094884,35.50231366532446,28.221918116270167
1.12,31.22217349272145,131.01047919563783,23.476178169292503,1.2236299471427718,0.0020269969887344,10.441207371192132,0.002302279347831,3.025724513581605,172.73281794065943,35.80223903959764,16.003672489528764,69.95117585550011,0.0013651189526493,120.00149772055786,783.3410594849436,15.288,0.0,3.0145032993540526,0.1052377567647557,3.24597963109284e-08,-0.0023880288706297,1.758576587187033e-05,0.0002346185481471,1.2236316257912212,14.164588061322714,35.80255743954,10.870778514017095
1.13,31.22217278001991,131.01048065697643,23.81062221095532,1.2528011801870118,0.0020503285047518,33.114963894308154,0.0023038564295544,3.011477193224162,367.5328077900705,36.044876782175926,16.116741504861125,69.94977635271249,0.0013927932539639,120.00152792232072,793.9691977761747,15.288,0.0,3.021622669013487,0.1059513704617603,3.336534297878154e-08,-0.0025159436680906,1.7797269124913163e-05,0.0002488531192669,1.2528028576971877,14.076247735247986,36.04519884702425,33.25161400465241
1.14,31.222172061892955,131.0104821294294,24.147505732777145,1.2828960742138955,0.002075818057116,18.2371782387828,0.0023026398730828,2.9973141644496746,239.69531773195544,36.2451742105049,16.215202466289316,69.94830199597057,0.0014207962641389,120.00155847948156,802.7917361429551,15.288,0.0,3.028711406013028,0.1065405356456877,3.4321268464248064e-08,-0.0026499413684995,1.8016267986613828e-05,0.0002635548627279,1.2828977533433958,14.0048041360251,36.24550027924275,18.481844269869118
1.15,31.222171338901155,131.01048361184263,24.4864838531536,1.3087350123248231,0.002095027930869,17.97269778993025,0.0023066641693113,2.9817459369920214,237.41251153546767,36.5500422862033,16.349441720576475,69.94674939437489,0.0014491387015751,120.00158940283588,816.326954452234,15.288,0.0,3.0357608544971284,0.1074370882225595,3.5329977528725703e-08,-0.0027898920699548,1.8242506466972188e-05,0.0002797987192979,1.3087366888962668,13.89583779150948,36.55037137242106,18.218361067934506
1.16,31.22217061120285,131.01048510389026,24.82746101905488,1.3382979207224088,0.0021207664222738,47.4028549227878,0.0023037421283821,2.967060112889275,490.0437743845894,36.73585252637557,16.4427622111317,69.9451149989441,0.0014778318756236,120.00162070424052,824.621000507071,15.288,0.0,3.042771983961493,0.1079836839865904,3.6393806784793766e-08,-0.0029358903041748,1.8476107870843528e-05,0.0002959280683267,1.3382996007776786,13.831644054827835,36.7361856555861,47.49562196509899
1.17,31.22216987779507,131.01048660763735,25.171060950565224,1.3653656507261662,0.002143140008821,8.22397431451986,0.0023032534236538,2.95144778156516,153.70937929486794,36.97587213786389,16.5545849605782,69.94339528437669,0.0015068868979331,120.001652396589,835.404217744538,15.288,0.0,3.0497474773748943,0.1086896342371685,3.751481978759976e-08,-0.0030885476751195,1.8718001399475607e-05,0.0003133391158055,1.365367332391778,13.748701046973876,36.97620878150918,8.737551306754348
1.18,31.22216914000079,131.01048812036015,25.51646666000672,1.389098769919487,0.0021608135400002,22.944256392416847,0.0023062639335695,2.9346037678945254,280.02501822196746,37.291266894896886,16.692184610145542,69.94158658641737,0.0015363154047949,120.00168449083527,849.6883764201286,15.288,0.0,3.0566800851769447,0.1096171563773858,3.869578913241075e-08,-0.0032473258646738,1.896730621771137e-05,0.0003322465483461,1.3891004502168252,13.64023147255664,37.29160631469396,23.131165253708154
1.19,31.222168397224337,131.0104896432852,25.86404965195708,1.4187193058301892,0.0021881787414864,40.24540352958808,0.0022996702836873,2.9193680304673526,428.4078130529292,37.434788763682285,16.770732335735502,69.93968509283584,0.0015661362092879,120.00171701012064,856.212718640297,15.288,0.0,3.0635822308703795,0.1100394685386107,3.993895427664255e-08,-0.0034127296478208,1.922478788574428e-05,0.0003505017899223,1.4187209929661144,13.59341983220948,37.435132481995154,40.351148933396914
1.2,31.22216764895417,131.01049117746578,26.21412906444901,1.4427086087227756,0.0022073985039233,3.9624048298052816,0.0022996592616204,2.9021667820143726,117.1843741360236,37.71352354089664,16.89558270377666,69.93768715727934,0.0015963473756828,120.00174994794912,868.9814717054987,15.288,0.0,3.0704547728329548,0.1108592467052778,4.124662038673221e-08,-0.0035851402016948,1.9490995551506787e-05,0.0003709382488219,1.4427102970664565,13.500190123652027,37.71387027824272,4.911540425805798
1.21,31.222166896515056,131.01049272017443,26.56588712551801,1.4664791289793122,0.0022267507294136,32.2728500725828,0.0022986735684013,2.884654803848985,359.92343213200894,37.98404301958679,17.017536214886707,69.9355887936342,0.0016269682887192,120.00178332600844,881.4628230193448,15.288,0.0,3.0772860967388294,0.1116548844260679,4.262173316140486e-08,-0.0037639608389201,1.9764993441403467e-05,0.0003922202155076,1.4664808191952592,13.41111491197551,37.98439279677335,32.40151370582363
1.22,31.222166138899063,131.01049427348653,26.919950410554804,1.4944869966826484,0.0022530287894079,23.312062921845204,0.0022908496255997,2.868320793485541,283.0687504825761,38.13187873929845,17.097297522635536,69.93338606485541,0.001658011367579,120.00181715859053,888.3073534781614,15.288,0.0,3.084090255495997,0.1120898984890875,4.406647510453972e-08,-0.0039499694501744,2.004794377460056e-05,0.0004131910040204,1.4944886945845055,13.3646486023365,38.13223264423301,23.48785956817699
