Time,Latitude,Longitude,Altitude,Angle of Attack,Angle of Sideslip,X-Acceleration,Y-Acceleration,Z-Acceleration,Thrust,True Velocity,Ground Velocity,Pitch,Roll,Yaw,Dynamic Pressure,cp,cg,parachute_deploy_gain,Wind Speed,Wind Direction,Mach,omega_x,omega_y,omega_z,Cmq,Angle of Attack(total),Angle of Attack(gust),True Velocity(gust),Acceleration
0.0,31.222216000000007,131.010392,3.000000004412624,0.0,0.0,0.0,0.0,0.0,2.2828121974499247,0.0,0.0,69.99999999623412,0.0,119.9999999935444,0.0,1.274,1.0271675151847728,0.0,0.0,0.0,0.0,0.0,0.0,0.0,-0.0,0.0,90.0,0.0,0.0
0.01,31.22221599999084,131.01039200000497,3.000002745347096,0.0,0.0,0.0,0.0,0.0,34.242186961749226,3.465174813755316e-14,2.8705476994166025e-14,69.9999999962611,-2.1713911667908447e-11,119.99999999352175,7.352495975525499e-28,1.274,1.0271659134330349,0.0,0.0,0.0,1.0183245502395064e-16,-3.3305335486039093e-18,7.169286865560398e-18,5.624298769768554e-18,-7.715917190115602e-34,0.0,89.99999999999979,3.465174813755316e-14,0.0
0.02,31.222215999994315,131.0103920000094,3.0000030495639742,0.0,0.0,0.0,0.0,0.0,25.871876237766216,3.8197434737535036e-11,2.4171837235633357e-11,69.99999999628672,-1.1921727947863515e-11,119.99999999353136,8.93414285188691e-22,1.274,1.027164492361118,0.0,0.0,0.0,1.1225230367947217e-13,-6.657678965418802e-18,1.4338573731120796e-17,1.1241821275959074e-17,-1.7010872994127372e-30,0.0,89.99999999975682,3.8197434737535036e-11,0.0
0.03,31.222215999994315,131.0103920000094,3.0000030495639742,0.0,0.0,9.81877837424427,-2.5122800045972096e-05,3.3498614629347925,180.34219359854663,1.2659015405517447e-10,1.1364406173918436e-10,69.99999999631459,-1.6431898037347223e-11,119.99999999352724,9.812605835254651e-21,1.274,1.0271551940870716,0.0,0.0,0.0,3.720154642239108e-13,-9.991600645811728e-18,2.150108433310316e-17,1.6859343782149594e-17,-8.453698244545225e-30,0.0,89.99999999919412,1.2659015405517447e-10,10.374487003414373
0.04,31.222215999994315,131.0103920000094,3.0000030495639742,18.83801224594347,-0.0001111777826462,48.68248476615645,-1.016330065874988e-05,3.3497854396877287,548.635972453808,0.1556173050466994,0.0975908358443652,69.99999999633813,-2.0932768807056278e-11,119.99999999352085,0.0148286043323172,1.274,1.027133720825283,0.0,0.0,0.0,0.0004573186944143,-1.3322134194415637e-17,-1.04744143520903e-11,1.336824254131964e-11,5.0626055458604615e-15,18.83801224625964,89.06236267790787,0.1555998412814392,48.79759610369246
0.05,31.22221599164764,131.01039201704114,3.002326315126219,5.772385609593056,-4.395076213712875e-06,71.20344550265034,4.905512691849684e-05,3.349217396035405,761.6984298824663,0.8326471944351852,0.3620326097059287,70.00000001316391,-1.0866255162484559e-10,120.00000000231074,0.4245281043148827,1.274,1.027093426565204,0.0,0.0,0.0,0.0024469331205246,-5.0245994431125096e-18,-7.32924164976824e-07,2.217344936947165e-11,1.895424184525467e-09,5.772385609594774,84.74112356985832,0.8326465040582279,71.28217104309611
0.06,31.22221596664444,131.01039206837547,3.015081730143309,4.056581213689704,3.169093567502233e-05,53.16249142470188,0.0001203825427859,3.3481235983850643,590.4875390737236,1.657216205300742,0.6755452977614796,69.99999964391398,-3.9285905645317736e-10,120.0000000287861,1.6816755551786196,1.274,1.027050317124926,0.0,0.0,0.0,0.0048701272653724,3.095757869075056e-13,-7.483541766772344e-06,3.074135420506017e-11,3.8518749565858254e-08,4.056581213813337,79.59316473687034,1.657221183301277,53.26781792157489
0.07,31.22221592883117,131.0103921460222,3.034593611434361,4.115662018628709,6.450869598349036e-05,81.18203554989698,0.0001593212642178,3.347059402768047,855.2937749779172,2.099899704220947,0.8579771146174259,69.99999543281565,-8.233801910783518e-10,120.00000006883089,2.700101932075157,1.274,1.027003201295312,0.0,0.0,0.0,0.006171060252819,3.4704292086287e-12,-2.6327204536316785e-05,1.9541142932033486e-10,1.7170712165327165e-07,4.115662019133419,76.90111966094352,2.099909837223217,81.2510043180746
0.08,31.22221588914193,131.01039222747755,3.0542761843835606,3.459696193892355,8.037433511260004e-05,16.298214211652088,0.0002413456836072,3.344878926597744,241.2171988638792,3.051964775152957,1.2149999716613011,69.99998042886442,-1.0128995578004475e-09,120.00000011111383,5.703497661025892,1.274,1.0269597189470347,0.0,0.0,0.0,0.0089689344021769,1.458982438104473e-11,-5.702803872814215e-05,7.043261397829576e-10,5.405702492731987e-07,3.459696194824858,71.30331929508368,3.051977400323993,16.63790856991177
0.09,31.2222158241468,131.01039236098703,3.0886872184095737,4.313676956300389,0.0001337561018991,50.35975918308536,0.0002293282821279,3.344215841840564,563.0937377043203,2.893161298572128,1.191209213966114,69.99994788602814,-7.098432023887522e-10,120.00000018106356,5.125380275808925,1.274,1.026918932011013,0.0,0.0,0.0,0.0085022553945842,3.8672912027154325e-11,-0.0001115933708951,2.016054215232918e-09,1.0027525988343615e-06,4.313676958370176,72.2316578138625,2.893182308931483,50.47067588835877
0.1,31.2222157788302,131.01039245392113,3.109877853389092,4.035124630954496,0.0001457499816535,47.804664812504015,0.0002878217657545,3.341734392237128,538.7437595981891,3.5677148583138303,1.4531247507621967,69.99988403958329,1.9248461973355822e-09,120.0000002323013,7.7939962029572305,1.274,1.0268846934974103,0.0,0.0,0.0,0.0104845969583028,8.579678749070606e-11,-0.0001726817043215,3.984565639703107e-09,1.913455350430327e-06,4.0351246335824245,68.43243098813296,3.567737752667411,47.92132267234452
0.11,31.222215703308,131.01039260899836,3.148841432727305,4.043401107254707,0.0001752764476999,37.67622367577205,0.0003286462930162,3.3392563999062723,442.86563930529127,4.034183355956686,1.6436552022667772,69.99978525353545,7.302513231814865e-09,120.00000031883242,9.96528118825134,1.274,1.026848594915519,0.0,0.0,0.0,0.0118554331868328,1.5870341853361987e-10,-0.0002596204409236,7.232030302688121e-09,3.252930323390323e-06,4.04340111104746,65.92012987243639,4.034210888316708,37.82391391539392
0.12,31.222215627491828,131.01039276462643,3.186995101203875,4.17874459224363,0.0002066711490009,41.15991989399172,0.0003576945202315,3.336766085769504,475.58594813540793,4.361857560629481,1.7865750500940407,69.99963665601238,1.781774420198147e-08,120.00000041104812,11.649831899889556,1.274,1.0268114448194128,0.0,0.0,0.0,0.0128183893919737,2.682972478760441e-10,-0.0003710216542429,1.2215991071490164e-08,5.026311388647148e-06,4.178744597345269,64.21681651392016,4.361890024457652,41.29495143136631
0.13,31.22221554594398,131.01039293200228,3.2277173449026786,4.202734874672792,0.0002327160860324,45.44886120763352,0.0003953741266062,3.333578629398489,515.9156326236897,4.792165672014363,1.9646716520715424,69.99942424225341,3.613383418913551e-08,120.00000051758742,14.061726603124043,1.274,1.026779572895131,0.0,0.0,0.0,0.0140829618979635,4.248908088871395e-10,-0.0005056103199642,1.908859219307828e-08,7.5253154423526356e-06,4.202734881104192,62.048594618540655,4.792202226971676,45.570952718869485
0.14,31.222215454191247,131.01039312033683,3.2737880595608355,4.184830647080848,0.000257138757548,42.32232525579263,0.0004369426767266,3.329727443445437,486.2390860568421,5.269261304374574,2.158791628597544,69.99913473613935,6.515851355725497e-08,120.00000064630268,17.000925061330125,1.274,1.0267449573927567,0.0,0.0,0.0,0.0154850332441425,6.382432869666793e-10,-0.0006690086306358,2.8426433029675884e-08,1.0948547100483978e-05,4.184830654966803,59.74181173116622,5.269301695636157,42.45310707234106
0.15,31.222215353826755,131.0103933263496,3.3242182719560263,4.21963947489699,0.0002846467688673,40.886944113003565,0.0004726792395108,3.325585650885676,472.5421858721398,5.6781946837482895,2.329510773545807,69.99875162806286,1.0876776246115984e-07,120.00000079954532,19.742017654108928,1.274,1.0267115958081523,0.0,0.0,0.0,0.0166867950518804,9.204756288136623e-10,-0.000865746478554,4.08948221429571e-08,1.526771148078443e-05,4.219639484480408,57.84996018384879,5.678239395958187,41.02196629910223
0.16,31.222215247130432,131.01039354534575,3.3775922280208457,4.253495568077899,0.0003118339050386,32.26872905470846,0.0005078415214353,3.32090791922544,391.1218908297597,6.081244877834229,2.4981889727471702,69.99825581174558,1.7187028096464329e-07,120.0000009800088,22.644030778355887,1.274,1.026675762255412,0.0,0.0,0.0,0.0178712695992133,1.2856146928958252e-09,-0.0010961187242953,5.6923362293832417e-08,2.0702404729358337e-05,4.253495579487569,56.06022383757386,6.081293860589489,32.43916312841722
0.17,31.22221513260033,131.01039378041813,3.4348437275053194,4.364838523348639,0.0003448792023946,40.840448242802736,0.0005326487904353,3.3162727284953744,471.78125980632416,6.362544479165355,2.6250789114832647,69.99762801982864,2.5997588617291615e-07,120.00000119506798,24.78723182122683,1.274,1.0266409836796937,0.0,0.0,0.0,0.0186979513961862,1.747791994374917e-09,-0.0013624931601664,7.706724512977917e-08,2.6923621797558364e-05,4.364838536947241,54.85936171416122,6.362598652663785,40.97486885600156
0.18,31.222215014088988,131.01039402363364,3.4935801365785646,4.353948305387995,0.0003681615230806,33.992183768165326,0.0005718025428208,3.310131992647221,407.1015672119096,6.81502088160835,2.810667639293692,69.99684761766231,3.794979223522764e-07,120.00000144728236,28.437950785509614,1.274,1.0266048342046536,0.0,0.0,0.0,0.020027681385988,2.3221419748804155e-09,-0.0016616990447559,1.0147209890543081e-07,3.517105786247627e-05,4.353948320923495,52.99157233768714,6.815078712285162,34.152972512863755
0.19,31.22221488419521,131.01039429023237,3.558399965607869,4.432620772533925,0.0003996774584738,38.45149959021069,0.0005986099513107,3.304145139297767,448.95313283182486,7.1223367465208405,2.946425726785696,69.99589577323147,5.440084577183829e-07,120.00000176148238,31.060341085698347,1.274,1.026566130444714,0.0,0.0,0.0,0.0209308229359413,3.022391489754689e-09,-0.0020041563310821,1.3135864879722746e-07,4.433199397898183e-05,4.432620790516937,51.77883352025967,7.122399527709208,38.59320142454953
0.2,31.222214751373183,131.01039456280608,3.624052454705669,4.443889400961181,0.0004246617145652,35.23432408779927,0.0006337972852267,3.2968110145188256,418.5156301991588,7.530482904611057,3.1167566004785483,69.99474776398331,7.478025600151903e-07,120.00000211715036,34.72195181863731,1.274,1.026529240027363,0.0,0.0,0.0,0.0221302820454282,3.866698391504749e-09,-0.0023849544920781,1.668144671071589e-07,5.57780533277244e-05,4.443889421210987,50.22448880200342,7.530549610317194,35.38822625098952
0.21,31.222214608673173,131.01039485566503,3.6948551453492566,4.493351735844891,0.0004538195602194,33.79371564104691,0.0006629296043866,3.2891790438445727,404.8187610144608,7.868284042829251,3.2629204975089228,69.99338155599101,1.0150082652278477e-06,120.00000255293388,37.906665490338085,1.274,1.0264923657015164,0.0,0.0,0.0,0.0231230169900677,4.871073773182836e-09,-0.0028117605859743,2.089322918608601e-07,6.870935089180403e-05,4.493351758715364,48.992529909481824,7.868355328639073,33.95340801819282
0.22,31.22221446109996,131.01039515850383,3.767700382407304,4.5412639153933885,0.000482649303782,41.008966751568416,0.0006914639179131,3.2808061382386606,472.5421858721387,8.20057841132235,3.4071691679735228,69.9917708347139,1.3454961520984431e-06,120.00000305929996,41.175744234065135,1.274,1.0264494137127138,0.0,0.0,0.0,0.0240995709751246,6.054779813287368e-09,-0.0032829112061357,2.580881224843564e-07,8.3609968899004e-05,4.54126394098788,47.82515604752711,8.2006542256977,41.13999323561041
0.23,31.22221430675399,131.0103954752338,3.843768625625224,4.52371495179584,0.0005047555656171,33.98493478127787,0.0007294889663961,3.2705214710765107,406.340642146096,8.647938096586296,3.5908865300848416,69.98989017772566,1.7539876018835507e-06,120.00000365514876,45.79040229326471,1.274,1.0264133390858623,0.0,0.0,0.0,0.0254142776666487,7.436335125872812e-09,-0.0038001790077148,3.1489825108822685e-07,0.0001020628978177,4.523714979897577,46.31461705147579,8.648017383405135,34.14194053232237
0.24,31.222214142622448,131.0103958120587,3.92493179063287,4.57837522350066,0.0005351929930195,35.051650311058864,0.0007555049947555,3.26053011385611,416.2328240017099,8.954297884844461,3.72617527247482,69.98771316795013,2.25257161141768e-06,120.0000043564586,49.09180568115741,1.274,1.0263750048312463,0.0,0.0,0.0,0.0263146218848643,9.034877387788232e-09,-0.0043732521010013,3.809642748985157e-07,0.00012161410144,4.578375254714954,45.32798984252032,8.954381952763216,35.20297212911011
0.25,31.22221397517227,131.0103961556623,4.0071748888306855,4.6034117733065,0.0005618935542827,36.03738579534623,0.000785606492708,3.249069743648399,425.3640807915084,9.311611941121669,3.8789349536029696,69.98520781816889,2.8559738498748624e-06,120.00000517181904,53.08749562138344,1.274,1.0263373768840591,0.0,0.0,0.0,0.0273647110956883,1.0873791100894836e-08,-0.0049950711786164,4.5609738277273444e-07,0.0001444478241125,4.603411807525074,44.2165428352526,9.311700203154778,36.183554686886296
0.26,31.22221379934012,131.01039651647062,4.09364247475714,4.621386912291471,0.0005881033207375,39.29107511182762,0.0008162761165496,3.236407051295005,455.80158342417656,9.67833954512075,4.034902068846398,69.98234620927953,3.5784678110229355e-06,120.00000612171208,57.350948423913096,1.274,1.0263006300381676,0.0,0.0,0.0,0.0284424679130479,1.2973286442992724e-08,-0.0056712051373577,5.414206381221602e-07,0.0001704578711045,4.621386949630312,43.12063533194282,9.678431924174348,39.42414126789902
0.27,31.222213616776543,131.01039689108487,4.183310605341074,4.617158109135719,0.0006115457810536,35.90419462403674,0.0008503454714941,3.221982799915672,423.8421996598744,10.088790784535757,4.205862468567124,69.97909721779352,4.436165972465058e-06,120.000007221354,62.31798301949865,1.274,1.026260090595354,0.0,0.0,0.0,0.0296487219805601,1.5355910600537293e-08,-0.0064045199323113,6.379142666348734e-07,0.0002006609239367,4.617158149547818,41.94410287616451,10.08888684592241,36.048472443180565
0.28,31.22221342607797,131.0103972823952,4.277051150896916,4.642105655370123,0.0006389739579882,41.51133203546672,0.0008785747638736,3.2071101123224945,476.3468732012228,10.432377224420517,4.35383399240675,69.97542808435722,5.446665372087172e-06,120.00000849080963,66.63429581008447,1.274,1.0262212716723291,0.0,0.0,0.0,0.0306584788590473,1.8045308789081613e-08,-0.0072006835403936,7.469524967369969e-07,0.0002332868227611,4.642105699250441,41.0023231023774,10.432477594215127,41.63503624837164
0.29,31.22221323001776,131.01039768469093,4.373143569786686,4.62134615173668,0.0006600657405645,33.17552944492765,0.0009148746278066,3.1894209319791806,397.9703104221098,10.876662296046485,4.536381530986506,69.9713027936179,6.629751536885327e-06,120.00000994797426,72.43000748232016,1.274,1.026183007522519,0.0,0.0,0.0,0.0319641703260467,2.1067646517035105e-08,-0.0080566154554079,8.688043379161898e-07,0.000272130659453,4.621346198772975,39.83162628795024,10.876765978930557,33.32848872465723
0.3,31.22221302403368,131.01039810736614,4.4744193758467325,4.664362353358112,0.0006905183788532,31.08096762732793,0.0009381960428197,3.172549142946348,378.1859457108735,11.168362145070317,4.66647911311536,69.96668711012893,8.005507138509574e-06,120.00001161892672,76.36634300732833,1.274,1.0261430389738484,0.0,0.0,0.0,0.0328214509167604,2.4447409007156216e-08,-0.0089829108229115,1.0056222251461646e-06,0.0003115527202986,4.664362404357781,39.09908960432563,11.168470611443622,31.242464973103964
0.31,31.22221281503337,131.01039853619727,4.576593712520673,4.700143580504286,0.0007196683316923,32.79732593144512,0.0009620705970519,3.154230688182399,394.1656220930229,11.470279728974068,4.800072153432283,69.96154070456518,9.597499105113692e-06,120.00001352112182,80.55022837857167,1.274,1.0261054058068628,0.0,0.0,0.0,0.0337087616009043,2.8214060606649844e-08,-0.0099686353219717,1.1565909895184251e-06,0.0003550834484269,4.700143635477137,38.36463422765983,11.47039277421126,32.94865339301887
0.32,31.222212598991007,131.01039897947376,4.68216432480395,4.718667719113184,0.0007464384342556,35.7316568886908,0.0009885845337584,3.133859770838664,421.5593934624264,11.808280530415894,4.946054328851105,69.95582953472353,1.14278227255889e-05,120.00001568218067,85.36654007972253,1.274,1.026068246703101,0.0,0.0,0.0,0.0347021168382987,3.2392058795580455e-08,-0.0110163301561155,1.3226102501723267e-06,0.0004039614423012,4.718667778018562,37.5686120062341,11.808397780690962,35.8688218659563
0.33,31.222212376029034,131.0103994369436,4.791055524254013,4.72141404831576,0.0007708346814671,35.42013590291081,0.0010176135371143,3.1111955852784385,418.5156301991632,12.181577273013426,5.104163223586657,69.94951809396906,1.351997394754887e-05,120.00001812674968,90.84831229869296,1.274,1.0260310883392356,0.0,0.0,0.0,0.0357992034445943,3.700677535501642e-08,-0.0121310534481307,1.5051409581878843e-06,0.0004588955105349,4.721414111097893,36.7208578211118,12.181698355442045,35.55651229220977
0.34,31.222212145785647,131.0103999093516,4.903491659547144,4.73024573449122,0.0007962944975467,27.63851074646407,0.0010446307681611,3.0871492806781062,345.4656368807584,12.53557620048282,5.2556261014174765,69.94256797855994,1.5899658158227497e-05,120.000020882338,96.20413272674828,1.274,1.0259901535019136,0.0,0.0,0.0,0.0368395817555172,4.208561016221623e-08,-0.0133180771902383,1.7057647550599631e-06,0.0005184333231541,4.730245801363397,35.94841996438923,12.535701282129995,27.810389570354005
0.35,31.222211909310875,131.01040039453565,5.018822212845608,4.780248518778662,0.0008286678570753,30.332092807652543,0.0010618579815451,3.063967690608957,370.5765700527057,12.774786382148209,5.367579971644358,69.93493776125636,1.8594985713558667e-05,120.00002397748868,99.9096898192772,1.274,1.025950003202184,0.0,0.0,0.0,0.0375426220587071,4.7658312175989686e-08,-0.0145774693288123,1.9252724355785177e-06,0.0005782798420984,4.780248590437683,35.44790728185619,12.774916548990808,30.486451961956565
0.36,31.22221166933814,131.0104008868675,5.135354490370708,4.798132156899578,0.0008554457330409,34.32674769697476,0.0010851169437774,3.0374319611165923,407.8625232777224,13.09301701329486,5.506730645516068,69.92658597246795,2.163521613217148e-05,120.0000274401514,104.94818266210537,1.274,1.0259105142325406,0.0,0.0,0.0,0.0384778908056978,5.3755109608570216e-08,-0.0158991451700967,2.162609490834569e-06,0.0006464142451675,4.798132232978766,34.796094028187134,13.09315138639638,34.46087058603792
0.37,31.222211421355144,131.01040139563804,5.255882891363927,4.797392186816851,0.0008791822061288,32.551601855236584,0.00111162791192,3.0078619428913056,391.1218908297639,13.457513730739372,5.661815946371007,69.91747693543164,2.5047738471809164e-05,120.0000313040604,110.87154396328836,1.274,1.025872170958032,0.0,0.0,0.0,0.0395491312153729,6.040098808671168e-08,-0.0172926678053148,2.420031948898497e-06,0.0007226353721561,4.797392267189059,34.07332166419882,13.457651832357364,32.69027405888565
0.38,31.22221116634284,131.01040191882743,5.379799334000849,4.811698494594017,0.0009057112478668,34.02947987649063,0.0011338447913587,2.9774881690446744,404.81876101445977,13.77554886562956,5.800899861213392,69.90756948297444,2.886339581486796e-05,120.00003560072224,116.17243393848278,1.274,1.02583050512925,0.0,0.0,0.0,0.0404838339452728,6.762496638941508e-08,-0.0187646375218858,2.69955777313946e-06,0.0008026686661094,4.8116985796350695,33.46655348088405,13.775691134419684,34.15949264475229
0.39,31.222210906095896,131.01040245274032,5.505993307722699,4.813508003664984,0.000929862892873,29.00025983045028,0.0011579891265804,2.9442136901860865,357.6406249338268,14.124492165837273,5.950648592462506,69.8968186645841,3.311602501056718e-05,120.00004036395212,122.13093644173792,1.274,1.02579027384009,0.0,0.0,0.0,0.0415093739609825,7.545934774906889e-08,-0.020311592409804,3.0013532510753577e-06,0.0008908380763632,4.813508093268025,32.821616487639595,14.124638228358922,29.149330452482886
0.4,31.222210638473225,131.0104030017851,5.635788650457906,4.841647069358873,0.0009592124397379,27.71178845184976,0.0011749448424961,2.91135549588368,345.4656368807565,14.390874239274588,6.07193451174791,69.8851815212744,3.783947407715338e-05,120.00004563180136,126.77947425345651,1.274,1.0257493418632293,0.0,0.0,0.0,0.0422922854866381,8.39343718693383e-08,-0.021938519432511,3.3271332720311508e-06,0.0009803271643914,4.841647164150728,32.348088166612904,14.391024912012275,27.864299944624147
0.41,31.22221036681104,131.01040355909262,5.767123077463226,4.86553909860892,0.0009876699832274,31.306062598221665,0.0011918093836199,2.876450850006428,378.9468707766882,14.663028799871563,6.195223154320929,69.87261222561014,4.307011032901644e-05,120.0000514391194,131.6183642808765,1.274,1.025708445186429,0.0,0.0,0.0,0.0430921644173401,9.308325447883581e-08,-0.0236371933433427,3.6760977501392174e-06,0.0010761942383903,4.865539198612839,31.87689439156756,14.663183942709727,31.437931330109585
0.42,31.22221008906472,131.01040412887247,5.901259531771367,4.867510642114694,0.0010118258958528,35.308283402190774,0.0012128114559048,2.8374461227958245,416.23282400171047,14.9952917972178,6.33928625560071,69.85906967380902,4.884273094936628e-05,120.00005782486392,137.64909586091787,1.274,1.0256701057426505,0.0,0.0,0.0,0.0440686959134695,1.0293499639582845e-07,-0.0254093547296826,4.049238334851429e-06,0.0011830797791891,4.867510747027452,31.315270489291198,14.995450734457847,35.422111438762386
0.43,31.222209804115888,131.01040471342728,6.038886819939341,4.854590670645608,0.0010330089741511,31.00586934514032,0.0012363751872706,2.794478603999558,375.90313951343126,15.369430568701889,6.497852263156962,69.8445117629242,5.519340856908871e-05,120.00006482835984,144.60167924299955,1.274,1.0256308158337524,0.0,0.0,0.0,0.0451682983415116,1.135186446762958e-07,-0.0272634397889413,4.449073329427772e-06,0.0013010625065656,4.854590780289497,30.70250814963406,15.369592833372094,31.13154422839874
0.44,31.22220951192321,131.01040531284193,6.180028459770617,4.866912332640401,0.0010595850174406,28.57707721036899,0.0012525768202179,2.752165534925872,353.07501253892326,15.659290812546615,6.627318538707029,69.82889155423543,6.216182865383864e-05,120.00007249162944,150.1053167542629,1.274,1.025586171750536,0.0,0.0,0.0,0.0460202245100907,1.2486676023179565e-07,-0.0292060158163984,4.8779154055816594e-06,0.001420032405556,4.866912447705031,30.24619499837236,15.659457251771938,28.709297424144207
0.45,31.222209215425703,131.01040592106523,6.322872201489905,4.881836476567178,0.0010866574689855,33.31904824532484,0.0012669045761511,2.7082028218433374,397.2093853562887,15.934249290371609,6.751662050993672,69.81215834018458,6.97909417564726e-05,120.00008085697964,155.42080512416243,1.274,1.0255397023523487,0.0,0.0,0.0,0.0468283602442113,1.3701614206272197e-07,-0.0312276295846745,5.334643585560923e-06,0.0015449645531859,4.8818365972149325,29.82567893138932,15.934419982127675,33.428929688274074
0.46,31.22220891307435,131.0104065412864,6.468371919199588,4.869610441729251,0.0011078049156487,38.95909776354321,0.0012868374716666,2.6582856015412624,449.7140588976424,16.292139278621757,6.904766425053949,69.79426683863348,7.812149592850748e-05,120.00008996920153,162.4785746623087,1.274,1.02549635315424,0.0,0.0,0.0,0.0478802236363867,1.499987870203256e-07,-0.0333272350234362,5.819761874615242e-06,0.0016858511402973,4.869610567434908,29.29014635640275,16.292313292210977,39.04968351401366
0.47,31.22220860266524,131.01040717804253,6.6178810515614845,4.838450928223533,0.0011247917292402,26.253747818137555,0.0013104398935566,2.6026193242279367,331.0078106302504,16.710658191447514,7.078951441335346,69.77517236812905,8.719457259907165e-05,120.0000998741591,170.9309671061642,1.274,1.025453319323251,0.0,0.0,0.0,0.0491102725711187,1.6384464803343264e-07,-0.0355167087264168,6.3368207228363735e-06,0.0018427306558807,4.838451058652396,28.68386015667837,16.710834873319172,26.382435512333956
0.48,31.222208284201663,131.0104078313267,6.771393590864176,4.869339340099417,0.0011561785713505,25.860860976019296,0.0013165328518772,2.5543454292827983,327.20312230115803,16.911139899671,7.177575416403102,69.75482343794755,9.70562828082882e-05,120.00011062072316,175.0543877818846,1.274,1.0254092882449153,0.0,0.0,0.0,0.0496995461609974,1.7858865391586845e-07,-0.0378054080201581,6.88909442277235e-06,0.0019849793891693,4.869339477030596,28.40887970825325,16.911321511776286,25.986704537635287
0.49,31.22220796480208,131.01040848648364,6.924537656029012,4.881367714530694,0.0011829003785372,32.565703383222065,0.0013261973190012,2.5011623511055703,389.6000096981238,17.169005224738054,7.296160258358563,69.73316318155707,0.0001077573203115,120.000122255028,180.4309832312717,1.274,1.025367445590036,0.0,0.0,0.0,0.05045746454003,1.942747077649401e-07,-0.0401641298712614,7.47069711110948e-06,0.002140948887153,4.881367857509675,28.058569663954906,17.169191034294997,32.66161128464712
0.5,31.222207637929923,131.01040915697027,7.081324512896956,4.862566137860805,0.001202418260511,33.47759680712428,0.0013425340759632,2.4399894027711366,397.970310422106,17.52898693231981,7.450304424940405,69.71015149227495,0.0001193385310595,120.0001348274002,188.0736471953394,1.274,1.0253278572281015,0.0,0.0,0.0,0.0515154948878309,2.109295159784217e-07,-0.0426011733481599,8.084173008518589e-06,0.0023184335011768,4.862566286171007,27.57768313050809,17.529175807738486,33.56639745442473
0.51,31.22220730314019,131.01040984370235,7.24202048914867,4.8479762258125,0.001223054804074,25.49162310288008,0.0013562860883156,2.3767006597692686,323.39843497208153,17.86914397471067,7.597652147346554,69.68574349602717,0.0001318441288964,120.00014838524436,195.4407439266201,1.274,1.025286455263166,0.0,0.0,0.0,0.0525152689856776,2.2858192086249162e-07,-0.0451315948093539,8.734206149830708e-06,0.002503767471626,4.847976379721193,27.13799345359824,17.86933609171003,25.602178740977283
0.52,31.222206962738102,131.01041054193402,7.405210501673173,4.865306299521403,0.0012516517170965,30.733671928447727,0.0013599291289974,2.317711624364424,372.098451184342,18.08534843773428,7.701914987606457,69.65988568649581,0.0001453248538387,120.00016298000436,200.19561780583155,1.274,1.0252426840672306,0.0,0.0,0.0,0.0531507657929359,2.4726951523704535e-07,-0.0477531686556663,9.421346966092632e-06,0.0026812161964639,4.865306460134566,26.8699055233151,18.085545046726228,30.820940596104087
0.53,31.222206619320115,131.01041124632013,7.569307468221277,4.848802699234936,0.0012715119568563,32.301199055744725,0.0013711327835325,2.2490252325653923,386.55624643486095,18.41963113311156,7.8474319110539055,69.6325258319474,0.0001598315062727,120.0001786629144,207.6614205945027,1.274,1.0251993415311351,0.0,0.0,0.0,0.0541332845214831,2.67031759303889e-07,-0.0504479325599339,1.0141887756417996e-05,0.0028848299490111,4.848802865552398,26.45837260670532,18.419830861742675,32.37940050117613
0.54,31.22220626697288,131.01041196903336,7.737918664599091,4.831496690588052,0.0012913635058467,28.31291960103712,0.0013809098107221,2.177242866245296,349.2703242098436,18.75116898748492,7.992112829440902,69.60362200959217,0.0001754082864028,120.00019548734956,215.20067397992847,1.274,1.0251561018460285,0.0,0.0,0.0,0.0551077428911958,2.878941684235108e-07,-0.0532336286085667,1.090122304443916e-05,0.003098869611663,4.831496862756785,26.061835558272342,18.751371834390056,28.396510432451375
0.55,31.222205908994248,131.01041270328463,7.909026079894722,12.755903477510111,14.794421726616704,30.4011232242592,-0.9138835564803836,1.6094188870041668,365.2500005919912,21.25288039252061,8.113323699629928,69.57312211246325,0.0001921068626005,120.00021350480982,276.4492350024227,1.274,1.025112921033824,0.0,6.26600891486463,0.0,0.0624601340772573,3.0989272306468813e-07,-0.0561100530405476,1.1700476995263424e-05,0.0037020324998483,19.440775871503323,39.111542026911415,23.551045040360247,30.457408057896902
0.56,31.222205546564343,131.01041344664463,8.081909946161325,-14.073130200935134,-0.0432528761332529,28.17349199118201,-0.209944244341634,2.7664076902242054,346.22656194657776,17.591944021272923,8.245531141149062,69.54097415464405,0.0002099796112633,120.00023276987916,189.40884492670824,1.274,1.0250709539098009,0.0,6.288869463612746,120.00005142262596,0.0517011014470673,3.329899590246196e-07,-0.0650818414309746,0.0110861030447479,0.0035542519230159,14.073195326197691,30.24464762620461,17.58514987602289,28.309764023591946
0.57,31.22220517944269,131.01041420523154,8.25837496244494,-13.825882870964527,-0.0339752290700912,27.845601577446786,-0.2117339777534421,2.903642376095529,343.1828296833045,17.83958125226676,8.383769085665161,69.50368479041882,0.0172040712215395,120.01837335924364,194.7755951088145,1.274,1.0250279191823897,0.0,6.311551412028188,120.00005142262596,0.0524289888059672,3.659528187079401e-07,-0.0578146208032011,0.0110589216332261,0.00320176548724,13.825923802242238,29.86344157586576,17.83424443607699,27.997383762335723
0.58,31.22220480399416,131.0104149750669,8.436537933233513,-13.59723604298945,-0.0394558889281832,36.762423093260296,-0.2130047483575429,3.0464217763456136,426.12500585731766,18.09536194835957,8.518296360724273,69.47055738037557,0.0341002414898972,120.03641355295248,200.39752205692577,1.274,1.024981594484354,0.0,6.3342758069878045,120.00005142262596,0.0531808130700994,3.957523180290597e-07,-0.0504662148783027,0.0110360899247675,0.0028348348210457,13.597292209861422,29.47385334490335,18.089164232309532,36.8890472681268
0.59,31.22220442374824,131.01041575722704,8.617424271496883,-13.273355997768835,-0.0445343644133205,29.72226795442128,-0.2156438009412583,3.1930092085822355,360.68438819710633,18.4833187094264,8.700599487958875,69.44163845833256,0.0509160172766781,120.05437153889048,209.07887727651087,1.274,1.0249386802161349,0.0,6.356819909661796,120.00005142262596,0.0543210976281381,4.223572415714016e-07,-0.0430247389528883,0.0110095867127708,0.0024685981807501,13.273429366421084,28.907463674743973,18.476323268527125,29.894063330524233
0.6,31.222204033232213,131.0104165600035,8.803148832975726,-13.061155880652448,-0.0497984845996339,26.3636420103926,-0.2165509000565155,3.3480379322881664,329.4859594986072,18.725610301937383,8.830578272400862,69.41698137749168,0.067656637723922,120.07225239570312,214.59246676797403,1.274,1.024891335813742,0.0,6.3793118040785695,120.00005142262596,0.0550332898844767,4.457219392765418e-07,-0.0354371204987086,0.0109790583022183,0.0020598655283581,13.061249163908592,28.55458838795832,18.71778797525333,26.57626520676849
0.61,31.22220363992425,131.01041736842657,8.989359240085284,-12.86089645333752,-0.0550002781237203,30.94577101473949,-0.2171918956387748,3.5077299202272627,372.0984511843332,18.95345463703993,8.95540989807966,69.39666987590567,0.0843269794751667,120.09006080133965,219.84242448043244,1.274,1.0248423929069768,0.0,6.402001750642016,120.00005142262596,0.0557030258388345,4.65791189210735e-07,-0.0277685867890312,0.0109446209618437,0.0016337246288465,12.861012076725096,28.226988807160783,18.944815214881825,31.14469594023161
0.62,31.22220324028791,131.01041818975912,9.178187857611752,-12.604280471055851,-0.0598657148084892,38.55759343460211,-0.218637526636227,3.672872942744956,442.86563930529206,19.26515681503396,9.110525094908953,69.38075034134236,0.1009320773456713,120.10780161343412,227.1286747545916,1.274,1.0247996097896497,0.0,6.424355452021957,120.00005142262596,0.056619219788506,4.825327727782868e-07,-0.0200279678337118,0.010906194234211,0.0011976729946511,12.60442033956356,27.795501577461906,19.255753132252774,38.73274854034598
0.63,31.22220283240588,131.01041902791923,9.370772817283008,-12.29415747922802,-0.0643419743778841,21.67255850079928,-0.2209237568458364,3.8463201405182166,286.11251274707456,19.666537195280096,9.298021385716169,69.36926409930774,0.1174768627557348,120.12547957856464,236.6871250086256,1.274,1.024756158874558,0.0,6.446621875458229,120.00005142262596,0.0577989798798338,4.959138823554463e-07,-0.0121841035423799,0.0108634767095757,0.0007437761892875,12.294323254325615,27.262049232461536,19.6564303837032,22.012332404819396
0.64,31.222202415404368,131.01041988468023,9.567625015353222,-12.167071026632838,-0.0695849320118648,21.255167265990547,-0.21999396099078,4.019824138300939,282.3078244179702,19.78369719240828,9.383126011817058,69.36227032716091,0.1339659604679482,120.14309911447164,239.5110428730657,1.274,1.024708534665538,0.0,6.468944656001352,120.00005142262596,0.0581434364368382,5.05888322772081e-07,-0.0042034914958274,0.0108160943050826,0.0002581250851027,12.167267007266576,27.089805555926542,19.772766819534837,21.63306540809636
0.65,31.22220199935097,131.01042073941238,9.762713811030777,-11.990566274824673,-0.0745018885731653,37.8874393251787,-0.2197813402967284,4.197663528701264,436.7781447787504,19.97755259954532,9.495796590320996,69.35984737642059,0.1504036668632355,120.160664273676,244.22327982777816,1.274,1.0246641738210605,0.0,6.491372608008161,120.00005142262596,0.0587132983729094,5.124166533154814e-07,0.003791196199209,0.0107646587863679,-0.000235083955926,11.990794337927728,26.824914710624647,19.965849873552123,38.11989954809467
0.66,31.22220157523769,131.01042161056347,9.96143492151046,-11.666550602100855,-0.0784346587208875,32.13650315411128,-0.2220626301503166,4.390020071665379,383.5125151715984,20.41813707805304,9.697246431960206,69.36200335103082,0.1667948360555426,120.17817972498304,255.1093855734236,1.274,1.0246195561629028,0.0,6.51322353265413,120.00005142262596,0.0600082946134218,5.154934025784523e-07,0.0118284798058184,0.0107088968328771,-0.0007496200737602,11.666810604809966,26.27267491164101,20.40581659451993,32.43572757031262
0.67,31.22220113902118,131.01042250637704,10.166189907625473,-11.443603560229938,-0.0828438881076076,21.95400523861541,-0.22241652538328,4.582827425727223,289.15624401033847,20.693391812732155,9.839153110906512,69.36876268645673,0.1831440077466316,120.19564979853942,262.02880078409686,1.274,1.024572383541697,0.0,6.53511166110769,120.00005142262596,0.0608174005354734,5.150917759448092e-07,0.0200049096159119,0.0106479493533651,-0.0012848602556341,11.443899425019296,25.92470185217604,20.680378729752714,22.42833302637345
0.68,31.22220070052332,131.01042340675835,10.371106737823665,-11.28879147405716,-0.0876256291813939,27.52065570124513,-0.221352066778719,4.773274096483744,340.89999248584934,20.84747804164455,9.937407236528246,69.38020511116225,0.1994549510124129,120.2130779844274,265.94031079750795,1.274,1.0245245285832842,0.0,6.5572841013208265,120.00005142262596,0.0612703980455396,5.111674171745677e-07,0.0282473461381284,0.0105821813290775,-0.0018277224741882,11.289127139966135,25.717792578999155,20.833713845365008,27.932411864429213
0.69,31.222200258291856,131.01042431468284,10.5770589471766,-11.06001745906429,-0.0917843688623092,33.98943710770375,-0.2215265666687195,4.974923276726373,401.0140726853658,21.133847684786986,10.08300119824239,69.3963684707942,0.2157317717166205,120.23046814176304,273.2912197688737,1.274,1.024479631064582,0.0,6.579094083654707,120.00005142262596,0.0621121780721997,5.037057174577336e-07,0.0365023150750886,0.0105119085235122,-0.0023942498497801,11.060393558456935,25.366594286238147,21.119430236006743,34.352303715
0.7,31.22219980679727,131.0104252414276,10.787346155318788,-10.796905606044376,-0.0955424151462694,28.390287792597768,-0.2222326623879825,5.187117175189278,349.270324209851,21.48871669651676,10.252962759662328,69.41725998082508,0.2319788055098112,120.2478243804028,282.54050926815995,1.274,1.0244351749185203,0.0,6.60067342945148,120.00005142262596,0.0631552845624456,4.927016221931834e-07,0.0448180183321216,0.0104365824004295,-0.0029889926474153,10.797323312391224,24.94901233701705,21.473708935995507,28.861115932893195
0.71,31.222199347573056,131.01042618384346,11.001051114721207,-10.593619238543315,-0.0996755128455666,23.19929657769957,-0.2215900741860028,5.39630168223364,301.3312640634036,21.72982533827085,10.3819955417595,69.44291446174806,0.2481998646266851,120.26515024428106,288.9104973054637,1.274,1.0243880468141104,0.0,6.622365766500682,120.00005142262596,0.0638640562291131,4.781338959364571e-07,0.0532158486616214,0.010355822955744,-0.0035888064122959,10.5940827968478,24.658729048070864,21.71416835322341,23.819666994034957
0.72,31.222198884681376,131.01042713364308,11.215749756839749,-10.413163153602888,-0.1039270986925351,28.52025752817437,-0.2202923319966331,5.604663069494096,350.7922053414578,21.922359707513404,10.493456082519115,69.47337898772892,0.2643984182166466,120.28244890659956,294.04682601379966,1.274,1.024337302174265,0.0,6.6440135864052685,120.00005142262596,0.0644300716824089,4.599827659560681e-07,0.0616448047816102,0.0102699595076986,-0.0041939923258835,10.413676033094832,24.421565926795463,21.90603488597712,29.0665764462806
0.73,31.222198416738056,131.0104280936459,11.43227191784816,-10.181579034936762,-0.10759983941995,36.222753865795134,-0.2198726112931702,5.826150179257471,422.3203185282354,22.219441425062623,10.641938386054088,69.50867142266537,0.280578186495863,120.2997238136648,302.0641195807252,1.274,1.024292465384646,0.0,6.6654240499462185,120.00005142262596,0.0653033578456822,4.382473646490464e-07,0.0700803238664934,0.0101791159987485,-0.0048324131524433,10.182141584436064,24.08209866819348,22.202539691744946,36.688966563511094
0.74,31.222197940289163,131.0104290708715,11.652687875949308,-9.91132238235351,-0.1107491202344877,22.391627408824064,-0.2201168168696095,6.062357510936895,294.4828134710563,22.60469137723185,10.821430829646214,69.54879556179621,0.2967429326722812,120.316978461149,312.6229368537032,1.274,1.0242470321640116,0.0,6.686686849405338,120.00005142262596,0.0664357799333871,4.12930533610485e-07,0.0785568561388097,0.0100827652272551,-0.005510719487603,9.911934934578053,23.663782285566647,22.587294956938724,23.198827729415182
0.75,31.222197455205308,131.01043006556506,11.877082561978074,-9.748997266954644,-0.1149381819923592,26.23209390030732,-0.2177895971202856,6.276635851227927,330.24688556441737,22.7481803981926,10.91477662244218,69.59377493434972,0.3128959122848886,120.33421580010864,316.59761846915325,1.274,1.0241984712898409,0.0,6.708003033702806,120.00005142262596,0.0668576671795497,3.840225420459904e-07,0.0871013485475164,0.0099803879996016,-0.0061487638311955,9.749668238368267,23.483111800640625,22.730125962893613,26.973437680653053
0.76,31.222196970014767,131.010431060384,12.100344525769122,-9.530883250719125,-0.1184216458139371,28.261344937506625,-0.2165036290988649,6.507549090196536,349.2703242098581,23.017077040215696,11.052214219642396,69.64364849408615,0.3290398977545357,120.35143825597017,324.11964003788626,1.274,1.0241522053390697,0.0,6.7293247044022895,120.00005142262596,0.0676481338464081,3.5151758862174653e-07,0.0956144103652634,0.0098730332836713,-0.0068293674639532,9.531612121623892,23.1862585572748,22.998475424833863,29.001701444216376
0.77,31.22219647523468,131.01043207459637,12.328174236156896,-9.306917914834877,-0.1217333141034335,26.340934651637443,-0.2151215289877368,6.743597142268886,331.76876669606884,23.29769611369552,11.193360860306113,69.69839828298885,0.3451784846930548,120.36864915272528,332.06374071709195,1.274,1.0241065975906936,0.0,6.750217830675489,120.00005142262596,0.0684730608182533,3.154369687859669e-07,0.1041374830035989,0.0097600368172345,-0.0075286569710532,9.307706995142768,22.88295343226204,23.27857430381768,27.19130776574171
0.78,31.222195974771623,131.01043310025003,12.55823376998541,-9.098224414446031,-0.1251258620668129,21.456427256174592,-0.213173113814137,6.977888088949394,286.8734378128874,23.54042179735133,11.320743436922386,69.75803006313699,0.3613146101776026,120.38585110054736,339.0114677724752,1.274,1.0240588105546735,0.0,6.771219795505525,120.00005142262596,0.0691866229717752,2.757901157217574e-07,0.1126668471167242,0.009641266109192,-0.0082299698400732,9.099077544439329,22.618213134038964,23.52076708852217,22.563568768212775
0.79,31.22219546920325,131.0104341361682,12.790182050399132,-8.912145081009992,-0.1287320845441009,30.808272874331045,-0.2104522451928045,7.205156283035632,373.6203323159581,23.7208394546734,11.425856736488324,69.82254747404492,0.377451007004395,120.40304649724992,344.22019289839886,1.274,1.0240083170932772,0.0,6.79211098200259,120.00005142262596,0.0697170630482107,2.325904691967583e-07,0.1211814634952062,0.0095168546379885,-0.0089195806361836,8.913067262600343,22.41100547600341,23.70061828313225,31.640294636898005
0.8,31.22219495954731,131.01043518028283,13.023409750461235,-8.66343959075798,-0.1313699262587647,31.18563785292987,-0.20901087267346,7.459290869170829,377.42502064505805,24.06458195475956,11.587571131038922,69.89194210083782,0.393590427665846,120.4202377639064,354.26084283694627,1.274,1.0239625010683884,0.0,6.812854628372556,120.00005142262596,0.0707275303286144,1.8586139574979614e-07,0.1296514769718753,0.0093871042269347,-0.009681089874971,8.664427960053397,22.065821285759984,24.04394643307823,32.06600558394954
0.81,31.22219443987236,131.01043624460323,13.2615287309681,-8.429906717402375,-0.1341039937313878,19.95039127478348,-0.2069569701957774,7.711198912064283,273.9374926939922,24.36841416919194,11.734737809133032,69.96618843736593,0.409735768180024,120.43742748597596,363.2545912338904,1.274,1.0239149950770308,0.0,6.83337265872682,120.00005142262596,0.071620707382256,1.3563429446869905e-07,0.1381276050058729,0.0092510452166099,-0.0104439859719803,8.430965614393164,21.76078261533981,24.34734918234882,21.389799715422555
0.82,31.222193915215804,131.01043731891167,13.501495599186878,-8.25425488945287,-0.1376290597326392,25.844628478195048,-0.2032052268608444,7.936704254966136,328.725004432774,24.50425527387459,11.823127351085931,70.04529001900775,0.4258889506569291,120.4546172042236,367.3073217076525,1.274,1.0238644186635044,0.0,6.8540143165506,120.00005142262596,0.0720201501778299,8.192496430575216e-08,0.1465863420326999,0.009108834057673,-0.0111450889302452,8.255394255559077,21.59777333084845,24.482636572515727,27.036593497904867
0.83,31.222193388699672,131.0104383968912,13.741405856299243,-8.027753105376096,-0.140260746945434,33.0551538080076,-0.200498670830133,8.18746068135849,395.6875032246518,24.783794995340468,11.960662263535031,70.12923691869037,0.4420518992543869,120.47180846755772,375.72680505322217,1.274,1.0238188483711983,0.0,6.874512984265857,120.00005142262596,0.0728419390409436,2.4760592558870163e-08,0.1549615333500671,0.0089614515611428,-0.011915992741975,8.028970301041573,21.319869135637944,24.76176291073645,34.05463118867734
0.84,31.22219285285981,131.01043949363398,13.98584296989314,-7.775644330967825,-0.1423411421677805,19.990723888246645,-0.1981975261505436,8.455333942448249,275.45937482564227,25.14201013323634,12.124494913871194,70.21798132514107,0.4582272584910569,120.48900360859456,386.65743262403566,1.274,1.0237739661568126,0.0,6.894710877772212,120.00005142262596,0.0738949713115923,-3.5806383413699054e-08,0.1632944361921536,0.0088080029078647,-0.0127379548998135,7.776939065253765,20.985019813108003,25.119651261908743,21.706243247365602
0.85,31.22219230946528,131.0104406055442,14.233753544092364,-7.594927965144702,-0.1455729325427974,21.84430344011195,-0.1937462770979678,8.680994078532825,292.9609323393965,25.271012784478376,12.209207186700926,70.31149905205464,0.4744166867430966,120.50620390880978,390.626159735512,1.274,1.0237227741398531,0.0,6.914994842230141,120.00005142262596,0.0742743312099312,-9.97383191153488e-08,0.1716013731816753,0.0086479401258813,-0.0134543087255134,7.596314764979714,20.832124628277985,25.248146266308176,23.506824298384036
0.86,31.22219176597237,131.01044171755734,14.48053981987736,-7.383751667533235,-0.1481701433257552,27.57070719674424,-0.1898588261161163,8.923692126927172,346.2265619465616,25.4929305186984,12.325065064371952,70.40977525806557,0.4906211460037376,120.5234099106186,397.5074394607773,1.274,1.023674789281455,0.0,6.93527208849322,120.00005142262596,0.0749267808587527,-1.6700571459738145e-07,0.1797979837968389,0.0084827423261641,-0.0142204149591152,7.385229949513634,20.609674008194386,25.469656032952837,28.97951384821079
0.87,31.222191214476663,131.01044284563315,14.731106255284006,-7.148696519457185,-0.1502082097503977,25.54268781903829,-0.1863393079574663,9.182499977834308,327.9640783669946,25.79161497629632,12.466171074923295,70.51274679407905,0.5068427604494276,120.5406234157047,406.86689981575614,1.274,1.0236288969245204,0.0,6.955149895001786,120.00005142262596,0.0758048646115292,-2.3754115355816374e-07,0.187906606807842,0.0083118129852545,-0.015035498320931,7.150266235185992,20.333110192358284,25.76802035291068,27.14372725329858
0.88,31.22219065614372,131.01044398740217,14.984765904646707,-6.92962799810128,-0.1524517721204559,21.862950332534343,-0.1821116107846442,9.42953892888927,294.4828134710421,26.03243380260203,12.586957916443588,70.62036329621746,0.5230828626108043,120.55784538626088,414.490185720349,1.274,1.0235805388426191,0.0,6.975041234527418,120.00005142262596,0.0765128810065485,-3.1128485234381453e-07,0.195941406999052,0.0081346289103542,-0.0158244146684701,6.931296581529249,20.10329803856587,26.00848676249266,23.810459178543457
0.89,31.2221900936496,131.01044513746135,15.23986253331609,-6.721063576208627,-0.1548243488385553,24.04021248566391,-0.177319684951103,9.665840719153504,315.02813424808807,26.22923680013613,12.692278742408329,70.73258251781334,0.5393420203708297,120.57507598269436,420.7705879366692,1.274,1.0235293752791452,0.0,6.994896278588193,120.00005142262596,0.0770915337976995,-3.881854902211921e-07,0.2038747861793119,0.0079515984877998,-0.0165891904426851,6.722838397969413,19.907964323381705,26.20491707788727,25.911227980058918
0.9,31.22218952663547,131.01044629653168,15.496631520722977,-6.497600359481158,-0.1567742004391833,26.627535320295205,-0.1726785553038064,9.912315477853566,339.3781423542166,26.47749058167396,12.813993059508665,70.84934640640587,0.5556209160235522,120.59231550205476,428.76270480958647,1.274,1.0234837388140003,0.0,7.014586359937859,120.00005142262596,0.0778214131456831,-4.681802443936697e-07,0.2116843790219952,0.0077630652791616,-0.0173872518243541,6.49948329698787,19.67899186286978,26.452864578584247,28.413191535790656
0.91,31.22218895313977,131.0104474685562,15.756338864890628,-6.2663422172833485,-0.1584310090263697,19.883427261036005,-0.1679851035090722,10.164528007724444,277.7421810230785,26.754275385673846,12.94425826278845,70.97058409922393,0.5719202633039283,120.60956429004716,437.7628585112792,1.274,1.023436404813438,0.0,7.034132354691336,120.00005142262596,0.0786351566321459,-5.511926331323512e-07,0.2193756652976096,0.0075686960539533,-0.0182069048633426,6.268336702027429,19.43412549432767,26.72938913268441,22.331514240188135
0.92,31.22218837369461,131.01044865245342,16.018679229224638,-6.060742783258796,-0.160612547190272,23.87377416005135,-0.1622676076221008,10.387468016365077,315.0281342480675,26.918416482135328,13.036625236752444,71.09622787214467,0.5882401019050361,120.6268219912664,443.1396396584015,1.274,1.0233859136578225,0.0,7.053631111164081,120.00005142262596,0.0791178281339599,-6.37148310928013e-07,0.226946553440013,0.0073683091828213,-0.0189503238865808,6.062862623212037,19.268943162056985,26.893187555260603,26.036184728424143
0.93,31.222187791772303,131.01044984123405,16.2814431235698,-5.832343533077784,-0.1621161568002794,28.605243274049325,-0.1569619918342453,10.63074821848982,359.16250706547066,27.1763644827998,13.158868469708167,71.22620880037198,0.6045799078427194,120.6440876675165,451.6617794679904,1.274,1.0233407575091376,0.0,7.073058894226785,120.00005142262596,0.0798762182207534,-7.259808957599014e-07,0.2343559033472915,0.0071628195412975,-0.0197560371363607,5.83458840853871,19.043762072275584,27.15089937041654,30.517165456826906
0.94,31.22218720235951,131.0104510449737,16.547882466245127,-5.592360871825603,-0.1631878408257541,20.28068755138254,-0.1517194010113044,10.885390837834152,283.06875048378083,27.485925815263403,13.296799243990987,71.36043440284828,0.6209397082149629,120.66136099001812,461.9981656336556,1.274,1.0232914783978162,0.0,7.092254714750137,120.00005142262596,0.0807863174610801,-8.175929661876591e-07,0.2416196512304006,0.006951572421745,-0.0205998514095562,5.594733753415154,18.78927170805374,27.460292363825385,23.01784177601909
0.95,31.222186606602325,131.01045226135582,16.817303724962116,-5.382266982258232,-0.1649849349189214,26.665968333191667,-0.1452963891254139,11.098605310173037,342.421873617488,27.64848407344785,13.386379356139376,71.49882132294593,0.6373184001145314,120.67864044964014,467.4669621972939,1.274,1.0232418269359267,0.0,7.1114579729485765,120.00005142262596,0.081264353861867,-9.118949284364668e-07,0.2487401308446221,0.0067342106049093,-0.0213317954334589,5.384787626551271,18.63286649124385,27.6225683362874,28.88380200074905
0.96,31.22218600905543,131.01045348123023,17.086744135400615,-5.144124922186513,-0.1658451960925111,26.022092271671216,-0.1394769150591966,11.344853895848264,337.09533515678265,27.948629608367213,13.519077535222529,71.64128753938533,0.653713989217357,120.6959236147251,477.65911754570936,1.274,1.0231951201821403,0.0,7.130616386759705,120.00005142262596,0.082146790589672,-1.0088165667639989e-06,0.2556695347782405,0.0065119976396065,-0.0221635073650136,5.146790446608818,18.3930291177989,27.92257874226076,28.387927890625424
0.97,31.2221854027942,131.01045471849207,17.36078600467095,-4.913318585733292,-0.1668083236433369,15.949598396125296,-0.1331424534236005,11.576782330374911,245.0218871929888,28.20826299402005,13.637737066858351,71.78772365864704,0.6701253537429227,120.71320900904892,486.5621181316674,1.274,1.0231476260761452,0.0,7.14952150867375,120.00005142262596,0.0829101630585689,-1.1082401624841484e-06,0.2624316150400866,0.0062839017688144,-0.0229604320485572,4.916142420928024,18.18283874439563,28.182060840829152,19.70860992143959
0.98,31.22218479252676,131.01045596368365,17.636361362071646,-4.707584603901874,-0.1684862358570457,23.990261010336848,-0.1257716733971195,11.762412926415031,319.593746642963,28.321377418181928,13.709364399365224,71.9380338816527,0.6865496321608847,120.73049333644012,490.45916475440606,1.274,1.0230935628253934,0.0,7.168496825332146,120.00005142262596,0.0832428895591003,-1.2100757510343956e-06,0.2690048151650034,0.0060503477691814,-0.0236292800759357,4.710591948650469,18.0645326148228,28.29491170028509,26.71895955514385
0.99,31.22218418066443,131.01045721197164,17.911856193276883,-4.47164633824102,-0.1690246393485021,26.3196177769358,-0.1191179574160861,11.99119195849192,341.66094855170127,28.60571196878896,13.833598362725452,72.09211006417854,0.702983798215371,120.74777315760936,500.3433625628147,1.274,1.0230490803133316,0.0,7.187327742392317,120.00005142262596,0.0840788740277684,-1.314239606471384e-06,0.2753467182457182,0.0058126853433729,-0.024428524698042,4.474833211865121,17.84673285086164,28.57916167903629,28.92274457234609
1.0,31.22218356009198,131.01045847760886,18.192101934565983,-4.236479825754895,-0.1694503711311234,23.270369119036584,-0.1121681294732896,12.21404688232288,314.2672081822764,28.88572447808112,13.955188760105296,72.2498197733565,0.7194257760339969,120.76504607155243,510.1729873390657,1.274,1.022999484445133,0.0,7.205908431066453,120.00005142262596,0.0849021647167302,-1.420589319656873e-06,0.2814848481360229,0.0055696002879519,-0.0252168695193895,4.239861129309831,17.636282316105373,28.859107314828137,26.281278543272247
1.01,31.222182935083023,131.01045975202214,18.47426333842317,-4.010023255735916,-0.1700633936685337,24.358599471722226,-0.1046928441005158,12.414570810856146,324.92031610370094,29.10935135864753,14.058293343365644,72.4110463347654,0.7358711800798963,120.78230726904118,518.0888169771338,1.274,1.0229507481225095,0.0,7.224567070739843,120.00005142262596,0.0855597308716425,-1.5290162394354504e-06,0.2874064192313965,0.0053212485697489,-0.0259459816862077,4.01362190938013,17.462630238049435,29.082637902462192,27.33996885940351
1.02,31.222182306087944,131.01046103430846,18.75804679841596,-3.778727426897917,-0.1703500918164492,19.89765379171177,-0.097133186530295,12.618461595071548,284.59063161543185,29.36534364573748,14.17012470023216,72.57566575899791,0.7523149862923628,120.79955130902572,527.226826178924,1.274,1.0229039803623294,0.0,7.243112154078616,120.00005142262596,0.0863124331959557,-1.6394157387901166e-06,0.2930894799680924,0.0050682636126925,-0.0266909846816251,3.782559719921609,17.274697985633132,29.33858515531109,23.56165601771325
1.03,31.22218167128648,131.01046232810452,19.044746782280257,-3.5564939225869536,-0.1709007102423023,15.76710092634681,-0.0890426720167132,12.79336472411984,247.3046933904342,29.550025815712385,14.259319972775527,72.74354148377363,0.7687521106231302,120.81677272638952,533.8645645531652,1.274,1.022853416101322,0.0,7.261526535835523,120.00005142262596,0.0868555434246817,-1.7516603245807277e-06,0.2985292726440965,0.0048105166001,-0.0273565991586664,3.5605924440909686,17.130189293356132,29.52318083472943,20.304668950352287
1.04,31.22218103351016,131.01046362774238,19.332422697987138,-3.3382599870298044,-0.171522880338081,26.380759825345663,-0.0806257360443255,12.947856285518029,345.4656368807608,29.695975282065884,14.336012978345236,72.91453421639163,0.7851763573900151,120.83396492478632,539.136273861322,1.274,1.0228049544826707,0.0,7.279895626796112,120.00005142262596,0.0872848118362063,-1.8656398979906404e-06,0.3037027381062623,0.0045488076414723,-0.027967369519976,3.342658603808074,17.009953397653618,29.66903257126916,29.387037480193765
1.05,31.22218039231332,131.01046493411147,19.62140386731172,-3.099170958608953,-0.1709736654570645,14.870807243849567,-0.0726897576574926,13.151348147218863,240.4562587980608,30.02235135936081,14.464887329817495,73.08849145742711,0.8015816059530966,120.851121430554,551.0369471090144,1.274,1.022755494436122,0.0,7.298096294908774,120.00005142262596,0.0882444105412648,-1.981231287443394e-06,0.308594708838314,0.00428367985562,-0.0287293926437911,3.103878881386862,16.796498518300428,29.99549491865052,19.852056567871102
1.06,31.222179742845206,131.0104662568938,19.91521265631088,-2.884244742761773,-0.1715423561620549,22.17536831827241,-0.0637485955508716,13.274552844540228,308.1796836557233,30.124249692702264,14.526728845670714,73.26525202589222,0.8179614680060286,120.8682355361548,554.7681692251601,1.274,1.0227013895379469,0.0,7.316153242841936,120.00005142262596,0.0885442128889539,-2.0982592340244128e-06,0.3132233873386964,0.0040136935779762,-0.0292584578294655,2.889337234620553,16.706211854518994,30.09730392266397,25.845014551301098
1.07,31.222179094294745,131.01046757773554,20.20727410970012,-2.6527116338663905,-0.1710199080007457,26.494359171273047,-0.0552030645892514,13.442587727002202,348.5093681440431,30.393848115205824,14.636211713021062,73.44466515650971,0.8343063409520882,120.88529720587572,564.7266102828152,1.274,1.0226540159946436,0.0,7.334286602834434,120.00005142262596,0.0893369380023985,-2.216644275571149e-06,0.3175458006663918,0.0037410919145704,-0.0299268420075832,2.6582147994995973,16.531759811845284,30.366984410766108,29.709548634620997
1.08,31.222178437506496,131.01046891491015,20.50425729227504,-2.419381452553,-0.1701948384269688,16.883298759574515,-0.0465051712343671,13.611286996863823,261.0015785751465,30.692610745395164,14.752515442489484,73.62655548683607,0.8506086732495901,120.90229861262844,575.8669440139257,1.274,1.0226061614050743,0.0,7.352091829772371,120.00005142262596,0.0902153962783798,-2.336202396314121e-06,0.3215764796977969,0.003464568958737,-0.030603743150788,2.425356814537066,16.347502111871982,30.66587664200648,21.68674879844824
1.09,31.22217777602234,131.010470261339,20.80366254703872,-2.2005119490796345,-0.1701280126277965,15.235371533189364,-0.0371722803394601,13.7156728969917,246.54375332456465,30.826584242006795,14.820783345053629,73.8107559685408,0.8668576722244372,120.91922858420556,580.8885390393172,1.274,1.0225512795791307,0.0,7.3699794618672145,120.00005142262596,0.0906094933449889,-2.456786328071512e-06,0.3253071680488108,0.0031840777722999,-0.0310930259385477,2.207075473654525,16.2508407341761,30.799860635543805,20.499697816065854
1.1,31.22217711352229,131.01047160968452,21.10275825840037,-1.9796311619255893,-0.1697744884516317,33.33353258176001,-0.0277926862191919,13.817053247866031,413.1890617384087,30.984690405118407,14.894915966332343,73.99709482770744,0.8830409577506694,120.93607434912047,586.8455876372523,1.274,1.0224981043155532,0.0,7.387796376067145,120.00005142262596,0.0910745268594715,-2.578297781343212e-06,0.3287101401091144,0.0029013659505887,-0.0315785174880867,1.9868949251817491,16.14545882769057,30.958022329858856,36.083737711980845
1.11,31.22217644646963,131.01047296699565,21.40421507279279,-1.7413749094115425,-0.1677684951985839,23.548627753638097,-0.0188030819505673,14.002143068780132,324.1593910379213,31.4231960911406,15.045310091086067,74.18538440989408,0.8991474437815424,120.9528245465428,603.5561195635182,1.274,1.0224548851875197,0.0,7.40538361210288,120.00005142262596,0.0923637581722816,-2.700580696564844e-06,0.3317807295051951,0.0026164645799713,-0.0323236513158701,1.7494353878232027,15.907621407776142,31.396843115197367,27.397047891221654
1.12,31.22217576950265,131.0104743439421,21.712236391127927,-1.5194817450666065,-0.1668859022408287,6.960543276349895,-0.0091133360471466,14.096713389434225,172.7328179403806,31.62539363283292,15.129014821574442,74.37543439441806,0.9151645744175508,120.96946634375549,611.3303782698375,1.274,1.0223979224661404,0.0,7.422902230713031,120.00005142262596,0.0929584105362181,-2.8234016676258906e-06,0.3345330717956583,0.0023270470058483,-0.0328005442113317,1.5286167434612297,15.789789439290846,31.59917929367609,15.721532181650991
1.13,31.22217509290317,131.0104757200425,22.01897148483369,-1.3081617785477675,-0.1668908728235407,28.148715139639503,0.0009427850531857,14.111239881897388,367.5328077894322,31.628487447323423,15.1579782596653,74.56706255305164,0.9310739596487912,120.98598089236728,611.4319789635949,1.274,1.0223460397860296,0.0,7.440592646636578,120.00005142262596,0.0929678261608019,-2.946684520260714e-06,0.3369366422248883,0.002035555865639,-0.0330384696857346,1.3187626634007854,15.76987423286981,31.6022723273926,31.48773183171289
1.14,31.222174415959167,131.0104770967224,22.324900268090616,-1.0795216354631485,-0.1646562493658942,14.124691140581744,0.0105765469690706,14.250349498851408,239.6953177322812,32.03303178136358,15.29339921170322,74.7600691745629,0.9468595075317688,121.00235180967624,627.1546262027437,1.274,1.0223022138470996,0.0,7.458004880113389,120.00005142262596,0.0941572566804786,-3.070339206300919e-06,0.3389730298722097,0.0017441266912022,-0.0336622921063921,1.0920052351867835,15.56504765800042,32.00716767379545,20.06438318313296
1.15,31.222173727374447,131.01047849645008,22.63904990256091,-0.8646200026770227,-0.1638945546732385,13.811762904236732,0.0206934181540115,14.268864759789892,237.4125115347709,32.12214517123558,15.34361195999476,74.9542440050739,0.962507267282635,121.01856500590196,630.6298407946115,1.274,1.0222426194541194,0.0,7.475174462590398,120.00005142262596,0.0944195295267218,-3.194073483426396e-06,0.3406568141893424,0.0014493407052613,-0.0339225905831691,0.8800154175170914,15.511389292658166,32.096400709898205,19.85864356580224
1.16,31.22217304201517,131.0104798896483,22.949636663222137,-0.6488747836942033,-0.1626405595717893,41.33335699682608,0.0307831001531781,14.29686789821287,490.043774385954,32.27730286517228,15.410281543977415,75.14938512743312,0.9779947508596152,121.03459758327848,636.7177468314674,1.274,1.02219674531104,0.0,7.49260408467971,120.00005142262596,0.0948759311096615,-3.317840167538485e-06,0.3419650345468633,0.0011544010546515,-0.0342163258587915,0.6689464146336845,15.43086890725025,32.25175538012509,43.73611528159853
