Time,Latitude,Longitude,Altitude,Angle of Attack,Angle of Sideslip,X-Acceleration,Y-Acceleration,Z-Acceleration,Thrust,True Velocity,Ground Velocity,Pitch,Roll,Yaw,Dynamic Pressure,cp,parachute_deploy_gain,Wind Speed,Mach,omega_x,omega_y,omega_z,Cmq,Angle of Attack(total),Angle of Attack(gust),True Velocity(gust),Acceleration
0.0,31.222216000000007,131.010392,3.000000004412624,0.0,0.0,0.0,0.0,0.0,2.2828121974499247,0.0,0.0,71.99999999612658,-1.0292491154817412e-14,119.99999999354436,0.0,15.288,0.0,0.0,0.0,0.0,0.0,0.0,-0.0,0.0,90.0,0.0,0.0
0.01,31.22221599999862,131.01039200000284,3.0000009727369523,0.0,0.0,0.0,0.0,0.0,34.24218696174923,5.916279387578309e-11,5.734623670548936e-11,71.99999999613168,-5.86671995824671e-13,119.9999999935449,2.1432944861733093e-21,15.288,0.0,0.0,1.7386402909615473e-13,-3.4220131069073734e-19,7.115076756936125e-19,5.488773498207866e-19,-1.1574302492039043e-31,0.0,89.99999999962336,5.916279387578309e-11,0.0
0.02,31.22221599999738,131.01039200000537,3.0000018317022668,0.0,0.0,0.0,0.0,0.0,25.871876237766408,1.2265415415436536e-10,1.1895038237325684e-10,71.9999999961369,-1.1836364828043265e-12,119.99999999354544,9.211895886571454e-21,15.288,0.0,0.0,3.6044858651615574e-13,-6.979551485375437e-19,1.4162390878091906e-18,1.0909784360635388e-18,-4.776231873571785e-31,0.0,89.99999999921916,1.2265415415436536e-10,0.0
0.03,31.22221599921969,131.01039200159065,3.0001883335529382,18.80143492628821,-0.0001350810307892,10.931161642028636,-1.75114298675875e-05,3.026590975169265,180.34219359854663,0.0798232026864394,0.0478175828508887,71.99999999765336,-5.341802909786072e-12,119.99999999436793,0.0039016003969354,15.288,0.0,0.0,0.0002345795854893,3.788270153300133e-17,-7.771883375645477e-10,1.1422790048099072e-11,1.7057759223764537e-13,18.80143492675591,89.51882325913425,0.079801984207741,11.342422482672777
0.04,31.222215995131297,131.01039200995308,3.001692634342189,9.19442604083399,-4.49173898918486e-05,52.29595764159784,6.445392950801871e-06,3.026413589912948,548.6359724538078,0.3504174083926908,0.1601447499964056,72.00000000319055,-3.111420077280171e-11,119.99999999870242,0.0751892535633216,15.288,0.0,0.0,0.0010297854387864,2.0082066977226968e-15,-1.520937588847922e-08,2.5623342884322286e-11,1.4654248781413086e-11,9.19442604094277,87.798916624545,0.3504103527855857,52.383455068075136
0.05,31.222215983575865,131.01039203366796,3.0074067499493786,5.158590039700252,1.707592688632746e-06,76.26884281015512,5.843947534199429e-05,3.0258124765658088,761.6984298824644,0.9592973585397016,0.3772700771701255,72.0000000004862,-1.3608731808076822e-10,120.0000000109612,0.5634958029902841,15.288,0.0,0.0,0.0028191251099456,2.086299069701397e-14,-1.0551247853743037e-07,3.973493515691201e-11,2.783064866637575e-10,5.158590039700515,83.94063169874748,0.959297626767734,76.32884071402438
0.06,31.222215961742712,131.0103920785344,3.019291017943491,4.109521257467909,3.140103977270004e-05,57.06876634333886,0.0001151069734147,3.024834864051463,590.4875390737208,1.6257536642597354,0.6118982818704327,71.99999992547217,-3.5903296759057166e-10,120.00000003412836,1.6184272268450337,15.288,0.0,0.0,0.0047776672697797,1.0694899894620088e-13,-3.741090980393931e-07,5.521401959501359e-11,1.6723176417636091e-09,4.109521257587776,79.78719176344794,1.6257585967235286,57.148873286519276
0.07,31.222215929936205,131.01039214392435,3.0371334573469446,3.649087515174788,5.707077112564807e-05,86.89643797254193,0.0001728541558773,3.0234947746384675,855.2937749779139,2.3057260079826607,0.8506307413593818,71.99999965378231,-6.907496536790437e-10,120.00000006788592,3.255354923652711,15.288,0.0,0.0,0.0067759305364855,3.495199904512709e-13,-9.036515915819006e-07,7.594816279105379e-11,5.728932851326001e-09,3.6490875156204896,75.6601668283889,2.305734972638426,86.94902215090157
0.08,31.222215886364623,131.01039223353447,3.0621840248716574,3.4254446680114707,8.413075603463509e-05,17.831756866644035,0.0002285946601282,3.021841001032126,241.2171988638848,2.961944911520492,1.0819695676346892,71.99999900671328,-1.141745983122182e-09,120.00000011415082,5.371998197385977,15.288,0.0,0.0,0.0087043901031071,8.800530155962314e-13,-1.829098470920821e-06,1.0943386634701918e-10,1.4896287129277132e-08,3.4254446690434226,71.81713637501419,2.9619581267487467,18.085991154451033
0.09,31.22221583454733,131.01039234010327,3.0919888289029,3.389560809024919,0.0001118726864415,54.09031716446879,0.0002748660999733,3.020060228038602,563.0937377043176,3.504225426410036,1.2780161667917422,71.99999774508822,-1.634190085504106e-09,120.00000016921716,7.519080503822694,15.288,0.0,0.0,0.0102980157586766,1.865782139518716e-12,-3.1503298654458527e-06,1.6284478329871028e-10,3.03536411425607e-08,3.389560810868955,68.76526501308032,3.504242999330529,54.17456206384468
0.1,31.22221577423132,131.0103924641528,3.1267248829165366,3.4447939461814814,0.0001419149103147,51.372195336549765,0.0003131602029306,3.0182021883815127,538.7437595981919,3.950569597142709,1.4443465951180965,71.99999562056465,-2.1287748602259068e-09,120.00000023339832,9.55649523509932,15.288,0.0,0.0,0.0116097108366932,3.485956000178229e-12,-4.949356763187612e-06,2.4573266549165286e-10,5.3761299442583966e-08,3.444793949101151,66.34639928474206,3.9505918890846927,51.460781166288626
0.11,31.222215706113143,131.01039260424562,3.165907002780892,3.4691423802630394,0.0001702373452339,40.591037561894986,0.0003534470100582,3.016051659024047,442.8656393052949,4.421478635995476,1.6182620895289603,71.99999235067894,-2.5564479031457968e-09,120.00000030601664,11.970509656144712,15.288,0.0,0.0,0.0129935974697161,5.942887149865172e-12,-7.273722517324353e-06,3.67769289312894e-10,8.842679949465076e-08,3.4691423844348632,63.88798785789768,4.421505376815134,40.70293476011277
0.12,31.222215630588888,131.0103927595646,3.2092596514826863,3.4852659299808075,0.0001974376474727,44.30042894095728,0.000394069215595,3.013641598889868,475.58594813540446,4.896982486381051,1.793579340340896,71.99998761802138,-2.8337988279882726e-09,120.00000038673312,14.683611096353944,15.288,0.0,0.0,0.0143909889875706,9.464337642181618e-12,-1.017558359402848e-05,5.395790443954697e-10,1.3700793350599625e-07,3.4852659355662303,61.5068242157714,4.897013499814194,44.40281567867803
0.13,31.222215548046687,131.0103929293088,3.256512891171917,3.5606043721293616,0.0002276507019012,48.86766833507025,0.0004268800875964,3.0112558910133567,515.9156326236895,5.278566579338586,1.939796541405244,71.99998107389406,-2.8573058577484587e-09,120.00000047523812,17.061052093156064,15.288,0.0,0.0,0.0155123760833565,1.4300406003001044e-11,-1.3705268062305584e-05,7.724776992181392e-10,1.989112774124932e-07,3.560604379397528,59.67313531776262,5.27860233862722,48.960358155653
0.14,31.222215458587108,131.01039311327068,3.30759734332425,3.6000732663755977,0.0002555702913645,45.540290862247225,0.0004629468001456,3.0085404980032777,486.2390860568404,5.70011779273801,2.098362647205908,71.99997235012626,-2.508533681468686e-09,120.00000057154703,19.894788765881632,15.288,0.0,0.0,0.0167512184495524,2.071534240530911e-11,-1.7917736259613292e-05,1.0787346240473087e-09,2.8081526258393346e-07,3.6000732754351943,57.72385750323359,5.700157937625502,45.639559681930805
0.15,31.222215362317904,131.01039331122794,3.3624387479639086,3.651605404442164,0.0002842753491325,44.01308509501,0.0004965057129938,3.005703619811542,472.54218587214,6.091938849578711,2.2476968067377374,71.99996103728932,-1.6446954747148112e-09,120.00000067569304,22.723773683610247,15.288,0.0,0.0,0.0179026934683374,2.9002783512213203e-11,-2.287326399669318e-05,1.47199345427166e-09,3.831202693354572e-07,3.651605415492516,55.98561718911576,6.091983503446133,44.115597174664394
0.16,31.22221525912812,131.01039352340948,3.421115382839859,3.67540086436193,0.0003108411545024,34.83804992586084,0.0005330990866742,3.002517946501868,391.1218908297564,6.521183188362317,2.4085903880902046,71.99994669525161,-1.0153513453738144e-10,120.00000078796704,26.03872642002185,15.288,0.0,0.0,0.019164148528834,3.9478358970291335e-11,-2.864207894220033e-05,1.9677461746207517e-09,5.135466997084602e-07,3.6754008774883777,54.15946979122355,6.521232015176687,34.96719658394182
0.17,31.2222151493826,131.01039374906244,3.4833737923187487,3.7139589864597298,0.0003384978477213,43.96471427482637,0.0005668629535037,2.999235483723449,471.78125980632376,6.916861975403744,2.559060925010733,71.99992884100092,2.3206494032971838e-09,120.0000009081849,29.29426197817256,15.288,0.0,0.0,0.0203269651395979,5.248754693205839e-11,-3.5267097947693114e-05,2.580363454062817e-09,6.706952682968329e-07,3.713959001863866,52.549031795895466,6.916915146521327,44.06689817851128
0.18,31.22221503253009,131.01039398932429,3.549599475912623,3.7380363034619775,0.0003650282082698,36.67395661481795,0.0006021794701355,2.9956556354306425,407.10156721191447,7.332140201215607,2.71556808256092,71.99990696207136,5.837017536380516e-09,120.00000103716444,32.917216366714264,15.288,0.0,0.0,0.0215473823438242,6.839750892601699e-11,-4.285557247677198e-05,3.331016495775474e-09,8.639362741436378e-07,3.738036321259578,50.93050624815799,7.332197539712479,36.796100973258795
0.19,31.22221490871209,131.01039424390297,3.619694897703461,3.747799769666444,0.0003901520189829,41.42208371271829,0.0006393759928961,2.991742733214697,448.9531328318269,7.771071983754382,2.879366399937307,71.99988049019642,1.0709144790974043e-08,120.00000117502664,36.97605053227239,15.288,0.0,0.0,0.0228373144884866,8.761416506509219e-11,-5.146771415177372e-05,4.238406957677133e-09,1.0996552116864756e-06,3.747799789945131,49.29705748437159,7.771133268690212,41.529983675580546
0.2,31.22221477769685,131.01039451327668,3.693822889232993,3.7700519460961166,0.0004166800650969,37.99697972290605,0.0006740224661302,2.987733789228414,418.51563019916136,8.179966026035371,3.0338260708461373,71.99984881140107,1.723179577184912e-08,120.0000013223286,40.969302182777255,15.288,0.0,0.0,0.024038975990988,1.1057590044953188e-10,-6.120032215177249e-05,5.3263847350253015e-09,1.376394225587184e-06,3.7700519690893857,47.8457752505109,8.180031477986942,38.11426270718793
0.21,31.222214639876928,131.01039479663547,3.771710975053407,3.7926098867321474,0.0004432924407074,36.46301043881366,0.0007080907240332,2.983530483977461,404.8187610144644,8.582757448615462,3.1863584283669346,71.99981127559042,2.5745201416596626e-08,120.00000147900325,45.103059028532826,15.288,0.0,0.0,0.0252227064089584,1.3774582723633048e-10,-7.20875523136271e-05,6.61341033873124e-09,1.7010673350603349e-06,3.792609912601061,46.47936953648762,8.582827080829217,36.584868250565684
0.22,31.22221449507626,131.01039509434258,3.8534832466471007,3.782921298925821,0.0004660920499522,44.14577847155813,0.0007479176313898,2.978724032883548,472.5421858721365,9.056569122268344,3.360845972992861,71.99976720416048,3.661811567390422e-08,120.00000164562512,50.21995530074818,15.288,0.0,0.0,0.0266151520780326,1.6960703048385348e-10,-8.421592474264931e-05,8.124635526119773e-09,2.0969540034515424e-06,3.7829213275976334,44.9464484092354,9.056642335836344,44.24615863872642
0.23,31.22221434283448,131.01039540734791,3.9394622486964206,3.813874679301352,0.0004940771488601,36.66675459308932,0.000779455230549,2.974212905336642,406.3406421461021,9.430647902846331,3.5044030163419806,71.99971583979395,5.0272885112871524e-08,120.00000182313076,54.45382429059888,15.288,0.0,0.0,0.0277145095638672,2.0669790509245914e-10,-9.77285871729516e-05,9.894576563683824e-09,2.5339062472561444e-06,3.813874711257219,43.79476959007253,9.430725512303388,36.78718303164376
0.24,31.222214184153326,131.01039573358457,4.028950821673608,3.829256049377765,0.0005200487408944,37.802126339316736,0.0008136255607606,2.9692962675112065,416.2328240017114,9.837806876534357,3.658163422426286,71.9996564062533,6.718950080713476e-08,120.0000020109434,59.25679777340223,15.288,0.0,0.0,0.0289110855155543,2.4956955046738006e-10,-0.0001125744417092,1.1934277804843484e-08,3.0448209172448607e-06,3.829256084638984,42.59361542722471,9.83788856559955,37.91856374864305
0.25,31.22221401888584,131.01039607335582,4.122052964664892,3.851417709838087,0.0005469594058717,38.85163035360012,0.0008459008130282,2.964283881833675,425.36408079150686,10.22297576958679,3.8050691648373967,71.99958811418384,8.786880969336211e-08,120.00000220974424,63.98709205399403,15.288,0.0,0.0,0.0300430411774988,2.987811646313829e-10,-0.0001288461362054,1.4273117985167728e-08,3.621333387698252e-06,3.8514177486178034,41.50703126619192,10.223061685769354,38.96455005232871
0.26,31.222213847358866,131.0103964259872,4.218542267117083,3.8780574625554745,0.0005745172425185,42.3164797140743,0.0008766626387865,2.959162938653076,455.8015834241788,10.590779679138215,3.946551912391076,71.99951013710364,1.1286401474734325e-07,120.00000241975916,68.67355887153568,15.288,0.0,0.0,0.0311239685467471,3.5491769188178554e-10,-0.0001465721578858,1.6932703957058654e-08,4.267712643344226e-06,3.8780575050466,40.51245375834074,10.590869924095635,42.41981967733593
0.27,31.22221366913008,131.0103967923915,4.318728802515264,3.886188503202341,0.0005994342651313,38.70936050721014,0.0009111181036949,2.953518013741325,423.84219965987256,11.004860953238978,4.102320296019413,71.99942161756776,1.4276417094868828e-07,120.0000026420792,74.14786134434608,15.288,0.0,0.0,0.0323408987462391,4.1858405402174807e-10,-0.0001658847815307,1.995072923688136e-08,5.018832267232506e-06,3.886188549362022,39.43841359495857,11.00495511215316,38.8218734782956
0.28,31.22221348431185,131.01039717233687,4.422535913956003,3.90556090261878,0.0006261175699806,44.68030766832924,0.0009425767186621,2.947879457547137,476.3468732012221,11.38358114165448,4.247086834352694,71.999321619057,1.7823531611327881e-07,120.000002877279,79.33831935330025,15.288,0.0,0.0,0.033453914386159,4.904408325040897e-10,-0.0001868529238516,2.3357766479368094e-08,5.847713054408178e-06,3.9055609527288775,38.49894431917428,11.383679491972384,44.77744842575601
0.29,31.222213292835256,131.0103975659655,4.530013412817602,3.9242599519377537,0.0006528240665589,35.802573724660256,0.0009737210635801,2.942037024315898,397.97031042211177,11.759725774384751,4.391004157029451,71.99920917567837,2.1999186079018322e-07,120.00000312617878,84.66717879828003,15.288,0.0,0.0,0.0345593650464213,5.711677680739745e-10,-0.0002095620322847,2.7188189988316943e-08,6.77505090435382e-06,3.9242600061534456,37.60352534239979,11.759828319749328,35.92324968749781
0.3,31.222213095024976,131.0103979726075,4.64093665799555,3.936939025755682,0.0006785438093183,33.570228713727204,0.0010059102294455,2.93586442972183,378.1859457108711,12.149968255527943,4.539237002744259,71.99908328532703,2.6880857935396905e-07,120.00000338923812,90.3787563598417,15.288,0.0,0.0,0.0357062504417728,6.614698865958865e-10,-0.0002340353597042,3.1467140861055e-08,7.817263716758327e-06,3.9369390841381695,36.71173884615234,12.150074840940263,33.698361337808635
0.31,31.22221289105846,131.01039839189684,4.755183729044857,3.9598342215431432,0.0007060286581592,35.396825578217346,0.0010350810412898,2.9297385597941448,394.1656220930212,12.504537499407316,4.6763673222047455,71.99894291513503,3.255120771695107e-07,120.00000366712923,95.72967338626896,15.288,0.0,0.0,0.0367483036680869,7.620720834468404e-10,-0.0002603234137215,3.622454560346964e-08,8.948994505138873e-06,3.9598342843844345,35.934338386209795,12.504648402129598,35.5178635353378
0.32,31.222212681031937,131.01039882363492,4.872689374180126,3.985461429033668,0.0007340760463279,38.52097867048992,0.0010630242168685,2.9235095146848846,421.55939346242695,12.84534566718622,4.809181081594425,71.99878701464397,3.909756427278764e-07,120.0000039606604,101.01782231644016,15.288,0.0,0.0,0.0377499198995686,8.737098716736534e-10,-0.0002884807530145,4.1491545539590986e-08,1.0187112828155184e-05,3.98546149652875,35.21473736963424,12.845460975581933,38.631757748577954
0.33,31.22221246496604,131.01039926777932,4.9934410812554,4.010606629086,0.0007621365968788,38.18822026147908,0.0010905599149574,2.917102431053817,418.5156301991682,13.18247167592885,4.940798912752974,71.99861449732019,4.661299779655886e-07,120.000004270781,106.38859400029033,15.288,0.0,0.0,0.0387407190563976,9.971421990244511e-10,-0.0003185760672934,4.7302669734505256e-08,1.154498667827874e-05,4.010606701382261,34.52805863348922,13.182591392065536,38.299473293007864
0.34,31.222212242662028,131.01039972474007,5.117579377337869,4.019339771238816,0.0007871574969313,29.898022638335373,0.0011220389395318,2.910051232417875,345.46563688075645,13.569536737955724,5.0878303926024735,71.99842423285973,5.519675040347761e-07,120.0000045987411,112.72655675097128,15.288,0.0,0.0,0.0398782837956187,1.1331556132162459e-09,-0.0003507224668667,5.37022358302301e-08,1.308298593306914e-05,4.019339848191799,33.76700548046532,13.5696603843662,30.039310197084795
0.35,31.22221201433324,131.01040019407705,5.2449575244483055,4.033762873683395,0.000813261106463,32.76415525156106,0.0011515840876071,2.902959820469776,370.5765700527033,13.934300103976534,5.227895396154902,71.99821502296155,6.495674834876441e-07,120.000004945438,118.8669740701126,15.288,0.0,0.0,0.040950312688979,1.2825853697215452e-09,-0.0003849609961885,6.072234695821837e-08,1.4746020857580124e-05,4.033762955530055,33.07785186209504,13.934427850732408,32.89250745069162
0.36,31.22221177990305,131.01040067594835,5.375631006350063,4.051723629010647,0.0008401329464575,37.01692984301412,0.0011797030485285,2.8957873473716007,407.8625232777193,14.282998147928636,5.362923567977223,71.9979856440668,7.600645476620651e-07,120.00000531213882,124.88900300695136,15.288,0.0,0.0,0.0419751331662584,1.4462801652534363e-09,-0.0004213876232777,6.84067806399068e-08,1.654507199147348e-05,4.051723715967022,32.44322602189087,14.283130115703262,37.13002398000203
0.37,31.222211539445663,131.01040117020102,5.509550188388412,4.071639898917391,0.0008674922629137,35.12417761390579,0.0012067983861697,2.88849906286036,391.1218908297666,14.620581431527652,5.494447309446232,71.99773482653193,8.846681943540367e-07,120.00000570002652,130.86067091914967,15.288,0.0,0.0,0.0429672939311924,1.6251202388969355e-09,-0.0004600660652957,7.679415042686734e-08,1.849041957573993e-05,4.071639991174516,31.85023865502424,14.620717696893658,35.24274792557624
0.38,31.222211292895075,131.01040167697127,5.646763233102716,4.08264881385344,0.0008930259828975,36.695642158537446,0.0012360471443664,2.880711738179021,404.8187610144602,14.986392916850402,5.634654729559426,71.99746126698146,1.0246533537040716e-06,120.0000061105033,137.4891296153862,15.288,0.0,0.0,0.0440424171304414,1.8200057922063743e-09,-0.0005010869196581,8.592980519823866e-08,2.0642694281337543e-05,4.082648911356968,31.228847973200924,14.986533193043764,36.808540518115166
0.39,31.22221104018777,131.0104021963902,5.787316652586672,4.096641430700089,0.0009192713382325,31.335681548387896,0.0012640110027448,2.872831219844713,357.64062493382744,15.337978856701952,5.770390286512262,71.99716358743511,1.1813915463769678e-06,120.00000654506955,144.01394309468844,15.288,0.0,0.0,0.0450757388736732,2.031886352449547e-09,-0.00054455673306,9.586443829735616e-08,2.295945663566148e-05,4.096641533664766,30.65298398882095,15.338123255506089,31.4670954954126
0.4,31.222210781536543,131.01040272801887,5.931064331106764,4.109028969993624,0.0009451871856381,29.95928076777898,0.0012920492774571,2.8646905607053603,345.465636880754,15.692185018814769,5.906873567965718,71.99684037970908,1.3563276523471372e-06,120.00000700500496,150.74021066990193,15.288,0.0,0.0,0.0461167659598875,2.2617341782092324e-09,-0.0005905037520737,1.0663253249436129e-07,2.5471259834659164e-05,4.1090290785164525,30.09246700352443,15.692333488470696,30.095929256306363
0.41,31.222210517064383,131.01040327160345,6.077922766619747,4.122888296344507,0.0009714525997821,33.78425365340317,0.0013192264430821,2.85640971467756,378.94687077668647,16.03742529732769,6.0405139809190125,71.99649020751959,1.5509747261474075e-06,120.0000074917568,157.44375780268788,15.288,0.0,0.0,0.0471314487675864,2.5105374204052982e-09,-0.0006389770219162,1.1827345344180344e-07,2.816813594418537e-05,4.122888410595805,29.56469007160549,16.037577892745222,33.904791300285986
0.42,31.22221024682894,131.0104038270252,6.227854084363214,4.14444025865494,0.0009995884754813,38.04468161607466,0.0013435485656724,2.8482703202464488,416.2328240017114,16.348862540904037,6.163613566771559,71.99611159893284,1.766920641656551e-06,120.00000800692096,163.6157044470786,15.288,0.0,0.0,0.0480467946810589,2.779304965995011e-09,-0.0006900467934588,1.308321832549104e-07,3.100973487310896e-05,4.144440378988911,29.104646754454564,16.34901955589459,38.15115260238947
0.43,31.222209970843565,131.0104043942566,6.380851271439565,4.1618082623168045,0.0010268052928652,33.45815353250911,0.0013687230309017,2.8397750580998298,375.9031395134336,16.67263197205097,6.290467308135904,71.99570306121484,2.005818691215035e-06,120.00000855220898,170.15779512382937,15.288,0.0,0.0,0.0489983878509763,3.0690566816849196e-09,-0.0007437862329608,1.443552931671376e-07,3.4086145072160934e-05,4.161808388761201,28.640125213458976,16.672793262249197,33.57845085853367
0.44,31.22220968892116,131.01040497368373,6.537047157143216,4.164954087655709,0.0010505545842624,30.86574023822051,0.0013980747538988,2.830419582421933,353.0750125389216,17.050421620730056,6.433992917638883,71.99526304125902,2.269416145406482e-06,120.00000912964636,177.9537948947602,15.288,0.0,0.0,0.050108743779844,3.380847125286677e-09,-0.0008003278134917,1.589055036683518e-07,3.750784460406397e-05,4.164954219916419,28.113519280259386,17.050586641458253,30.99524475496968
0.45,31.22220940081287,131.01040556582012,6.696617751072218,4.165241899529329,0.0010735835484822,35.912216710755274,0.0014280646808282,2.820677244966047,397.2093853562869,17.438293672974723,6.580571293039616,71.99478987454265,2.5595995397253085e-06,120.00000974147088,186.13940823302417,15.288,0.0,0.0,0.0512487363629523,3.7158016249566814e-09,-0.000859850913876,1.745604864109677e-07,4.121350642664912e-05,4.1652420376426775,27.591357195572936,17.43846231108416,36.02281959036367
0.46,31.222209106468902,131.0104061707686,6.859600379555308,4.174585124444534,0.0010989881252456,41.916816790010685,0.0014546917035209,2.811153314474766,449.7140588976434,17.786187321601275,6.714685486378061,71.99428180697711,2.8783880229668832e-06,120.0000103898448,193.6374175079873,15.288,0.0,0.0,0.0522712438446989,4.0751091178509895e-09,-0.0009224765531151,1.9138630415982226e-07,4.50966024037632e-05,4.1745852688465686,27.13985967570823,17.786359950252297,42.01097612387663
0.47,31.22220880579083,131.01040678873238,7.026066274755745,4.1823089530633855,0.0011240727220223,28.37640408484148,0.0014814747534716,2.801325368441072,331.0078106302534,18.138167428286582,6.849989708801916,71.99373704967608,3.2278903746588286e-06,120.00001107707628,201.37401505997488,15.288,0.0,0.0,0.0533057667609836,4.459978104761035e-09,-0.0009883252835099,2.094509673354327e-07,4.927107017839778e-05,4.182309103852639,26.69716826759888,18.13834399721685,28.514342615617974
0.48,31.222208499300592,131.0104074186346,7.195654207463586,4.189479568102716,0.0011490100608361,27.95074823096412,0.0015080719422187,2.7912412472910484,327.2031223011574,18.48995085190441,6.98515976370584,71.99315377257649,3.6103201777021456e-06,120.00001180491516,209.25751230436188,15.288,0.0,0.0,0.0543397174489847,4.8716620260348906e-09,-0.0010573190976925,2.2877013380347535e-07,5.373205427420879e-05,4.189479725385959,26.268461765425428,18.4901313379827,28.089773168283216
0.49,31.222208187201936,131.01040806005494,7.368224738812109,4.202723284133339,0.001175611380853,35.08821363242469,0.0015321405723077,2.781292092003844,389.60000969812296,18.812014261754847,7.111044804193205,71.99253015042137,4.027946338669921e-06,120.0000125755114,216.60722913930897,15.288,0.0,0.0,0.0552863302793499,5.311396446020465e-09,-0.0011294854492155,2.4938633613154685e-07,5.8398320167141767e-05,4.202723448262914,25.88860807032205,18.81219892635871,35.1982716047702
0.5,31.22220786953184,131.01040871291724,7.5437546994244835,4.220815778795054,0.0012036252596423,36.05491615971072,0.0015540388599792,2.7714444106710974,397.97031042210494,19.10875420627192,7.229005658018125,71.99186435180009,4.483102820610566e-06,120.00001339126192,223.4908652241728,15.288,0.0,0.0,0.0561585257949344,5.7804122391526605e-09,-0.0012048912160576,2.713531252030471e-07,6.327866493526626e-05,4.220815950099865,25.54902500917784,19.108943271285572,36.161276053538906
0.51,31.222207546379583,131.0104093770373,7.722184419225251,4.232567510615346,0.0012298790840397,27.54004661432325,0.0015777580800203,2.761017323676155,323.3984349720841,19.430597746636646,7.354673636736509,71.99115452520388,4.978202222778502e-06,120.00001425458936,231.07869697977367,15.288,0.0,0.0,0.0571045034845869,6.2799518101633574e-09,-0.0012835871653678,2.947201005874635e-07,6.854585242460463e-05,4.232567688976395,25.189423168613605,19.430790935591396,27.678103017910345
0.52,31.222207217617104,131.0104100523518,7.9035347781729905,4.239741616151974,-17.626237210611063,33.44283278528232,1.0952824260665612,2.7498272923171654,372.0984511843415,20.736811064707247,7.483117184017351,71.99039247369795,-5.5404958665839854e-05,119.99995110883896,263.18671709275446,15.288,0.0,6.285727557417188,0.0609434530887052,6.7965912633532395e-09,-0.0013839462208088,-0.0001852595895587,7.887207688497578e-05,18.11322087142059,6.271138322692995,18.01155391878195,33.57356487528211
0.53,31.222206882395447,131.01041073880972,8.087934300984841,4.248469861976301,-17.38834548306656,35.107816500229305,1.1231257242764014,2.7387579171061933,386.5562464348624,21.055404099191865,7.611150657453998,71.98957829621688,-0.0006756922725883,119.99929921696813,271.3310512024965,15.288,0.0,6.309912953120571,0.061879895479757,7.178092895728292e-09,-0.0014695879528615,-0.0005574173944746,8.503810356839222e-05,17.884246930663956,6.247602663933264,18.36578394014569,35.23238546756118
0.54,31.22220654051719,131.0104114365817,8.27545779757459,4.256998149899821,-17.15820088430129,30.852393437135543,1.1512944226993127,2.727453076778004,349.2703242098436,21.372416900394004,7.738517829322396,71.98871410506717,-0.0019593097751083,119.99794981843444,279.5579131549828,15.288,0.0,6.33404577061866,0.0628116998107315,7.39174620598533e-09,-0.0015589291973716,-0.0009391599400788,9.156439087486212e-05,17.662975310751282,6.2239048556658085,18.71731731452445,30.994106858136252
0.55,31.222206192265663,131.01041214504068,8.465899753131607,4.266529875903596,-16.939799403071635,32.691512897700854,1.1794602603099746,2.7160002125258504,365.2500005919907,21.682299837655016,7.863429702543304,71.98779777041105,-0.003922759923052,119.99588555290904,287.71815423556063,15.288,0.0,6.358096116938337,0.0637225560795016,7.434410531633683e-09,-0.0016519406937532,-0.0013300990033763,9.843248248013196e-05,17.453549098847805,6.200952877785542,19.05999903880231,32.825337762171344
0.56,31.222205837629687,131.0104128641686,8.659260272355628,4.27792593540908,-16.7357438073194,30.52336294647284,1.207360269388574,2.7044742485497606,346.2265619465787,21.98076506262452,7.984508407722266,71.98682713855735,-0.0065822640804081,119.99308935504172,295.6882855652358,15.288,0.0,6.382062310834525,0.0645998625680946,7.303048031813666e-09,-0.0017487197956686,-0.0017303741963642,0.0001056315391546,17.258682827831237,6.179491344703158,19.389143074303693,30.666717876930978
0.57,31.222205476674457,131.01041359379093,8.855486497008604,4.287117591112298,-16.530545546351465,30.184203834959973,1.236115328315792,2.692564769480553,343.1828296833023,22.286834211113263,8.107922281696402,71.98580001045748,-0.0099540255342871,119.98954417742884,303.97445760733933,15.288,0.0,6.405932700357126,0.0654995224262636,6.994680769834649e-09,-0.0018493218582918,-0.0021399523079367,0.0001132617531032,17.062394627232393,6.157081744523588,19.72609597538268,30.329260579400174
0.58,31.222205109365174,131.01041433393988,9.054595385734698,4.291450613566264,-16.314622677760187,39.69731927693019,1.266547775917622,2.680032054574806,426.1250058573153,22.613752823873885,8.23794620401709,71.98471412855132,-0.0140543836283669,119.98523282865366,312.9516933651132,15.288,0.0,6.429706293796538,0.0664604637525873,6.506340505361436e-09,-0.0019538489171296,-0.0025589854063489,0.000121416500207,16.854757031735527,6.131861480107023,20.08554792524753,39.80783682714703
0.59,31.22220473526312,131.0104150854793,9.256885042319857,4.300853115079517,-16.123603333215204,32.20892652946484,1.2958028156282346,2.6676836461907465,360.68438819711065,22.91367825016677,8.359111170386528,71.98356709992365,-0.0189007195378938,119.9801370210595,321.30183744087293,15.288,0.0,6.4534188170167885,0.0673420802777187,5.834830925015396e-09,-0.0020626160228768,-0.0029884426985229,0.000129872994012,16.672638247292404,6.110527570281488,20.41428439473778,32.345178762121684
0.6,31.222204354580505,131.01041584793035,9.462200083470377,4.302076690896361,-15.910004896376435,28.64211540198856,1.3278148317023708,2.654389412395383,329.4859594986058,23.251537584820245,8.492388823954572,71.98235646079341,-0.0245106305593104,119.97423823779532,330.84028072553207,15.288,0.0,6.477046886661841,0.068335189150523,4.976995053586308e-09,-0.0021756125418684,-0.0034280135766444,0.0001390049685752,16.46686925474804,6.083945896103641,20.784393214774735,28.795479681379778
0.61,31.222203967253847,131.0104166213831,9.670577287952696,4.301765087120326,-15.697573682239543,33.53838431546002,1.3606960016744956,2.6406797061397067,372.0984511843297,23.59551322180292,8.627493312232263,71.98107961945978,-0.0309021102681786,119.96751754682722,340.694554593257,15.288,0.0,6.500593675328384,0.0693462805899261,3.929619181810597e-09,-0.0022929714751685,-0.0038779429719889,0.0001486676522218,16.262025873493698,6.05661533127505,21.16047611619433,33.66968822859644
0.62,31.222203573391507,131.01041740557238,9.881933639385368,4.313172222726913,-15.53153471325452,41.66684054137661,1.3902314967767788,2.6277986077223416,442.86563930529206,23.87775787983352,8.742581463773616,71.97973401513103,-0.0380935667979029,119.95995557090296,348.8868576953301,15.288,0.0,6.52405833241221,0.0701759538086334,2.6894371645519277e-09,-0.0024147615686188,-0.004338230362273,0.000158433635637,16.105090242580758,6.03855853634483,21.467839553620635,41.772762295997175
0.63,31.2222031727888,131.01041820088287,10.096405079660268,4.320488952944915,-15.356695130073923,23.690016633349217,1.4213285162789286,2.614307106901842,286.11251274707894,24.1780631256462,8.863371189696728,71.97831697116648,-0.0461026957450539,119.9515336885485,357.7104207051263,15.288,0.0,6.547423936320351,0.0710587130881141,1.2534191869537264e-09,-0.0025411703839622,-0.0048093013852371,0.0001688207933946,15.938801730125672,6.018234011802463,21.794616829049325,23.876173573015166
0.64,31.22220276604859,131.01041900603104,10.313564545412106,4.321458303626628,-15.165775077257088,23.2599817519535,1.454831720797755,2.599937287167213,282.30782441796754,24.50919522180381,8.99395773412213,71.97682573984731,-0.0549473434180825,119.94223311732298,367.56793946973136,15.288,0.0,6.570699574799665,0.0720320783730984,-3.814411851460962e-10,-0.0026719608061872,-0.0052900412390897,0.000179937102499,15.755550897710448,5.993632424770582,22.154681000340428,23.45000981522719
0.65,31.22220235313979,131.0104198210446,10.53342741835686,4.331077300440118,-15.008661903577984,41.00434526892568,1.4857587328751125,2.586189085118745,436.7781447787475,24.79237543977204,9.10902120682195,71.9752576773878,-0.0646449331028307,119.93203551094189,376.1028569251856,15.288,0.0,6.593823092013435,0.0728645206081239,-2.2180253420541504e-09,-0.0028072646210617,-0.0057806921747401,0.0001912290694506,15.607273123834169,5.976648380350322,22.46168981345582,41.112676681646136
0.66,31.222201933521063,131.0104206470077,10.75636531103756,4.338154069835484,-14.84778350713014,34.89760387925609,1.517829655271136,2.5719435493546703,383.51251517160017,25.08621386832548,9.227397419012911,71.97360990625218,-0.0752130162806544,119.92092239734356,385.062561985788,15.288,0.0,6.616874574233664,0.0737282939730678,-4.259162362623265e-09,-0.0029474823974269,-0.0062824231285856,0.0002031559107765,15.454867280549612,5.95844177535276,22.779946049035143,35.025154632020644
0.67,31.22220150737524,131.01042148350516,10.982244292286888,4.3395984975469455,-14.673227689688344,24.06580780331124,1.5521977003791505,2.556832291576128,289.1562440103425,25.408073222889687,9.354651543452489,71.97187954024203,-0.0866703748281308,119.90887399740625,394.99818472277127,15.288,0.0,6.639851070473076,0.0746744277708678,-6.507943379719337e-09,-0.0030926105123096,-0.0067949641907056,0.0002158890732546,15.287970961654294,5.93636604809609,23.128319703778317,24.250975532836303
0.68,31.222201074867584,131.01042233015863,11.210942875975435,4.342187594099955,-14.506859081682368,30.019556169793947,1.5865249375064696,2.541567308679672,340.8999924858462,25.721590681229127,9.479118132343336,71.97006347119168,-0.0990356809267647,119.89587065583022,404.79742675834336,15.288,0.0,6.6626714069562185,0.0755960518674059,-8.967372202454483e-09,-0.0032426662124179,-0.0073181283919491,0.0002291523067705,15.129400796261177,5.916046270928099,23.467127557291725,30.168698652631555
0.69,31.222200636070493,131.01042318678338,11.442404718129769,4.349495640433596,-14.359796045012496,36.93888653862074,1.6194537659637764,2.526586062303936,401.0140726853634,26.00646998131345,9.594297422593767,71.96815867969626,-0.112327331302272,119.88189299695368,413.804546432024,15.288,0.0,6.685402756206182,0.0764335150082119,-1.1640346394748325e-08,-0.0033977042350968,-0.0078518610964497,0.0002427624375354,14.99079494123127,5.900456262056546,23.77437836549671,37.06059371277556
0.7,31.222200190830623,131.0104240536642,11.676731531386563,4.356097295750875,-14.21442814708633,30.997804702528327,1.652934167638698,2.511277563919515,349.27032420985284,26.29248120822632,9.709736143003616,71.96616206261359,-0.1265634771694029,119.86692190387468,422.94687098768014,15.288,0.0,6.708050744288211,0.0772743117843276,-1.4529628823467576e-08,-0.0035579228582525,-0.0083965867285422,0.0002569998314976,14.853770342505848,5.885092269781393,24.08251768537852,31.143259346794135
0.71,31.2221997391934,131.01042493067402,11.913886269166724,4.358927578123085,-14.061030807211708,25.4910058575686,1.6881606831764528,2.495246990664795,301.33126406340574,26.59726041255304,9.831083664050196,71.96407040570598,-0.1417626993931493,119.8509378053014,432.7993425778438,15.288,0.0,6.730543169025436,0.0781702752383745,-1.763804725695602e-08,-0.0037233930779869,-0.0089522952932335,0.0002720637255151,14.708151152233436,5.867385237570211,24.41066265821082,25.668414903675707
0.72,31.22219928115009,131.01042581779802,12.153869740266352,4.3573250730190205,-13.897922828045356,31.18938086604905,1.7255084133430747,2.478363258561026,350.79220534145287,26.925408161586905,9.959796078887932,71.96188039221182,-0.1579439449550593,119.8339207421512,443.53445625477616,15.288,0.0,6.752944684688728,0.0791349271638809,-2.0968456059141765e-08,-0.0038942379488286,-0.0095191485047303,0.0002880511542717,14.552132528852798,5.846526430186522,24.763672507452306,31.335238032179834
0.73,31.222198816686287,131.01042671503237,12.396686601790645,4.364792881774643,-13.766268108441553,39.43078036663744,1.7596216744739932,2.4623727803300985,422.320318528234,27.19847290080393,10.070787411586569,71.95958856638295,-0.1751268257174911,119.81585005330368,452.5657539673232,15.288,0.0,6.775261965600253,0.0799376951067647,-2.4523803735159792e-08,-0.0040705981609923,-0.0100973626887803,0.0003041427480915,14.42890830579409,5.8344312387125,25.056817799775818,39.546756990537034
0.74,31.222198345725506,131.01042762250563,12.642385695856804,4.368753698976944,-13.627292032795037,24.72092051616305,1.795443155508053,2.4456605785137646,294.48281347105944,27.489269147732,10.187348816906718,71.95719143018515,-0.1933302074557,119.79670586216884,462.2839188624495,15.288,0.0,6.7974581251319375,0.0807925840214387,-2.8306802846918723e-08,-0.0042526130677991,-0.0106871358818987,0.0003211319592214,14.297821726244992,5.820090453171354,25.368823551388196,24.906400441581443
0.75,31.22219786863604,131.01042853942212,12.89070475374746,4.370323368130908,-13.484456654506149,28.84596896257945,1.832602360265804,2.4283365355309203,330.24688556441487,27.791812470182425,10.307566447607432,71.95468548212163,-0.212573098104365,119.77646813366052,472.5043207402396,15.288,0.0,6.819516788007421,0.0816820055344404,-3.2320249776369823e-08,-0.0044401237951032,-0.0112877213341154,0.0003389737432278,14.162493299478305,5.804417158230194,25.693178355734517,29.005950684829195
0.76,31.22219738529149,131.01042946601547,13.141727874332044,4.374836577338482,-13.35358781967805,31.04443442859061,1.86886450717172,2.411147436285887,349.27032420986166,28.074155795142183,10.421235455491928,71.95206715760864,-0.2328743163921894,119.7551170293576,482.1420222305933,15.288,0.0,6.8414755054880265,0.0825120652317171,-3.6566735066310746e-08,-0.0046333464020523,-0.01189956713081,0.0003573099554246,14.039571509791331,5.792197283408821,25.995517280494955,31.19396088182352
0.77,31.22219689562176,131.01043040240356,13.395500057317484,4.379770089238586,-13.22696404727934,29.034600018600912,1.9052618928726528,2.393750955487149,331.7687666960708,28.35114019637148,10.53309873788277,71.9493326848246,-0.254252838074882,119.73263254917826,491.6907623718472,15.288,0.0,6.863336595767753,0.0833263818893025,-4.104883288121519e-08,-0.004832446884558,-0.0125229502989634,0.0003763315901351,13.920950019609965,5.781168557976799,26.291858997095424,29.19534320328275
0.78,31.222196399685423,131.01043134843715,13.651976418217767,4.381384214342765,-13.093586006326984,23.8656204342222,1.9434414941195983,2.3755792486815475,286.8734378128899,28.645786843765787,10.650503358419364,71.94647830921176,-0.276727697329324,119.70899462132506,501.9515563567712,15.288,0.0,6.8850623121541,0.0841926167525469,-4.57691316029947e-08,-0.0050374792164578,-0.0131577961222779,0.0003963659903374,13.795037124836773,5.76790087477327,26.606906377968556,24.062173225172256
0.79,31.22219589756576,131.0104323039155,13.91109478931914,4.380959838721032,-12.957285463199076,33.87400001915568,1.9829194330426296,2.3567867729896816,373.6203323159534,28.950723256837456,10.771092931672374,71.94350011099111,-0.3003181174838407,119.68418297503976,512.6822977045321,15.288,0.0,6.9066598189665775,0.0850891018264584,-5.0730215816461216e-08,-0.0052484934699142,-0.0138040217397527,0.0004173550109128,13.66585592951045,5.753499684266603,26.932701947299982,34.01373679366964
0.8,31.222195389021003,131.01043326931648,14.173020994040796,4.385845341292952,-12.838948580535783,34.32044998537042,2.0203315647143407,2.338538286747556,377.42502064505743,29.21976639854612,10.88014415908738,71.940394142931,-0.3250438687153209,119.65817675332892,522.2422950606896,15.288,0.0,6.928166921539485,0.0858801006025791,-5.5934606045023326e-08,-0.0054658312264101,-0.0144624180481229,0.0004386656075369,13.555481348917407,5.744849583664685,27.219864389371786,34.45930626330539
0.81,31.22219487415027,131.0104342444081,14.43768222907126,4.386739934394992,-12.71199081903811,22.38743199259171,2.059930632072976,2.3193584444535102,273.9374926939919,29.511283180831818,10.996262261238693,71.93715620637715,-0.350924502522627,119.63095533617604,532.7012438262145,15.288,0.0,6.949572539782393,0.0867371594226133,-6.138486810199603e-08,-0.0056895026869911,-0.015132768064025,0.0004611603828303,13.435820917631728,5.733187411748309,27.530829952564723,22.601324054703724
0.82,31.22219435314298,131.01043522876952,14.704942290471456,4.385789966729596,-12.582558222143748,28.715042603041308,2.100806624725737,2.299551843844169,328.72500443277005,29.8122087650964,11.11528290270408,71.93378218471173,-0.3779795675529941,119.60249809121449,543.606554724713,15.288,0.0,6.970866991047307,0.0876218795979294,-6.708357202718539e-08,-0.0059194641833799,-0.0158147056411044,0.000484679883597,13.3133612180696,5.720488264218058,27.85159344950882,28.88347276300923
0.83,31.222193825973086,131.0104362224309,14.974816385101049,4.391371880319007,-12.473648050656813,36.45156162313856,2.138854180499277,2.2805677101959536,395.68750322465047,30.06820214629517,11.219910278403324,71.93026777869339,-0.4062286983124718,119.57278429623912,552.9680565058981,15.288,0.0,6.992023013996548,0.0883745458486977,-7.30331318373827e-08,-0.0061558799927065,-0.0165084787431114,0.0005083523016978,13.212505195916387,5.714863390654318,28.124287062032376,36.5854073511789
0.84,31.22219329252181,131.0104372256204,15.247385675365225,4.3952436770797,-12.36229307377192,22.57510687578879,2.1780236315320174,2.2610147014742044,275.4593748256452,30.33223083433857,11.327007912948744,71.92660860003545,-0.4356909952891797,119.54179378935504,562.7071815509432,15.288,0.0,7.013067998422836,0.0891508363291909,-7.923576152622479e-08,-0.006398954487178,-0.0172144366155392,0.0005330515291529,13.108914122429209,5.708372228473135,28.40539812819072,22.79235452675043
0.85,31.22219275309213,131.01043823768148,15.522434717146156,4.393168757565608,-12.23709927992922,24.6006519431402,2.2205470327079704,2.240078293805479,292.96093233939376,30.632751847536674,11.44562944257198,71.92280033624498,-0.4663854623479785,119.509506494615,573.8974655513887,15.288,0.0,7.033993818371869,0.0900343906832168,-8.56938803339687e-08,-0.006648510141018,-0.017931834491885,0.0005593127201977,12.990460421420014,5.6968137013127125,28.725133147082413,24.802033302017282
0.86,31.22219220749359,131.01043925899288,15.800095209264484,4.39496200514404,-12.124668664658438,30.759636444281377,2.2614689622842152,2.2195364118568364,346.2265619465587,30.905000294061708,11.555167575762356,71.91883835631685,-0.4983317360837996,119.47590167459624,584.1282422979054,15.288,0.0,7.05481484361354,0.0908348554987627,-9.24096306684036e-08,-0.006904881812851,-0.0186613938981045,0.0005860271930942,12.885417293382783,5.689748954961178,29.014644546851063,30.922416107660414
0.87,31.22219165574492,131.01044028949607,16.080352064778207,4.398419651588704,-12.018799514975363,28.654568146334128,2.301837516474265,2.1990178399045126,327.964078366998,31.163109410250083,11.660123609986217,71.91471795888447,-0.5315492114762209,119.4409588398045,593.9099213569991,15.288,0.0,7.075529994679741,0.0915937700769125,-9.938521408974589e-08,-0.0071681720531602,-0.0194031632894593,0.0006134374467048,12.787217529053988,5.685058276336523,29.2890158033526,28.83085865986952
0.88,31.222191097877445,131.01044132910744,16.363181627219696,4.398756973800042,-11.90673022981336,24.7888164068754,2.3441941753888305,2.1775898132821374,294.4828134710418,31.43940584527872,11.770776024033191,71.91043445846985,-0.5660571237817269,119.40465765641288,604.4715634030888,15.288,0.0,7.096134288368366,0.0924061479835666,-1.0662279886887525e-07,-0.0074384441200417,-0.0201570800426859,0.000642193220492,12.682264770633584,5.677998260688348,29.58253372740257,24.99445063570336
0.89,31.22219053397073,131.0104423776417,16.648526284187774,4.396039327027623,-11.7887611461925,27.16869601011133,2.388593111518328,2.1552168890318804,315.028134248087,31.73401246101275,11.887160990509075,71.90598297375307,-0.6018747754108433,119.3669777185662,615.8363068298041,15.288,0.0,7.116620573518447,0.0932723508553145,-1.1412452309311309e-07,-0.0077157562921463,-0.0209230701182414,0.0006723584539048,12.57085785629492,5.668581501101955,29.89527611745415,27.35851567210839
0.9,31.22218996393984,131.01044343526078,16.936444546171938,4.400006571847925,-11.69012964965572,29.98981521588125,2.429643468831882,2.133897278835092,339.37814235421445,31.979621750940424,11.987894260299276,71.90135846717982,-0.6390219902025024,119.32789806421408,625.3885849051368,15.288,0.0,7.136980806988957,0.0939945490306262,-1.2189242481006686e-07,-0.0080003435914456,-0.021701540379194,0.0007025339770154,12.479971581932576,5.666592430154591,30.15605433721369,30.163648679577207
0.91,31.22218938785385,131.01044450180464,17.226886872193045,4.400895130061794,-11.585385165559051,22.86296976745119,2.472721132593441,2.111635984900375,277.7421810230789,32.243523228096386,12.094356197259648,71.89655590253226,-0.6775176583621981,119.28739870645651,635.7350730984803,15.288,0.0,7.157232176859196,0.0947705191952232,-1.2992849430418948e-07,-0.0082922391048568,-0.0224923383655232,0.000734154667541,12.382416687542989,5.662212735495204,30.436070800504456,23.09304533663084
0.92,31.222188805918496,131.01044557682283,17.519706913883653,4.398792717406722,-11.474872882073802,27.18142822806861,2.5178661373634923,2.0884020304664626,315.02813424806214,32.52566967415175,12.206532071903636,71.89157012160071,-0.717380713940862,119.245459604958,646.8915390354209,15.288,0.0,7.177365090189072,0.0956001230011462,-1.3823483890498288e-07,-0.0085913253236501,-0.0232949185503988,0.0007672686527589,12.278541843532588,5.6554748624259625,30.73522615891752,27.377565878729676
0.93,31.22218821803472,131.01044666051212,17.81497425052137,4.402800309742569,-11.381609334146916,32.29491359403326,2.5597638956008697,2.066205960842715,359.1625070654728,32.761510404259475,12.303924794307612,71.88639584642392,-0.7586300917673143,119.20206071141536,656.2880443341949,15.288,0.0,7.197389872840075,0.0962936317785755,-1.4681312356028294e-07,-0.0088978783917588,-0.0241097851647451,0.0008003853108979,12.193028046111555,5.655642454579584,30.98542623886179,32.46202461831237
0.94,31.22218762408482,131.01044775311323,18.112772598826748,4.400778311600937,-11.274893950937152,23.488125124914465,2.605549658524695,2.042335807963167,283.0687504837787,33.03729017818303,12.413915440943867,71.88102774353936,-0.8012842093424772,119.1571825140399,667.3644610587147,15.288,0.0,7.2173062628880915,0.0971045383994787,-1.556649488986075e-07,-0.0092121116408189,-0.024937258784112,0.0008356028585259,12.092946331393495,5.650331028381894,31.277642249161147,23.720287655489443
0.95,31.22218702436548,131.01044885398196,18.412891103876408,4.399323909191833,-11.17133424026526,30.366060942980177,2.65135452403232,2.018255066687203,342.4218736174873,33.3062308807222,12.521657552740727,71.8754602703204,-0.845362120557341,119.11080482285476,678.2545223200235,15.288,0.0,7.2371062472434975,0.097895351291386,-1.6479241279231178e-07,-0.009533836653746,-0.0257766171596147,0.0008718002383656,11.996115469711604,5.646251223652805,31.56253899009413,30.54833369464039
0.96,31.222186418569084,131.01044996376575,18.715548803590465,4.400815649311896,-11.076688854176522,29.753289040062203,2.695671758765388,1.9945499195085847,337.09533515678345,33.55062618845231,12.621529069966895,71.86968775629386,-0.8908825558222253,119.06290778290548,688.2248628225288,15.288,0.0,7.256805312217539,0.098614027060844,-1.741967361829803e-07,-0.0098635624244712,-0.0266289391973471,0.0009085432202956,11.908746266335196,5.645889581192705,31.821521838483083,29.941661348594245
0.97,31.22218580671353,131.01045108241885,19.02073370658324,4.400507696756361,-10.97918697526051,19.08622134995408,2.741420104108479,1.9700905795235943,245.02188719299323,33.804959988164335,12.724474278820797,71.86370447480488,-0.937864559341786,119.01347119235818,698.6782442390988,15.288,0.0,7.276401513423012,0.0993619224892219,-1.838796289780091e-07,-0.0102013963803159,-0.0274942525825304,0.0009467569096951,11.818177644161311,5.64433925271024,32.09088837899653,19.382478853288625
0.98,31.22218518909394,131.0104522093008,19.328236252606484,4.394469471374204,-10.869391174190111,27.73249111726836,2.791205126798024,1.9438412095986457,319.5937466429581,34.09892653495689,12.839917139940177,71.85750448954869,-0.9863268384556688,118.96247520148108,710.8614379852612,15.288,0.0,7.295881598863636,0.1002263174572376,-1.938431438622432e-07,-0.0105470740320436,-0.0283716500904842,0.0009873208530152,11.714209975688156,5.637443210150488,32.401789070863856,27.94030079074608
0.99,31.222184565554382,131.01045334473818,19.638168344917105,4.397554214016998,-10.783111330940237,30.29471459436036,2.835368230878512,1.9195928109669027,341.6609485517054,34.32174942437291,12.932714775349623,71.85108171548892,-1.0362884326917163,118.9098995994003,720.1607469272934,15.288,0.0,7.315260330622362,0.1008816092842963,-2.0408850758052018e-07,-0.0109009927024791,-0.0292618985667496,0.0010270891595389,11.635506990294129,5.640759852298535,32.63792354270984,30.487602101810854
1.0,31.22218393609249,131.01045448873415,19.950533581299567,4.395060791898441,-10.684901666549766,27.121154132804968,2.8835065620165383,1.8935672529366816,314.2672081822764,34.58317309924476,13.037680169091114,71.84443010547791,-1.0877670586558597,118.85572555713487,731.151307384583,15.288,0.0,7.334531849660066,0.1016503678250008,-2.1461711301523162e-07,-0.0112632237939773,-0.0301649298431448,0.0010692695579377,11.543792656641422,5.638874921011795,32.91450402323864,27.33966365063679
1.01,31.222183300891608,131.01045564088827,20.265202235036497,4.393282639582024,-10.58983139525134,28.36003103089184,2.931483605091316,1.867390506258625,324.9203161036979,34.83611110707996,13.13988138504298,71.83754336615443,-1.1407811424676213,118.7999334883786,741.8631383808781,15.288,0.0,7.353693428016961,0.1023941924270481,-2.254306154506108e-07,-0.0116336880675359,-0.0310803124759044,0.0011124835737283,11.455352141366454,5.638386307867387,33.1821190012917,28.572226085885085
1.02,31.222182659872463,131.0104568013699,20.582233039781887,4.39272057010449,-10.49898738989632,23.68259595287266,2.9789161123068064,1.841217801135392,284.59063161540416,35.07647732785126,13.238022438847528,71.83041515011674,-1.1953484163987058,118.7425045264222,752.1131413135523,15.288,0.0,7.3727497451431665,0.1031010725274438,-2.365300829724293e-07,-0.0120126263349914,-0.0320083992226631,0.0011566107925778,11.371375909419966,5.639843138764666,33.43651399561971,23.940120619211577
1.03,31.222182013104543,131.0104579700287,20.90157860819812,4.388292390603843,-10.400491388973665,19.355822283127463,3.029360966350709,1.81361222542138,247.30469339049705,35.343492806831925,13.344542100867816,71.82303901663124,-1.251486185475429,118.68342024277028,763.5840459013389,15.288,0.0,7.39169734997287,0.1038862914397918,-2.479167852899428e-07,-0.0124000587613693,-0.0329489988028951,0.001202965547668,11.278974786148652,5.637813821029059,33.71874458050931,19.6752146983117
1.04,31.222181360649607,131.0104591467289,21.22319669967156,4.387198169199371,-10.311044547499291,30.75432534513237,3.0777607915121994,1.786610861002154,345.46563688072297,35.581428547624085,13.441770959918852,71.81540828985739,-1.3092122823520824,118.62266164186812,773.875786450139,15.288,0.0,7.410538937267435,0.1045860433551931,-2.595919410188307e-07,-0.0127960690791358,-0.0339020787126908,0.0012497021606274,11.196286531234296,5.639994477943279,33.970501725440855,30.959540004539342
1.05,31.222180702220264,131.0104603321003,21.54729723930877,4.382948637511084,-10.215658396798496,18.560981305353067,3.1287410446078896,1.7583346139587124,240.45625879819983,35.84074434325114,13.545703394146107,71.80751622069897,-1.368543921851393,118.5602103666109,785.1723892321044,15.288,0.0,7.429284855307536,0.105348646857016,-2.7155597160192165e-07,-0.0132012071244317,-0.0348687027972013,0.0012986248541853,11.107017623254904,5.639429837911708,34.244560997427975,18.904782150464616
1.06,31.222180038056205,131.0104615256217,21.87371044699574,4.375997355591568,-10.115473796521483,26.42881002331476,3.1821009851014823,1.728846185788597,308.17968365593924,36.11848889115953,13.655408291562404,71.79935577861906,-1.4294990806504615,118.49604724462962,797.3637843676257,15.288,0.0,7.447927156564261,0.1061654275397034,-2.838105302077472e-07,-0.0136152569087789,-0.0358481119570841,0.0013496925217953,11.012389114287451,5.636557553551671,34.537795462499254,26.67576943711207
1.07,31.22217936804104,131.01046272754957,22.20252315309973,4.374697347260926,-10.029333321942364,31.11729467680583,3.231548414863622,1.7007345652304584,348.5093681440308,36.347878123723696,13.749710714957637,71.7909197242001,-1.4920959549723396,118.4301528594772,807.4985891348949,15.288,0.0,7.4664765257846755,0.1068400826814458,-2.9635633060506614e-07,-0.0140386036451603,-0.0368409654409215,0.0014004534846581,10.932957544171492,5.64046947081257,34.78050706311945,31.33083834215334
1.08,31.222178692075712,131.0104639381092,22.533810995782915,4.371982815665876,-9.94118342536628,20.948303621644868,3.282340413841052,1.671837037764686,261.00157857466235,36.584991662169855,13.84638881673192,71.78220077555666,-1.5563518273799894,118.3625087425954,818.042273629318,15.288,0.0,7.484934128116652,0.1075374505588457,-3.0919410465973045e-07,-0.0144715144045851,-0.0378476239756462,0.0014530107746106,10.85122544183347,5.643508506094746,35.03125741152071,21.26970197952467
1.09,31.22217801043785,131.01046515669634,22.86737691827719,4.362833980982278,-9.839965615507785,19.267017380938057,3.338477388407901,1.6404674839757007,246.54375332474407,36.87117806430248,13.958558062267471,71.77319148494077,-1.622283862760414,118.29309653453488,830.8639949088578,15.288,0.0,7.503289093859456,0.1083790711170567,-3.223254935255225e-07,-0.0149136654773397,-0.0388670874440014,0.0015090700146833,10.755076308403478,5.64011144803026,35.33310676684012,19.6228062110459
1.1,31.222177323204846,131.01046638314537,23.20316842060836,4.356739082887631,-9.746756073019746,38.648020324540354,3.3925949081970748,1.609687999467902,413.1890617385841,37.12946815196949,14.061818717975708,71.76388423719031,-1.689909085187634,118.22189800942596,842.5183349175953,15.288,0.0,7.521544993236277,0.1091387020711409,-3.3575136147903216e-07,-0.0153651331973859,-0.0398992898491237,0.001565593568823,10.66756344380152,5.640687710281624,35.60582481464905,38.83001764965913
1.11,31.22217662997897,131.0104676183471,23.54147896740256,4.356942828163413,-9.66843615007219,28.29492404164004,3.441879071961376,1.5807039999544774,324.1593910376397,37.331959672998366,14.147315935060451,71.75427121280977,-1.7592445821118503,118.14889485973478,851.7053342946641,15.288,0.0,7.539719177750348,0.109734326458815,-3.494712689373667e-07,-0.0158267703673013,-0.0409459081244581,0.0016213730396138,10.596273638385869,5.648924949935993,35.82044264197755,28.547292046771396
1.12,31.22217593082732,131.0104688621693,23.882265636570736,4.344871999882182,-9.564589733489049,10.675438006711428,3.5015667168058826,1.5470622643583745,172.73281794065943,37.63314027499349,14.264032985233928,71.74434453967085,-1.8303065148277808,118.07406973650215,865.4749325735945,15.288,0.0,7.557803739773504,0.1106200482992955,-3.6348617841997803e-07,-0.0162985566099122,-0.0420066179073773,0.0016831206424478,10.496834766595892,5.644158270082056,36.13770617921245,11.341047030904301
1.13,31.22217522633701,131.0104701133079,24.22510383213648,4.339201977250472,-9.47574072131994,33.34606542819623,3.55629286012589,1.515262843679247,367.5328077900705,37.87769719351464,14.362740394602705,71.73409586861656,-1.9031127324682569,117.99740349620194,876.731092715971,15.288,0.0,7.57578672486888,0.1113393374370815,-3.7779851086337465e-07,-0.0167796830502893,-0.0430793703443247,0.0017440087559525,10.413754977154433,5.647148733833687,36.396027251771706,33.569380690354734
1.14,31.222174515858,131.01047137323337,24.570474462741448,4.337977024054892,-9.39741688537544,18.464991949015584,3.6074579485314255,1.4847377524131282,239.69531773195544,38.08059911020385,14.448167784368744,71.72351707814991,-1.9776783650839187,117.91887984264874,886.1197376811342,15.288,0.0,7.593691867307354,0.1119361923578535,-3.924064694501213e-07,-0.0172714812754908,-0.0441668519009078,0.001804680354938,10.342165078006282,5.655838201363748,36.61106575781088,18.872576048888337
1.15,31.222173799875623,131.0104726408765,24.91802868616708,4.324310964246122,-9.293751149775776,18.19696704445593,3.669708745015547,1.4491747044187595,237.41251153546767,38.386415177797765,14.56617300985524,71.71259990182583,-2.054018139977108,117.83848288485758,900.379252703555,15.288,0.0,7.611497535011483,0.1128355673670289,-4.07312159099169e-07,-0.0177731277584126,-0.0452669823367883,0.0018719483099358,10.242515475394248,5.651117904817727,36.93294946161724,18.619787303140335
1.16,31.22217307852776,131.01047391593525,25.267669742287,4.323847723243548,-9.21895819172911,47.623483628371474,3.720614909691248,1.4182466275914054,490.0437743845894,38.57505719259622,14.646962073659424,71.70133559497032,-2.132148342733834,117.75619507274676,909.2199112523696,15.288,0.0,7.6292112669146945,0.1133905215926391,-4.225160880578013e-07,-0.0182846515696466,-0.0463795869978736,0.0019352234367352,10.174633686980476,5.662025899309355,37.133186943905145,47.7896494201899
1.17,31.22217235096805,131.01047520034905,25.620027807084305,4.316739215823428,-9.131203721330367,8.440710966292093,3.7776509306342096,1.3843956556523664,153.70937929486794,38.81706087704466,14.744600649333128,71.68971561709557,-2.212082694170375,117.67200153958936,920.632661770218,15.288,0.0,7.6468563115974835,0.1141023397566361,-4.3801540879993613e-07,-0.0188077973110911,-0.0475081494324866,0.0020030128362397,10.092325306282726,5.666100197437658,37.38879870483765,9.35055075926516
1.18,31.22217161832664,131.01047649157545,25.974276909447696,4.300836170269656,-9.026262646673327,23.156860392286493,3.8431132511834334,1.3465626935540072,280.02501822196746,39.13332402334616,14.865754009081096,71.67773103224674,-2.2938359012013554,117.58588635815607,935.6636988763256,15.288,0.0,7.6643722412051005,0.1150324518088396,-4.538146282359621e-07,-0.0193404253177612,-0.0486478143909551,0.0020764483307339,9.990859604543154,5.660709287479681,37.72133944875665,23.512186920338568
1.19,31.22217088010237,131.01047779076762,26.33079230707302,4.303647693435224,-8.96082522398147,40.45379800861655,3.8914046688918087,1.315994281657424,428.4078130529292,39.280283487870506,14.933135051978043,71.66537261614427,-2.3774229531534123,117.49783328521497,942.6721061443576,15.288,0.0,7.681805825369127,0.1154649038923958,-4.699112975170876e-07,-0.0198839099409466,-0.049801264072712,0.0021427420735074,9.933099201873762,5.677583493820936,37.878451430022885,40.66183277433983
1.2,31.222170135873217,131.0104790989264,26.68989619324968,4.2910039249613705,-8.864661131636785,4.166268283512462,3.954458530271004,1.2786345322471182,117.1843741360236,39.56046631643871,15.0427205709913,71.65263145515465,-2.4628556646074897,117.40782940092043,956.1350802635654,15.288,0.0,7.6991639108728,0.1162889762407333,-4.863038978894328e-07,-0.020439124205236,-0.0509700365824945,0.0022182076567606,9.841124110743626,5.677317864601126,38.1735572857194,5.884763372038828
1.21,31.222169386762165,131.01048041349475,27.050761938907566,4.278944008322809,-8.770721348759606,32.47199525320169,4.017325199707449,1.2410474130553604,359.92343213200894,39.832586320917535,15.149713052438424,71.63949793337059,-2.550148453291028,117.31585901967053,969.3004298070496,15.288,0.0,7.716417504899699,0.1170893566302598,-5.029969226503067e-07,-0.0210038856817532,-0.0521493082355921,0.0022950999950971,9.751493441153269,5.678330932437954,38.460258915104085,32.74308440213917
1.22,31.22216863192798,131.01048173643335,27.414022410239795,4.279747254811908,-8.703538095893743,23.506356171678007,4.067711422445926,1.2087460240769607,283.0687504825761,39.98375666703296,15.2182510207169,71.6259625845447,-2.63931344785605,117.22190884752357,976.6375766877244,15.288,0.0,7.733601628101021,0.1175342092878067,-5.19985831254093e-07,-0.0215803162957702,-0.0533432270379289,0.002366953394718,9.69157668478427,5.695153990270391,38.62185991927025,23.8863166611515
