Time,Latitude,Longitude,Altitude,Angle of Attack,Angle of Sideslip,X-Acceleration,Y-Acceleration,Z-Acceleration,Thrust,True Velocity,Ground Velocity,Pitch,Roll,Yaw,Dynamic Pressure,cp,cg,parachute_deploy_gain,Wind Speed,Wind Direction,Mach,omega_x,omega_y,omega_z,Cmq,Angle of Attack(total),Angle of Attack(gust),True Velocity(gust),Acceleration
0.0,31.222216000000007,131.010392,3.000000004412624,0.0,0.0,0.0,0.0,0.0,2.2828121974499247,0.0,0.0,69.99999999623412,0.0,119.9999999935444,0.0,1.274,1.0271675151847728,0,0.0,0.0,0.0,0.0,0.0,0.0,-0.0,0.0,90.0,0.0,0.0
0.01,31.22221599999084,131.01039200000497,3.000002745347096,0.0,0.0,0.0,0.0,0.0,34.242186961749226,3.465174813755316e-14,2.8705476994166025e-14,69.9999999962611,-2.1713911667908447e-11,119.99999999352175,7.352495975525499e-28,1.274,1.0271659134330349,0,0.0,0.0,1.0183245502395064e-16,-3.3305335486039093e-18,7.169286865560398e-18,5.624298769768554e-18,-7.715917190115602e-34,0.0,89.99999999999979,3.465174813755316e-14,0.0
0.02,31.222215999994315,131.0103920000094,3.0000030495639742,0.0,0.0,0.0,0.0,0.0,25.871876237766216,3.8197434737535036e-11,2.4171837235633357e-11,69.99999999628672,-1.1921727947863515e-11,119.99999999353136,8.93414285188691e-22,1.274,1.027164492361118,0,0.0,0.0,1.1225230367947217e-13,-6.657678965418802e-18,1.4338573731120796e-17,1.1241821275959074e-17,-1.7010872994127372e-30,0.0,89.99999999975682,3.8197434737535036e-11,0.0
0.03,31.222215999994315,131.0103920000094,3.0000030495639742,0.0,0.0,9.81877837424427,-2.5122800045972096e-05,3.3498614629347925,180.34219359854663,1.2659015405517447e-10,1.1364406173918436e-10,69.99999999631459,-1.6431898037347223e-11,119.99999999352724,9.812605835254651e-21,1.274,1.0271551940870716,0,0.0,0.0,3.720154642239108e-13,-9.991600645811728e-18,2.150108433310316e-17,1.6859343782149594e-17,-8.453698244545225e-30,0.0,89.99999999919412,1.2659015405517447e-10,10.374487003414373
0.04,31.222215999994315,131.0103920000094,3.0000030495639742,18.83801224594347,-0.0001111777826462,48.68248476615645,-1.016330065874988e-05,3.3497854396877287,548.635972453808,0.1556173050466994,0.0975908358443652,69.99999999633813,-2.0932768807056278e-11,119.99999999352085,0.0148286043323172,1.274,1.027133720825283,0,0.0,0.0,0.0004573186944143,-1.3322134194415637e-17,-1.04744143520903e-11,1.336824254131964e-11,5.0626055458604615e-15,18.83801224625964,89.06236267790787,0.1555998412814392,48.79759610369246
0.05,31.22221599164764,131.01039201704114,3.002326315126219,5.772385609593056,-4.395076213712875e-06,71.20344550265034,4.905512691849684e-05,3.349217396035405,761.6984298824663,0.8326471944351852,0.3620326097059287,70.00000001316391,-1.0866255162484559e-10,120.00000000231074,0.4245281043148827,1.274,1.027093426565204,0,0.0,0.0,0.0024469331205246,-5.0245994431125096e-18,-7.32924164976824e-07,2.217344936947165e-11,1.895424184525467e-09,5.772385609594774,84.74112356985832,0.8326465040582279,71.28217104309611
0.06,31.22221596664444,131.01039206837547,3.015081730143309,4.056581213689704,3.169093567502233e-05,53.16249142470188,0.0001203825427859,3.3481235983850643,590.4875390737236,1.657216205300742,0.6755452977614796,69.99999964391398,-3.9285905645317736e-10,120.0000000287861,1.6816755551786196,1.274,1.027050317124926,0,0.0,0.0,0.0048701272653724,3.095757869075056e-13,-7.483541766772344e-06,3.074135420506017e-11,3.8518749565858254e-08,4.056581213813337,79.59316473687034,1.657221183301277,53.26781792157489
0.07,31.22221592883117,131.0103921460222,3.034593611434361,4.115662018628709,6.450869598349036e-05,81.18203554989698,0.0001593212642178,3.347059402768047,855.2937749779172,2.099899704220947,0.8579771146174259,69.99999543281565,-8.233801910783518e-10,120.00000006883089,2.700101932075157,1.274,1.027003201295312,0,0.0,0.0,0.006171060252819,3.4704292086287e-12,-2.6327204536316785e-05,1.9541142932033486e-10,1.7170712165327165e-07,4.115662019133419,76.90111966094352,2.099909837223217,81.2510043180746
0.08,31.22221588914193,131.01039222747755,3.0542761843835606,3.459696193892355,8.037433511260004e-05,16.298214211652088,0.0002413456836072,3.344878926597744,241.2171988638792,3.051964775152957,1.2149999716613011,69.99998042886442,-1.0128995578004475e-09,120.00000011111383,5.703497661025892,1.274,1.0269597189470347,0,0.0,0.0,0.0089689344021769,1.458982438104473e-11,-5.702803872814215e-05,7.043261397829576e-10,5.405702492731987e-07,3.459696194824858,71.30331929508368,3.051977400323993,16.63790856991177
0.09,31.2222158241468,131.01039236098703,3.0886872184095737,4.313676956300389,0.0001337561018991,50.35975918308536,0.0002293282821279,3.344215841840564,563.0937377043203,2.893161298572128,1.191209213966114,69.99994788602814,-7.098432023887522e-10,120.00000018106356,5.125380275808925,1.274,1.026918932011013,0,0.0,0.0,0.0085022553945842,3.8672912027154325e-11,-0.0001115933708951,2.016054215232918e-09,1.0027525988343615e-06,4.313676958370176,72.2316578138625,2.893182308931483,50.47067588835877
0.1,31.2222157788302,131.01039245392113,3.109877853389092,4.035124630954496,0.0001457499816535,47.804664812504015,0.0002878217657545,3.341734392237128,538.7437595981891,3.5677148583138303,1.4531247507621967,69.99988403958329,1.9248461973355822e-09,120.0000002323013,7.7939962029572305,1.274,1.0268846934974103,0,0.0,0.0,0.0104845969583028,8.579678749070606e-11,-0.0001726817043215,3.984565639703107e-09,1.913455350430327e-06,4.0351246335824245,68.43243098813296,3.567737752667411,47.92132267234452
0.11,31.222215703308,131.01039260899836,3.148841432727305,4.043401107254707,0.0001752764476999,37.67622367577205,0.0003286462930162,3.3392563999062723,442.86563930529127,4.034183355956686,1.6436552022667772,69.99978525353545,7.302513231814865e-09,120.00000031883242,9.96528118825134,1.274,1.026848594915519,0,0.0,0.0,0.0118554331868328,1.5870341853361987e-10,-0.0002596204409236,7.232030302688121e-09,3.252930323390323e-06,4.04340111104746,65.92012987243639,4.034210888316708,37.82391391539392
0.12,31.222215627491828,131.01039276462643,3.186995101203875,4.17874459224363,0.0002066711490009,41.15991989399172,0.0003576945202315,3.336766085769504,475.58594813540793,4.361857560629481,1.7865750500940407,69.99963665601238,1.781774420198147e-08,120.00000041104812,11.649831899889556,1.274,1.0268114448194128,0,0.0,0.0,0.0128183893919737,2.682972478760441e-10,-0.0003710216542429,1.2215991071490164e-08,5.026311388647148e-06,4.178744597345269,64.21681651392016,4.361890024457652,41.29495143136631
0.13,31.22221554594398,131.01039293200228,3.2277173449026786,4.202734874672792,0.0002327160860324,45.44886120763352,0.0003953741266062,3.333578629398489,515.9156326236897,4.792165672014363,1.9646716520715424,69.99942424225341,3.613383418913551e-08,120.00000051758742,14.061726603124043,1.274,1.026779572895131,0,0.0,0.0,0.0140829618979635,4.248908088871395e-10,-0.0005056103199642,1.908859219307828e-08,7.5253154423526356e-06,4.202734881104192,62.048594618540655,4.792202226971676,45.570952718869485
0.14,31.222215454191247,131.01039312033683,3.2737880595608355,4.184830647080848,0.000257138757548,42.32232525579263,0.0004369426767266,3.329727443445437,486.2390860568421,5.269261304374574,2.158791628597544,69.99913473613935,6.515851355725497e-08,120.00000064630268,17.000925061330125,1.274,1.0267449573927567,0,0.0,0.0,0.0154850332441425,6.382432869666793e-10,-0.0006690086306358,2.8426433029675884e-08,1.0948547100483978e-05,4.184830654966803,59.74181173116622,5.269301695636157,42.45310707234106
0.15,31.222215353826755,131.0103933263496,3.3242182719560263,4.21963947489699,0.0002846467688673,40.886944113003565,0.0004726792395108,3.325585650885676,472.5421858721398,5.6781946837482895,2.329510773545807,69.99875162806286,1.0876776246115984e-07,120.00000079954532,19.742017654108928,1.274,1.0267115958081523,0,0.0,0.0,0.0166867950518804,9.204756288136623e-10,-0.000865746478554,4.08948221429571e-08,1.526771148078443e-05,4.219639484480408,57.84996018384879,5.678239395958187,41.02196629910223
0.16,31.222215247130432,131.01039354534575,3.3775922280208457,4.253495568077899,0.0003118339050386,32.26872905470846,0.0005078415214353,3.32090791922544,391.1218908297597,6.081244877834229,2.4981889727471702,69.99825581174558,1.7187028096464329e-07,120.0000009800088,22.644030778355887,1.274,1.026675762255412,0,0.0,0.0,0.0178712695992133,1.2856146928958252e-09,-0.0010961187242953,5.6923362293832417e-08,2.0702404729358337e-05,4.253495579487569,56.06022383757386,6.081293860589489,32.43916312841722
0.17,31.22221513260033,131.01039378041813,3.4348437275053194,4.364838523348639,0.0003448792023946,40.840448242802736,0.0005326487904353,3.3162727284953744,471.78125980632416,6.362544479165355,2.6250789114832647,69.99762801982864,2.5997588617291615e-07,120.00000119506798,24.78723182122683,1.274,1.0266409836796937,0,0.0,0.0,0.0186979513961862,1.747791994374917e-09,-0.0013624931601664,7.706724512977917e-08,2.6923621797558364e-05,4.364838536947241,54.85936171416122,6.362598652663785,40.97486885600156
0.18,31.222215014088988,131.01039402363364,3.4935801365785646,4.353948305387995,0.0003681615230806,33.992183768165326,0.0005718025428208,3.310131992647221,407.1015672119096,6.81502088160835,2.810667639293692,69.99684761766231,3.794979223522764e-07,120.00000144728236,28.437950785509614,1.274,1.0266048342046536,0,0.0,0.0,0.020027681385988,2.3221419748804155e-09,-0.0016616990447559,1.0147209890543081e-07,3.517105786247627e-05,4.353948320923495,52.99157233768714,6.815078712285162,34.152972512863755
0.19,31.22221488419521,131.01039429023237,3.558399965607869,4.432620772533925,0.0003996774584738,38.45149959021069,0.0005986099513107,3.304145139297767,448.95313283182486,7.1223367465208405,2.946425726785696,69.99589577323147,5.440084577183829e-07,120.00000176148238,31.060341085698347,1.274,1.026566130444714,0,0.0,0.0,0.0209308229359413,3.022391489754689e-09,-0.0020041563310821,1.3135864879722746e-07,4.433199397898183e-05,4.432620790516937,51.77883352025967,7.122399527709208,38.59320142454953
0.2,31.222214751373183,131.01039456280608,3.624052454705669,4.443889400961181,0.0004246617145652,35.23432408779927,0.0006337972852267,3.2968110145188256,418.5156301991588,7.530482904611057,3.1167566004785483,69.99474776398331,7.478025600151903e-07,120.00000211715036,34.72195181863731,1.274,1.026529240027363,0,0.0,0.0,0.0221302820454282,3.866698391504749e-09,-0.0023849544920781,1.668144671071589e-07,5.57780533277244e-05,4.443889421210987,50.22448880200342,7.530549610317194,35.38822625098952
0.21,31.222214608673173,131.01039485566503,3.6948551453492566,4.493351735844891,0.0004538195602194,33.79371564104691,0.0006629296043866,3.2891790438445727,404.8187610144608,7.868284042829251,3.2629204975089228,69.99338155599101,1.0150082652278477e-06,120.00000255293388,37.906665490338085,1.274,1.0264923657015164,0,0.0,0.0,0.0231230169900677,4.871073773182836e-09,-0.0028117605859743,2.089322918608601e-07,6.870935089180403e-05,4.493351758715364,48.992529909481824,7.868355328639073,33.95340801819282
0.22,31.22221446109996,131.01039515850383,3.767700382407304,4.5412639153933885,0.000482649303782,41.008966751568416,0.0006914639179131,3.2808061382386606,472.5421858721387,8.20057841132235,3.4071691679735228,69.9917708347139,1.3454961520984431e-06,120.00000305929996,41.175744234065135,1.274,1.0264494137127138,0,0.0,0.0,0.0240995709751246,6.054779813287368e-09,-0.0032829112061357,2.580881224843564e-07,8.3609968899004e-05,4.54126394098788,47.82515604752711,8.2006542256977,41.13999323561041
0.23,31.22221430675399,131.0103954752338,3.843768625625224,4.52371495179584,0.0005047555656171,33.98493478127787,0.0007294889663961,3.2705214710765107,406.340642146096,8.647938096586296,3.5908865300848416,69.98989017772566,1.7539876018835507e-06,120.00000365514876,45.79040229326471,1.274,1.0264133390858623,0,0.0,0.0,0.0254142776666487,7.436335125872812e-09,-0.0038001790077148,3.1489825108822685e-07,0.0001020628978177,4.523714979897577,46.31461705147579,8.648017383405135,34.14194053232237
0.24,31.222214142622448,131.0103958120587,3.92493179063287,4.57837522350066,0.0005351929930195,35.051650311058864,0.0007555049947555,3.26053011385611,416.2328240017099,8.954297884844461,3.72617527247482,69.98771316795013,2.25257161141768e-06,120.0000043564586,49.09180568115741,1.274,1.0263750048312463,0,0.0,0.0,0.0263146218848643,9.034877387788232e-09,-0.0043732521010013,3.809642748985157e-07,0.00012161410144,4.578375254714954,45.32798984252032,8.954381952763216,35.20297212911011
0.25,31.22221397517227,131.0103961556623,4.0071748888306855,4.6034117733065,0.0005618935542827,36.03738579534623,0.000785606492708,3.249069743648399,425.3640807915084,9.311611941121669,3.8789349536029696,69.98520781816889,2.8559738498748624e-06,120.00000517181904,53.08749562138344,1.274,1.0263373768840591,0,0.0,0.0,0.0273647110956883,1.0873791100894836e-08,-0.0049950711786164,4.5609738277273444e-07,0.0001444478241125,4.603411807525074,44.2165428352526,9.311700203154778,36.183554686886296
0.26,31.22221379934012,131.01039651647062,4.09364247475714,4.621386912291471,0.0005881033207375,39.29107511182762,0.0008162761165496,3.236407051295005,455.80158342417656,9.67833954512075,4.034902068846398,69.98234620927953,3.5784678110229355e-06,120.00000612171208,57.350948423913096,1.274,1.0263006300381676,0,0.0,0.0,0.0284424679130479,1.2973286442992724e-08,-0.0056712051373577,5.414206381221602e-07,0.0001704578711045,4.621386949630312,43.12063533194282,9.678431924174348,39.42414126789902
0.27,31.222213616776543,131.01039689108487,4.183310605341074,4.617158109135719,0.0006115457810536,35.90419462403674,0.0008503454714941,3.221982799915672,423.8421996598744,10.088790784535757,4.205862468567124,69.97909721779352,4.436165972465058e-06,120.000007221354,62.31798301949865,1.274,1.026260090595354,0,0.0,0.0,0.0296487219805601,1.5355910600537293e-08,-0.0064045199323113,6.379142666348734e-07,0.0002006609239367,4.617158149547818,41.94410287616451,10.08888684592241,36.048472443180565
0.28,31.22221342607797,131.0103972823952,4.277051150896916,4.642105655370123,0.0006389739579882,41.51133203546672,0.0008785747638736,3.2071101123224945,476.3468732012228,10.432377224420517,4.35383399240675,69.97542808435722,5.446665372087172e-06,120.00000849080963,66.63429581008447,1.274,1.0262212716723291,0,0.0,0.0,0.0306584788590473,1.8045308789081613e-08,-0.0072006835403936,7.469524967369969e-07,0.0002332868227611,4.642105699250441,41.0023231023774,10.432477594215127,41.63503624837164
0.29,31.22221323001776,131.01039768469093,4.373143569786686,4.62134615173668,0.0006600657405645,33.17552944492765,0.0009148746278066,3.1894209319791806,397.9703104221098,10.876662296046485,4.536381530986506,69.9713027936179,6.629751536885327e-06,120.00000994797426,72.43000748232016,1.274,1.026183007522519,0,0.0,0.0,0.0319641703260467,2.1067646517035105e-08,-0.0080566154554079,8.688043379161898e-07,0.000272130659453,4.621346198772975,39.83162628795024,10.876765978930557,33.32848872465723
0.3,31.22221302403368,131.01039810736614,4.4744193758467325,4.664362353358112,0.0006905183788532,31.08096762732793,0.0009381960428197,3.172549142946348,378.1859457108735,11.168362145070317,4.66647911311536,69.96668711012893,8.005507138509574e-06,120.00001161892672,76.36634300732833,1.274,1.0261430389738484,0,0.0,0.0,0.0328214509167604,2.4447409007156216e-08,-0.0089829108229115,1.0056222251461646e-06,0.0003115527202986,4.664362404357781,39.09908960432563,11.168470611443622,31.242464973103964
0.31,31.22221281503337,131.01039853619727,4.576593712520673,4.700143580504286,0.0007196683316923,32.79732593144512,0.0009620705970519,3.154230688182399,394.1656220930229,11.470279728974068,4.800072153432283,69.96154070456518,9.597499105113692e-06,120.00001352112182,80.55022837857167,1.274,1.0261054058068628,0,0.0,0.0,0.0337087616009043,2.8214060606649844e-08,-0.0099686353219717,1.1565909895184251e-06,0.0003550834484269,4.700143635477137,38.36463422765983,11.47039277421126,32.94865339301887
0.32,31.222212598991007,131.01039897947376,4.68216432480395,4.718667719113184,0.0007464384342556,35.7316568886908,0.0009885845337584,3.133859770838664,421.5593934624264,11.808280530415894,4.946054328851105,69.95582953472353,1.14278227255889e-05,120.00001568218067,85.36654007972253,1.274,1.026068246703101,0,0.0,0.0,0.0347021168382987,3.2392058795580455e-08,-0.0110163301561155,1.3226102501723267e-06,0.0004039614423012,4.718667778018562,37.5686120062341,11.808397780690962,35.8688218659563
0.33,31.222212376029034,131.0103994369436,4.791055524254013,4.72141404831576,0.0007708346814671,35.42013590291081,0.0010176135371143,3.1111955852784385,418.5156301991632,12.181577273013426,5.104163223586657,69.94951809396906,1.351997394754887e-05,120.00001812674968,90.84831229869296,1.274,1.0260310883392356,0,0.0,0.0,0.0357992034445943,3.700677535501642e-08,-0.0121310534481307,1.5051409581878843e-06,0.0004588955105349,4.721414111097893,36.7208578211118,12.181698355442045,35.55651229220977
0.34,31.222212145785647,131.0103999093516,4.903491659547144,4.73024573449122,0.0007962944975467,27.63851074646407,0.0010446307681611,3.0871492806781062,345.4656368807584,12.53557620048282,5.2556261014174765,69.94256797855994,1.5899658158227497e-05,120.000020882338,96.20413272674828,1.274,1.0259901535019136,0,0.0,0.0,0.0368395817555172,4.208561016221623e-08,-0.0133180771902383,1.7057647550599631e-06,0.0005184333231541,4.730245801363397,35.94841996438923,12.535701282129995,27.810389570354005
0.35,31.222211909310875,131.01040039453565,5.018822212845608,4.780248518778662,0.0008286678570753,30.332092807652543,0.0010618579815451,3.063967690608957,370.5765700527057,12.774786382148209,5.367579971644358,69.93493776125636,1.8594985713558667e-05,120.00002397748868,99.9096898192772,1.274,1.025950003202184,0,0.0,0.0,0.0375426220587071,4.7658312175989686e-08,-0.0145774693288123,1.9252724355785177e-06,0.0005782798420984,4.780248590437683,35.44790728185619,12.774916548990808,30.486451961956565
0.36,31.22221166933814,131.0104008868675,5.135354490370708,4.798132156899578,0.0008554457330409,34.32674769697476,0.0010851169437774,3.0374319611165923,407.8625232777224,13.09301701329486,5.506730645516068,69.92658597246795,2.163521613217148e-05,120.0000274401514,104.94818266210537,1.274,1.0259105142325406,0,0.0,0.0,0.0384778908056978,5.3755109608570216e-08,-0.0158991451700967,2.162609490834569e-06,0.0006464142451675,4.798132232978766,34.796094028187134,13.09315138639638,34.46087058603792
0.37,31.222211421355144,131.01040139563804,5.255882891363927,4.797392186816851,0.0008791822061288,32.551601855236584,0.00111162791192,3.0078619428913056,391.1218908297639,13.457513730739372,5.661815946371007,69.91747693543164,2.5047738471809164e-05,120.0000313040604,110.87154396328836,1.274,1.025872170958032,0,0.0,0.0,0.0395491312153729,6.040098808671168e-08,-0.0172926678053148,2.420031948898497e-06,0.0007226353721561,4.797392267189059,34.07332166419882,13.457651832357364,32.69027405888565
0.38,31.22221116634284,131.01040191882743,5.379799334000849,4.811698494594017,0.0009057112478668,34.02947987649063,0.0011338447913587,2.9774881690446744,404.81876101445977,13.77554886562956,5.800899861213392,69.90756948297444,2.886339581486796e-05,120.00003560072224,116.17243393848278,1.274,1.02583050512925,0,0.0,0.0,0.0404838339452728,6.762496638941508e-08,-0.0187646375218858,2.69955777313946e-06,0.0008026686661094,4.8116985796350695,33.46655348088405,13.775691134419684,34.15949264475229
0.39,31.222210906095896,131.01040245274032,5.505993307722699,4.813508003664984,0.000929862892873,29.00025983045028,0.0011579891265804,2.9442136901860865,357.6406249338268,14.124492165837273,5.950648592462506,69.8968186645841,3.311602501056718e-05,120.00004036395212,122.13093644173792,1.274,1.02579027384009,0,0.0,0.0,0.0415093739609825,7.545934774906889e-08,-0.020311592409804,3.0013532510753577e-06,0.0008908380763632,4.813508093268025,32.821616487639595,14.124638228358922,29.149330452482886
0.4,31.222210638473225,131.0104030017851,5.635788650457906,4.841647069358873,0.0009592124397379,27.71178845184976,0.0011749448424961,2.91135549588368,345.4656368807565,14.390874239274588,6.07193451174791,69.8851815212744,3.783947407715338e-05,120.00004563180136,126.77947425345651,1.274,1.0257493418632293,0,0.0,0.0,0.0422922854866381,8.39343718693383e-08,-0.021938519432511,3.3271332720311508e-06,0.0009803271643914,4.841647164150728,32.348088166612904,14.391024912012275,27.864299944624147
0.41,31.22221036681104,131.01040355909262,5.767123077463226,4.86553909860892,0.0009876699832274,31.306062598221665,0.0011918093836199,2.876450850006428,378.9468707766882,14.663028799871563,6.195223154320929,69.87261222561014,4.307011032901644e-05,120.0000514391194,131.6183642808765,1.274,1.025708445186429,0,0.0,0.0,0.0430921644173401,9.308325447883581e-08,-0.0236371933433427,3.6760977501392174e-06,0.0010761942383903,4.865539198612839,31.87689439156756,14.663183942709727,31.437931330109585
0.42,31.22221008906472,131.01040412887247,5.901259531771367,4.867510642114694,0.0010118258958528,35.308283402190774,0.0012128114559048,2.8374461227958245,416.23282400171047,14.9952917972178,6.33928625560071,69.85906967380902,4.884273094936628e-05,120.00005782486392,137.64909586091787,1.274,1.0256701057426505,0,0.0,0.0,0.0440686959134695,1.0293499639582845e-07,-0.0254093547296826,4.049238334851429e-06,0.0011830797791891,4.867510747027452,31.315270489291198,14.995450734457847,35.422111438762386
0.43,31.222209804115888,131.01040471342728,6.038886819939341,4.854590670645608,0.0010330089741511,31.00586934514032,0.0012363751872706,2.794478603999558,375.90313951343126,15.369430568701889,6.497852263156962,69.8445117629242,5.519340856908871e-05,120.00006482835984,144.60167924299955,1.274,1.0256308158337524,0,0.0,0.0,0.0451682983415116,1.135186446762958e-07,-0.0272634397889413,4.449073329427772e-06,0.0013010625065656,4.854590780289497,30.70250814963406,15.369592833372094,31.13154422839874
0.44,31.22220951192321,131.01040531284193,6.180028459770617,4.866912332640401,0.0010595850174406,28.57707721036899,0.0012525768202179,2.752165534925872,353.07501253892326,15.659290812546615,6.627318538707029,69.82889155423543,6.216182865383864e-05,120.00007249162944,150.1053167542629,1.274,1.025586171750536,0,0.0,0.0,0.0460202245100907,1.2486676023179565e-07,-0.0292060158163984,4.8779154055816594e-06,0.001420032405556,4.866912447705031,30.24619499837236,15.659457251771938,28.709297424144207
0.45,31.222209215425703,131.01040592106523,6.322872201489905,4.881836476567178,0.0010866574689855,33.31904824532484,0.0012669045761511,2.7082028218433374,397.2093853562887,15.934249290371609,6.751662050993672,69.81215834018458,6.97909417564726e-05,120.00008085697964,155.42080512416243,1.274,1.0255397023523487,0,0.0,0.0,0.0468283602442113,1.3701614206272197e-07,-0.0312276295846745,5.334643585560923e-06,0.0015449645531859,4.8818365972149325,29.82567893138932,15.934419982127675,33.428929688274074
0.46,31.22220891307435,131.0104065412864,6.468371919199588,4.869610441729251,0.0011078049156487,38.95909776354321,0.0012868374716666,2.6582856015412624,449.7140588976424,16.292139278621757,6.904766425053949,69.79426683863348,7.812149592850748e-05,120.00008996920153,162.4785746623087,1.274,1.02549635315424,0,0.0,0.0,0.0478802236363867,1.499987870203256e-07,-0.0333272350234362,5.819761874615242e-06,0.0016858511402973,4.869610567434908,29.29014635640275,16.292313292210977,39.04968351401366
0.47,31.22220860266524,131.01040717804253,6.6178810515614845,4.838450928223533,0.0011247917292402,26.253747818137555,0.0013104398935566,2.6026193242279367,331.0078106302504,16.710658191447514,7.078951441335346,69.77517236812905,8.719457259907165e-05,120.0000998741591,170.9309671061642,1.274,1.025453319323251,0,0.0,0.0,0.0491102725711187,1.6384464803343264e-07,-0.0355167087264168,6.3368207228363735e-06,0.0018427306558807,4.838451058652396,28.68386015667837,16.710834873319172,26.382435512333956
0.48,31.222208284201663,131.0104078313267,6.771393590864176,4.869339340099417,0.0011561785713505,25.860860976019296,0.0013165328518772,2.5543454292827983,327.20312230115803,16.911139899671,7.177575416403102,69.75482343794755,9.70562828082882e-05,120.00011062072316,175.0543877818846,1.274,1.0254092882449153,0,0.0,0.0,0.0496995461609974,1.7858865391586845e-07,-0.0378054080201581,6.88909442277235e-06,0.0019849793891693,4.869339477030596,28.40887970825325,16.911321511776286,25.986704537635287
0.49,31.22220796480208,131.01040848648364,6.924537656029012,4.881367714530694,0.0011829003785372,32.565703383222065,0.0013261973190012,2.5011623511055703,389.6000096981238,17.169005224738054,7.296160258358563,69.73316318155707,0.0001077573203115,120.000122255028,180.4309832312717,1.274,1.025367445590036,0,0.0,0.0,0.05045746454003,1.942747077649401e-07,-0.0401641298712614,7.47069711110948e-06,0.002140948887153,4.881367857509675,28.058569663954906,17.169191034294997,32.66161128464712
0.5,31.222207637929923,131.01040915697027,7.081324512896956,4.862566137860805,0.001202418260511,33.47759680712428,0.0013425340759632,2.4399894027711366,397.970310422106,17.52898693231981,7.450304424940405,69.71015149227495,0.0001193385310595,120.0001348274002,188.0736471953394,1.274,1.0253278572281015,0,0.0,0.0,0.0515154948878309,2.109295159784217e-07,-0.0426011733481599,8.084173008518589e-06,0.0023184335011768,4.862566286171007,27.57768313050809,17.529175807738486,33.56639745442473
0.51,31.22220730314019,131.01040984370235,7.24202048914867,4.8479762258125,0.001223054804074,25.49162310288008,0.0013562860883156,2.3767006597692686,323.39843497208153,17.86914397471067,7.597652147346554,69.68574349602717,0.0001318441288964,120.00014838524436,195.4407439266201,1.274,1.025286455263166,0,0.0,0.0,0.0525152689856776,2.2858192086249162e-07,-0.0451315948093539,8.734206149830708e-06,0.002503767471626,4.847976379721193,27.13799345359824,17.86933609171003,25.602178740977283
0.52,31.222206962738102,131.01041054193402,7.405210501673173,4.865306299521403,0.0012516517170965,30.733671928447727,0.0013599291289974,2.317711624364424,372.098451184342,18.08534843773428,7.701914987606457,69.65988568649581,0.0001453248538387,120.00016298000436,200.19561780583155,1.274,1.0252426840672306,0,0.0,0.0,0.0531507657929359,2.4726951523704535e-07,-0.0477531686556663,9.421346966092632e-06,0.0026812161964639,4.865306460134566,26.8699055233151,18.085545046726228,30.820940596104087
0.53,31.222206619320115,131.01041124632013,7.569307468221277,4.848802699234936,0.0012715119568563,32.301199055744725,0.0013711327835325,2.2490252325653923,386.55624643486095,18.41963113311156,7.8474319110539055,69.6325258319474,0.0001598315062727,120.0001786629144,207.6614205945027,1.274,1.0251993415311351,0,0.0,0.0,0.0541332845214831,2.67031759303889e-07,-0.0504479325599339,1.0141887756417996e-05,0.0028848299490111,4.848802865552398,26.45837260670532,18.419830861742675,32.37940050117613
0.54,31.22220626697288,131.01041196903336,7.737918664599091,4.831496690588052,0.0012913635058467,28.31291960103712,0.0013809098107221,2.177242866245296,349.2703242098436,18.75116898748492,7.992112829440902,69.60362200959217,0.0001754082864028,120.00019548734956,215.20067397992847,1.274,1.0251561018460285,0,0.0,0.0,0.0551077428911958,2.878941684235108e-07,-0.0532336286085667,1.090122304443916e-05,0.003098869611663,4.831496862756785,26.061835558272342,18.751371834390056,28.396510432451375
0.55,31.222205908994248,131.01041270328463,7.909026079894722,11.26915367789886,12.12314324897902,30.280788740501023,-0.715987249178397,1.7136977663832424,365.2500005919912,20.6732111531256,8.113323699629928,69.57312211246325,0.0001921068626005,120.00021350480982,261.57466467513893,1.274,1.025112921033824,0,5.012807131891703,0.0,0.0607565429524601,3.0989272306468813e-07,-0.0561100530405476,1.1700476995263424e-05,0.003601060098754,16.494202625284505,36.86929337798087,22.56333263297584,30.33769214232267
0.56,31.222205546564343,131.01041344664463,8.081909946161325,-5.443936677001008,11.089121348442005,28.138807624135872,-0.6900121658479028,2.4436600773575288,346.22656194657776,18.44282110010957,8.246362755413777,69.54097415464405,0.0002099796112633,120.00023276987916,208.1743866923597,1.274,1.0250709539098009,0,5.031095570890197,75.00003213914121,0.0542017507282793,3.330095088065315e-07,-0.0638209163462282,0.0086918130477972,0.0036539695957097,12.338308866952646,37.05934435223556,20.17384192039891,28.25314293792491
0.57,31.222205178926508,131.01041420507835,8.258332077308209,-5.3109909897355285,10.956013140797088,27.81787612931061,-0.8240414705749683,2.4932598285992684,343.1828296833045,18.70083608992548,8.379283700712753,69.5044076151286,0.0135342732551156,120.01445598648584,214.03622231666,1.274,1.0250279191823897,0,5.049241129622549,75.00003213914121,0.0549601423756527,3.641154326022266e-07,-0.0607528220473669,0.0150313933132679,0.0035269123206067,12.16125097929842,36.613966409448906,20.41133404909054,27.941539350289975
0.58,31.222204805106816,131.010414974832,8.43652233882347,-5.192260962683938,10.816043454942408,36.74181915976737,-0.9629602624669282,2.544759930241764,426.12500585731766,18.965119838841588,8.510370545830922,69.469595814461,0.0365127342524243,120.0389902549149,220.12480364645788,1.274,1.024981594484354,0,5.067416257180974,75.00003213914121,0.0557369615320403,3.972735513717364e-07,-0.0576722261694439,0.0214729722091816,0.0033953305364205,11.984372595684698,36.16365638336266,20.654027066077045,36.84242623306319
0.59,31.222204426238925,131.01041575684323,8.617416832190141,-5.039217763904065,10.60152599395004,29.70906127934129,-1.1143330554545725,2.592373508707706,360.68438819710633,19.362250807399825,8.68919678710615,69.43654149280968,0.0692557666773454,120.07395789469956,229.43619845058507,1.274,1.0249386802161349,0,5.085454363689982,75.00003213914121,0.0569042136239636,4.325265505636746e-07,-0.0545716683611422,0.0280151006556665,0.0032800108581613,11.725845732566382,35.49900126789171,21.018048574455584,29.842762282784484
0.6,31.222204037837898,131.0104165594451,8.803164226545006,-4.928717032211805,10.470108742045754,26.35834523510294,-1.263812994598932,2.648641399265848,329.4859594986072,19.612709393561623,8.815639244457921,69.4052496881931,0.1118759339547212,120.11948326660088,235.4060911062994,1.274,1.024891335813742,0,5.103448711525713,75.00003213914121,0.0576404135437778,4.699072826570252e-07,-0.0514304620433488,0.0347020958774154,0.0031311399694685,11.560462535763898,35.088881734885206,21.24821221554689,26.521215810744724
0.61,31.22220364724406,131.0104173676615,8.989407629805918,-4.823569488876428,10.345994519658827,30.948751950435863,-1.4168262820104405,2.7069658682824422,372.0984511843332,19.848574088815727,8.936941342698828,69.37573512153337,0.1645578457596446,120.17576740919093,241.0978669204597,1.274,1.0248423929069768,0,5.121602886128329,75.00003213914121,0.0583337263369506,5.094764933990229e-07,-0.0482753522469136,0.0414797053925822,0.0029743458103907,11.404072722526886,34.70725897182855,21.464901880434223,31.09920108644351
0.62,31.222203250909047,131.0104181887564,9.178279208908329,-4.698594708163997,10.1768815837618,38.56915687029968,-1.5806181309456415,2.7638535547797662,442.86563930529206,20.16862436268812,9.088568034947937,69.34799505860437,0.2274077896576893,120.24292742897472,248.93125060680896,1.274,1.0247996097896497,0,5.139488988634788,75.00003213914121,0.0592744605072996,5.512716242207238e-07,-0.0451102528060087,0.0483404168584963,0.0028241018675048,11.19879241503574,34.1987329224025,21.758812856173503,38.70035015130907
0.63,31.222202846907887,131.0104190266481,9.37091697030247,-4.555385002622762,9.964236902613152,21.693028706852523,-1.7580874597916225,2.820203147740864,286.11251274707456,20.57865747706,9.272647483710577,69.32202228296704,0.3005253619099905,120.32107297244282,259.15101246373524,1.274,1.024756158874558,0,5.15730607560691,75.00003213914121,0.0604796563621944,5.953222157882785e-07,-0.0419235159212871,0.0553104325343745,0.0026779071969046,10.946590062087148,33.565452887340385,22.135958462566503,21.94611381969782
0.64,31.222202434351853,131.01041988311,9.567831535840757,-4.479083672536918,9.891845634921207,21.285176146617545,-1.9170966191275347,2.887036478576743,282.3078244179702,20.703020339299293,9.354167470450578,69.29781382581527,0.3840548137239196,120.41036109960665,262.28776864567345,1.274,1.024708534665538,0,5.175169015065822,75.00003213914121,0.0608452878269416,6.416655606590278e-07,-0.0387027126035523,0.0624180419235691,0.002487068162925,10.849469823163911,33.364440477424154,22.249120414711797,21.56545762714623
0.65,31.222202023376443,131.0104207375086,9.76299385636797,-4.385591283680312,9.779679480826184,37.92724592441686,-2.085495161989351,2.952213237399686,436.7781447787504,20.904407251655268,9.463392150669725,69.27537117500574,0.4781881502029806,120.510999605186,267.41034061393094,1.274,1.0246641738210605,0,5.193116793914471,75.00003213914121,0.0614372905808684,6.903739732039042e-07,-0.0354962305451561,0.0695595344136287,0.0023031622280872,10.709263352133744,33.0500840125852,22.433147285292677,38.0990923314579
0.66,31.222201604886497,131.01042160829664,9.961797767120755,-4.240309710219159,9.55076007147928,32.18627508496284,-2.283653381237324,3.013204683096053,383.5125151715984,21.35345222265949,9.661795586647347,69.25466599649377,0.5829645226592866,120.62303257552952,279.0168212366542,1.274,1.0246195561629028,0,5.2106037592829,75.00003213914121,0.0627571581255338,7.414616858558822e-07,-0.032293326333488,0.0767587202709844,0.002140311690805,10.441759427622484,32.38787121311554,22.846744114803936,32.407572866118315
0.67,31.222201174749728,131.01042250372063,10.166642869432096,-4.131863448238086,9.39906886419255,22.014305617265684,-2.4716020528484006,3.080189548665256,289.15624401033847,21.636361177690933,9.800500626041009,69.23567352258618,0.69846419281394,120.74654770123972,286.4534741126105,1.274,1.024572383541697,0,5.2281210919252725,75.00003213914121,0.0635887660421302,7.949364182651133e-07,-0.0290576879952937,0.0840977312078149,0.0019513397023944,10.259693977303392,31.969075520365102,23.10615053918964,22.365733526395385
0.68,31.22220074291939,131.01042340367889,10.371660147020537,-4.048092261313937,9.299420256226144,27.59194653426439,-2.6498053608778367,3.150377482344484,340.89999248584934,21.797598479503105,9.895418469226977,69.21838650752889,0.8248970113820895,120.88177091334856,290.7330441428117,1.274,1.0245245285832842,0,5.245866013897492,75.00003213914121,0.0640627869206214,8.508666508013319e-07,-0.0258180245848564,0.0915141819269699,0.0017466693950061,10.135189782972438,31.717864014494392,23.251943000416382,27.897345040012407
0.69,31.222200307924563,131.01042431114814,10.577722795934962,-3.938993274769529,9.14018978970662,34.0719451757196,-2.847288320040316,3.2193759298150315,401.0140726853658,22.091527216011983,10.038116073633082,69.20277878097917,0.9623828178039132,121.0288315751118,298.62075262824044,1.274,1.024479631064582,0,5.263321985568187,75.00003213914121,0.0649267896253414,9.092983270258746e-07,-0.0225950123098131,0.09896196189911,0.0015492046118092,9.946197994901176,31.29084429904793,23.521183011411463,34.341940542318696
0.7,31.2221998640705,131.01042523741228,10.788126759401912,-3.8188109422940495,8.9521626845724,28.48433398249456,-3.0592154109970777,3.289306959631236,349.270324209851,22.45408448573099,10.205553112665063,69.18880995428172,1.110976083433621,121.18778880527292,308.4966379248217,1.274,1.0244351749185203,0,5.28059407079485,75.00003213914121,0.0659924986587869,9.702385502103563e-07,-0.0193711005427089,0.1064821741661484,0.0013499302571371,9.726542749291852,30.781609478618385,23.85457242640766,28.836359368544688
0.71,31.22219941287719,131.0104261793216,11.001954527425095,-3.7200442897492825,8.810031529785494,23.30536477149718,-3.261305000520637,3.3618185860354486,301.3312640634036,22.702431912525604,10.331860571052411,69.17644645776514,1.2707982703645673,121.3587730501811,315.3519906395573,1.274,1.0243880468141104,0,5.297956841491054,75.00003213914121,0.0667225520870943,1.0337136267363967e-06,-0.0161390587626336,0.114093067250599,0.001137112284268,9.557516280165052,30.423171231265226,24.08086161786816,23.77136852695646
0.72,31.222198958526576,131.0104271285832,11.216784809122988,-3.6295986771782096,8.68483144116076,28.638734201222547,-3.459879299776369,3.435278226872175,350.7922053414578,22.901999823879542,10.440567504781116,69.16565556263431,1.4420030405517164,121.54194888970729,320.9140029542814,1.274,1.024337302174265,0,5.315283318448607,75.00003213914121,0.0673092462326449,1.0997760549244083e-06,-0.0129184683161087,0.1217503692084444,0.0009181808667794,9.407401663400991,30.126294366013106,24.260991902063967,29.050800297295034
0.73,31.22219849957108,131.01042808801907,11.43344607369165,-3.5223893130891013,8.51748016085277,36.353880395832434,-3.6776915034570776,3.50921651121624,422.3203185282354,23.20635305515281,10.586973920278751,69.15639078752903,1.6246810263768618,121.73741317022568,329.4933155529586,1.274,1.024292465384646,0,5.3324211873894285,75.00003213914121,0.0682039106626271,1.1684574012160102e-06,-0.0097189314421359,0.1294324652649838,0.0006999389880826,9.21211920246879,29.70399346891016,24.53935331062075,36.707555559471444
0.74,31.22219803233968,131.01042906465725,11.654003703107836,-3.403038744148274,8.317489494403006,22.53568802325888,-3.915095776299311,3.584796062586342,294.4828134710563,23.599023725220327,10.76513582570676,69.14859750382259,1.8188939249471248,121.94523148613992,340.73103588766,1.274,1.0242470321640116,0,5.349441254736576,75.00003213914121,0.0693581497734966,1.2397634613382297e-06,-0.0065284945204858,0.137168871776177,0.0004781153137139,8.982194703175303,29.184393520687475,24.900947941808926,23.152450678698898
0.75,31.222197556612976,131.0104300587454,11.87854061205584,-3.320274807276064,8.203074842314038,26.38967864592581,-4.117083542421296,3.660480852170025,330.24688556441737,23.74923497513461,10.855960339970812,69.14222438206575,2.0247520727891306,122.16552119563704,345.0750061634864,1.274,1.0241984712898409,0,5.366503963890184,75.00003213914121,0.0697998013934133,1.3137109130601392e-06,-0.0033381712484731,0.1449826973667739,0.0002460222837955,8.845293520601674,28.947938923829945,25.033373433706327,26.95857258831803
0.76,31.22219708143557,131.01043105291933,12.101957201679882,-3.2196168537010683,8.042348342693973,28.43262901207219,-4.342920995363061,3.737106860212738,349.2703242098581,24.025136365517785,10.991937734129428,69.13722144823656,2.242404612155126,122.39844090944572,353.1316638916422,1.274,1.0241522053390697,0,5.383569423733494,75.00003213914121,0.0706108628503587,1.3903706967662775e-06,-0.0001844591520819,0.1527869544775178,1.3752224731690928e-05,8.658932818131595,28.569399928529837,25.28428125612901,29.00416044285274
0.77,31.22219659664575,131.01043206647483,12.329938483694086,-3.117497413524834,7.875797475805196,26.52624237141361,-4.57466926643234,3.8145173497541016,331.76876669606884,24.31268859338116,11.132013383680922,69.13351646411468,2.4718711571325063,122.6440104042746,361.62746332729614,1.274,1.0241065975906936,0,5.400294007239276,75.00003213914121,0.0714561744526769,1.4697323018646375e-06,0.0029469802160058,0.1606172383993714,-0.0002223348753222,8.466739335305244,28.1804838104088,25.5459237542536,27.18675552278709
0.78,31.222196106349447,131.01043309145015,12.560151116998284,-3.021008061950684,7.720316327930066,21.656111466087804,-4.802779356038172,3.8919665023435854,286.8734378128874,24.562224915978025,11.258322024162906,69.13104158080398,2.713228239987405,122.9023101406623,369.0806158675605,1.274,1.0240588105546735,0,5.4171051628581965,75.00003213914121,0.0721897613389913,1.5518138058472205e-06,0.006053936092809,0.1684700133349837,-0.0004614167100418,8.287005648456834,27.835278019632067,25.77126301505017,22.521129115339015
0.79,31.222195611138048,131.01043412666766,12.79225439256982,-2.9322077012925054,7.582225673262192,31.02269026452881,-5.020855346263533,3.968393008152375,373.6203323159581,24.749275353955404,11.362065142365756,69.12972459167689,2.9665492786806302,123.17341705896808,374.7150392642431,1.274,1.0240083170932772,0,5.433827542496805,75.00003213914121,0.0727397035795427,1.6366405426430789e-06,0.0091283982018591,0.1763262513889855,-0.0007010276803601,8.126360244931014,27.55640225498635,25.936815350400465,31.675928442969848
0.8,31.22219511209797,131.01043517005587,13.025640625807208,-2.824031024837536,7.391725600480899,31.41490825205454,-5.27468287809117,4.047967788549964,377.42502064505805,25.09991961884424,11.524432099582004,69.12948609796105,3.2318803867178545,123.45737871772968,385.3994376812659,1.274,1.0239625010683884,0,5.4504298756390925,75.00003213914121,0.0737704637506941,1.7242364675699945e-06,0.0121593108742568,0.1841591834875026,-0.0009469993077361,7.91002258395085,27.1094801596715,26.25779106164243,32.110820344029996
0.81,31.22219460255969,131.0104362336531,13.263904667569175,-2.7212919047081257,7.212431600418054,20.19487000811636,-5.524322648973916,4.127361248538033,273.9374926939922,25.410493417595568,11.672256078868418,69.13023827034228,3.509227804333968,123.7541998885066,394.9868840493141,1.274,1.0239149950770308,0,5.466853475346613,75.00003213914121,0.0746834631769223,1.814575087378916e-06,0.0151634700875084,0.19201296520794,-0.0011955565655592,7.706194691777398,26.70785801340241,26.540429846308296,21.33977568416822
0.82,31.22219408804458,131.0104373072208,13.504014312323797,-2.637160327947347,7.079616164207857,26.104756809604098,-5.739227375191978,4.202446294257945,328.725004432774,25.5527615893678,11.75958254980872,69.13189841038592,3.798666196143951,124.06395846968093,399.4129577015712,1.274,1.0238644186635044,0,5.48337479312023,75.00003213914121,0.0751018041092028,1.9076825466431915e-06,0.0181318813131875,0.19986638305773,-0.0014375704206689,7.552492625895581,26.473324176798133,26.66199747651847,27.056563229812593
0.83,31.22219357209821,131.0104383844248,13.74407495901566,-2.5377394724583127,6.90384231676417,33.33101484436752,-5.98718477136409,4.280678576429184,395.6875032246518,25.838926102124447,11.89831537539552,69.1343762412606,4.100237937754866,124.38669774516248,408.3996599993207,1.274,1.0238188483711983,0,5.499781334346949,75.00003213914121,0.0759430723602675,2.0036052824838062e-06,0.0210415434680831,0.2076601495879927,-0.0016869043534528,7.353363724459268,26.098620780298003,26.920756827606372,34.133958767136896
0.84,31.222193046113272,131.0104394804025,13.98864356422821,-2.4310935939400653,6.70575564148498,20.282503759783168,-6.256490735914968,4.361340808050182,275.45937482564227,26.20380448791853,12.065018235312117,69.13756789729287,4.413893587994691,124.72236274223869,420.00547603096174,1.274,1.0237739661568126,0,5.515947545973499,75.00003213914121,0.0770156973054713,2.10230412031406e-06,0.0239056432184661,0.2154302272727497,-0.0019435377896168,7.1309439253793,25.653073642496416,27.25473903618813,21.668985410908654
0.85,31.22219251194897,131.0104405915529,14.2366687790698,-2.3465718564974045,6.565832397270307,22.15248932111271,-6.472466207202246,4.434189147778169,292.9609323393965,26.33911513815595,12.149436180278109,69.14137301010656,4.739637702626385,125.070956306182,424.34419857690034,1.274,1.0237227741398531,0,5.532181135207928,75.00003213914121,0.0774136059594293,2.2037643702511848e-06,0.0267285777071933,0.2231906364961001,-0.0021842125155091,6.970826865736755,25.4214137716596,27.368217843085255,23.50080073792511
0.86,31.22219197832554,131.0104417027603,14.483582383685016,-2.2533558542305343,6.399608126898726,27.89538344946964,-6.710663920203718,4.508937024244585,346.2265619465616,26.56745178765805,12.266920347678743,69.14569024884243,5.07749468931237,125.43250259203484,431.72322416825233,1.274,1.023674789281455,0,5.548408056222616,75.00003213914121,0.0780849304454328,2.308048853611205e-06,0.029481956513414,0.230865455986509,-0.0024300419187818,6.783174891190983,25.10392071868881,27.57061100582621,29.043345901109127
0.87,31.222191435859763,131.0104428300434,14.734254356052192,-2.153493393715799,6.212604617342369,25.88398247755641,-6.969202539037084,4.585708347990705,327.9640783669946,26.87257681502324,12.411577769718775,69.1504033036181,5.427368997190416,125.8068975294947,441.6861493437845,1.274,1.0236288969245204,0,5.564313581356847,75.00003213914121,0.0789819529119127,2.4151172555994693e-06,0.0321724743456584,0.2384738555134687,-0.0026821983085786,6.573872468139756,24.71906292118104,27.84653934082913,27.195202775147674
0.88,31.222190885749708,131.01044397103,14.987998426563712,-2.058897830699798,6.037914694690552,22.22112542144353,-7.213581022144818,4.659375424593691,294.4828134710421,27.11973775218276,12.535339476569227,69.15539675943728,5.789191034094693,126.1940650079804,449.83738177439886,1.274,1.0235805388426191,0,5.580230815047752,75.00003213914121,0.0797086188319729,2.5249380279608498e-06,0.0348036392091432,0.2460280168258421,-0.0029281725733396,6.378069394879898,24.38660792308561,28.06641671595427,23.822761080653088
0.89,31.222190331163887,131.01044512029648,15.243169937445796,-1.9677858727284847,5.871109892491891,24.41548069091744,-7.44563886236133,4.729836127202906,315.02813424808807,27.32281026272365,12.64318681840768,69.16055446393784,6.162905803556408,126.59394476265328,456.588176868158,1.274,1.0235293752791452,0,5.59611756482678,75.00003213914121,0.0803057079193345,2.637519225887741e-06,0.0373659044959208,0.2535024349361655,-0.0031672091839584,6.1910055106794175,24.09175175091185,28.243428967786745,25.960057496613167
0.9,31.22218977162046,131.01044627856805,15.500001420910444,-1.8728946330488088,5.69090487295981,27.019987457627337,-7.6909173740914705,4.801022925574845,339.3781423542166,27.577348234917647,12.769097309275448,69.16575441478777,6.54841376553235,127.00642914796204,465.123436786915,1.274,1.0234837388140003,0,5.611871658573757,75.00003213914121,0.0810540668660017,2.7528569241915315e-06,0.0398515530622189,0.2608762344516644,-0.0034092819931433,5.990207761574067,23.753936104357585,28.469804376045133,28.500521984646806
0.91,31.22218920454888,131.0104474498114,15.759744497668928,-1.7763741309752197,5.503198324648481,20.293175645419502,-7.94382889020629,4.8721130952785545,277.7421810230785,27.86040308578029,12.904864057779692,69.17087007886445,6.945577030149592,127.43136982437568,474.7086819055599,1.274,1.023436404813438,0,5.627509649973681,75.00003213914121,0.081886248574705,2.870912014499232e-06,0.0422614244843873,0.2681536413313751,-0.0036524633264986,5.781953533539813,23.39420371304252,28.723514935867517,22.33058174848806
0.92,31.22218863046708,131.0104486329446,16.022093439481694,-1.68734000393218,5.3363702643501325,24.301066219980363,-8.162747875867327,4.935927916839293,315.0281342480675,28.030693938884795,13.000398976454008,69.1757739631915,7.354257532685946,127.86861865214549,480.517424018992,1.274,1.0233859136578225,0,5.643108189686704,75.00003213914121,0.082387004913014,2.991652207497701e-06,0.0445939295385866,0.2753320588141349,-0.0038775105444669,5.5960455831516285,23.124736886984305,28.867717660876497,26.1062378889238
0.93,31.22218805378802,131.01044982093927,16.284861071800307,-1.592657297839834,5.1493330824848575,29.05006121294653,-8.407069588054647,5.002376194972233,359.16250706547066,28.294846936346225,13.128914149848468,69.18033682116561,7.77430573193648,128.3180156440862,489.6042504254586,1.274,1.0233407575091376,0,5.658648329003008,75.00003213914121,0.0831636423260468,3.115089517036358e-06,0.0468360082169923,0.2823734824357067,-0.0041107366727439,5.38937427438184,22.781629571685585,29.10261385443781,30.653036442257374
0.94,31.222187467861808,131.010451023937,16.55126045485616,-1.495489733014188,4.951577107820146,20.74306904834055,-8.665748630905727,5.069697337990579,283.06875048378083,28.610601248132948,13.275355387894484,69.18442427664398,8.205504619612661,128.7793291280879,500.5798218321849,1.274,1.0232914783978162,0,5.674002636760027,75.00003213914121,0.0840919537807682,3.2411544964682564e-06,0.0489915152118343,0.2892915545306707,-0.0043477962120077,5.17194687912487,22.401029441084447,29.38742534759183,23.0449982420719
0.95,31.22218687397784,131.01045223961427,16.82060132518426,-1.4065890300437744,4.7785067707654045,27.14615204370177,-8.876822300032627,5.126807126044968,342.421873617488,28.77923963425916,13.369586835050752,69.18790295561311,8.647649425127058,129.25234105413753,506.4852090341415,1.274,1.0232418269359267,0,5.689360411977457,75.00003213914121,0.084587870869109,3.3697941437892297e-06,0.0510599599886124,0.2960877231758445,-0.0045579533432678,4.980766014955327,22.13119038399087,29.528975863415376,29.01716209821001
0.96,31.222186278232765,131.01045345875656,17.089957734616796,-1.3111881992910952,4.580530575411313,26.519951730783035,-9.127966555318446,5.189124678493324,337.09533515678265,29.08553448327253,13.512048669160132,69.19063902932716,9.100528001729204,129.736826049054,517.3101496467642,1.274,1.0231951201821403,0,5.704680109775385,75.00003213914121,0.0854883917566164,3.501027821062948e-06,0.0530270449402635,0.3027175850752956,-0.0047838034709016,4.76411697059575,21.761165526553043,29.80427636155144,28.522879030122862
0.97,31.222185671012586,131.01045469536936,17.363847664324265,-1.2181506818221643,4.388106652541318,16.465221720737865,-9.363584922788862,5.2466812273520445,245.0218871929888,29.35124650207649,13.6398939229195,69.19249497861553,9.563848631414686,130.23247424181295,526.7912797170113,1.274,1.0231476260761452,0,5.7197971197398765,75.00003213914121,0.0862696408510639,3.6347528180410215e-06,0.0548983734024341,0.3092019492434803,-0.0049977376850759,4.553731280369716,21.422010979549263,30.039855043761456,19.65471731724436
0.98,31.222185058642804,131.01045593992663,17.639241738283392,-1.1316134302950571,4.2165631196881135,24.523814297287178,-9.546951314548856,5.292549262635511,319.593746642963,29.470370642518947,13.71598584944014,69.19333555456055,10.037341168374375,130.73899947832743,531.0619511489472,1.274,1.0230935628253934,0,5.734966680798563,75.00003213914121,0.086620041538499,3.770940356989043e-06,0.0566669021043586,0.3155204081815742,-0.0051795378770549,4.365505792087613,21.184976426320212,30.132109130844697,26.8434875675203
0.99,31.222184444568605,131.0104571875513,17.91455088023798,-1.03853398312433,4.018194181244676,26.8708710942875,-9.782036735095575,5.345617252366959,341.66094855170127,29.760773849508315,13.851857443312396,69.19302473400407,10.520692208878106,131.25607000859853,541.5654462543989,1.274,1.0230490803133316,0,5.750019364339093,75.00003213914121,0.0874738735492193,3.909598285068564e-06,0.0583208754953936,0.321633152565644,-0.0053831033224914,4.150020297748873,20.830374568174012,30.39143305502444,29.091366070732708
1.0,31.22218381834253,131.0104584526349,18.19452621787085,-0.9462432945068276,3.819803878880245,23.83930855873975,-10.01171768570729,5.395415842608007,314.2672081822764,30.046810535152822,13.985835075403044,69.19142597308056,11.0135144933413,131.7832757893797,552.0108152722432,1.274,1.022999484445133,0,5.7648719078526565,75.00003213914121,0.0883148812481974,4.050587689989687e-06,0.0598662363096637,0.3275647016270221,-0.0055787014115226,3.935092258823338,20.480843590281932,30.64637954991991,26.413209492444718
1.01,31.22218318594413,131.0104597265316,18.476373416636367,-0.856574006289305,3.6281757977253872,24.94523618683918,-10.21725065391506,5.438366191365567,324.92031610370094,30.27644481778192,14.099776435038375,69.1884060362963,11.515446816532227,132.32023535747965,560.4654274241187,1.274,1.0229507481225095,0,5.779782587478366,75.00003213914121,0.0889901152423406,4.1938499495318895e-06,0.0612984430501751,0.3333026306890148,-0.0057556628740836,3.727787234024314,20.169729961892045,30.84597653560244,27.499688110476935
1.02,31.222182547988428,131.0104610083305,18.75980287060117,-0.7665284224618271,3.4316094577568363,20.501867757254967,-10.42837991412383,5.479851932522965,284.59063161543185,30.53843770118392,14.22468684301122,69.18383322150389,12.02609622732342,132.86653401869,570.1916884791776,1.274,1.0229039803623294,0,5.794600512586079,75.00003213914121,0.0897604655344715,4.3393455262999135e-06,0.0626113058749357,0.3388257087108321,-0.0059296462124651,3.5160782916255218,19.839023234954887,31.077151444292426,23.64543225174046
1.03,31.222181901542665,131.010462301715,19.046081982178336,-0.6788372318202713,3.242397808143018,16.388877211653543,-10.608098359093164,5.5128995055182894,247.3046933904342,30.72908348067164,14.324431549751338,69.17757814537292,12.545024409302751,133.42170927615172,577.3172376734396,1.274,1.022853416101322,0,5.809312255062705,75.00003213914121,0.0903211151662652,4.486985431613819e-06,0.0638025128367537,0.3441287213457599,-0.0060800150557149,3.312623054410259,19.553536736742675,31.238126335335583,20.285933747619204
1.04,31.222181250856696,131.0104636009554,19.333304532758632,-0.5923859425355213,3.056163047596679,27.02001492186691,-10.766485434254452,5.539300469678545,345.4656368807608,30.880987963059727,14.410432995557867,69.1695146808412,13.071772552540226,133.9852774208952,583.0230191409934,1.274,1.0228049544826707,0,5.82398482918613,75.00003213914121,0.0907678978343035,4.636727465468721e-06,0.064865967399029,0.3491895095433785,-0.0062117414213875,3.112992258771036,19.2914719352274,31.360821322088736,29.608820724191375
1.05,31.222180595163245,131.01046490695418,19.621792034246013,-0.503000026204034,2.850826906859641,15.52718204485278,-10.982793928465732,5.573678581173011,240.4562587980608,31.213338777313343,14.558721852136625,69.15952059747816,13.605835405297984,134.55670575718588,595.6233962585234,1.274,1.022755494436122,0,5.838521587610702,75.00003213914121,0.0917450688829638,4.7885062293126174e-06,0.0657977308087718,0.3539931605407534,-0.0063686061546162,2.8948254270291804,18.922779982942032,31.660960871652787,19.818704237547145
1.06,31.22217992630996,131.0104662295362,19.91498594504248,-0.4180832436883095,2.6665324425608534,22.8489807866435,-11.109542572084782,5.588612540762371,308.1796836557233,31.32115630207899,14.628885743265364,69.14747866227927,14.146673046875213,135.1354251635111,599.7284346832387,1.274,1.0227013895379469,0,5.852941954937876,75.00003213914121,0.0920622804795266,4.942135049868188e-06,0.0665996025500104,0.3585560300929734,-0.0064683043210086,2.699085520899304,18.68641381075186,31.73986305081581,26.014043308954
1.07,31.222179259322424,131.010467550092,20.206454093752267,-0.3315366813671209,2.466695836335074,27.184809672605137,-11.289478974651772,5.610470722294438,348.5093681440431,31.596719425269296,14.75678417894611,69.13327595019528,14.693759127518774,135.72088165121383,610.3105766731401,1.274,1.0226540159946436,0,5.867418118742146,75.00003213914121,0.0928725486669538,5.097646388877169e-06,0.0672630654295727,0.3628371977792275,-0.0065900318249946,2.4888625921210235,18.354691745536453,31.98406741887568,29.965706969477512
1.08,31.22217857871785,131.0104688871725,20.502710298124423,-0.2455909723670949,2.264718990461009,17.590359542085412,-11.472217812398876,5.629744672088643,261.0015785751465,31.90140989954648,14.894356215917288,69.11680669163854,15.246494191807775,136.31244359380253,622.1202043344209,1.274,1.0226061614050743,0,5.881633600276244,75.00003213914121,0.0937684418429308,5.25484438366294e-06,0.0677890923833842,0.366849483633048,-0.0067054233326016,2.2779893803043496,18.009438729959676,32.25705850079889,21.74227576469096
1.09,31.22217789013749,131.01047023360638,20.801306049618244,-0.1620770571972079,2.075242347987788,15.959011888938017,-11.584034093263726,5.632968195113543,246.54375332456465,32.04131440008043,14.974815588847376,69.09797047432308,15.80428835410358,136.9094901010796,627.5708209805399,1.274,1.0225512795791307,0,5.895909324292206,75.00003213914121,0.0941799832218297,5.413610586546341e-06,0.0681742850299771,0.3705846680086807,-0.0067729047005157,2.0815591000833265,17.755562756320444,32.3672214367128,20.50878438699676
1.1,31.222177200043905,131.01047158193083,21.09957841944642,-0.0790315385920447,1.8834854893573965,34.07346560214977,-11.694755539006662,5.632918383270928,413.1890617384087,32.20535939308636,15.063328410961876,69.07667318095936,16.366529855276163,137.5113773159677,633.9951768889358,1.274,1.0224981043155532,0,5.910125447205937,75.00003213914121,0.0946624841323349,5.573936321874867e-06,0.0684145223598347,0.3740156130933429,-0.0068313739091275,1.885142255288008,17.489006745848126,32.5011633191494,36.46228372950057
1.11,31.222176502040547,131.0104729393223,21.400127395130514,0.0036957225206215,1.675044277203906,24.30424824682492,-11.90270303490966,5.6469548797346185,324.1593910379213,32.64979643643052,15.247807767995768,69.05283026002003,16.93255868120843,138.1174100886323,651.5954947397477,1.274,1.0224548851875197,0,5.924158146722179,75.00003213914121,0.0959691609529573,5.7356917331690605e-06,0.0685081820530691,0.3771372418957873,-0.006934928559649,1.6750483530533429,17.079777891259642,32.91287429758822,27.645233256283053
1.12,31.222175785739804,131.01047431667993,21.7070311609444,0.0847242496911876,1.4811939750623877,7.731849932751069,-12.010252499513612,5.63952675244628,172.7328179403806,32.85791423619877,15.350834905557385,69.02636526966818,17.501700840234072,138.7268785581236,659.9093751898046,1.274,1.0223979224661404,0,5.9381330140031,75.00003213914121,0.0965812263709512,5.898581539739087e-06,0.0684522266269471,0.3799628073149581,-0.0069732275863933,1.483614569585228,16.794518083737948,33.09055372711968,15.35682032441003
1.13,31.22217507015236,131.01047569312362,22.01265554622946,0.1652755046615137,1.2968793213136662,28.93562017801706,-12.029471149729527,5.613363251549296,367.5328077894322,32.86696828077766,15.385477854804684,68.99720615413698,18.07329506357924,139.3390866366823,660.2537209692568,1.274,1.0223460397860296,0,5.952236803398049,75.00003213914121,0.0966081726441421,6.062637926588646e-06,0.0682441712732305,0.3824622417663151,-0.0069537444998609,1.3073665520243547,16.607916354648292,33.07066421373995,31.835328461042888
1.14,31.22217435425256,131.01047707009,22.317473207004177,0.2431985850438083,1.0954285016536205,14.926369840746826,-12.192410576470207,5.608751928018913,239.6953177322812,33.27745399608206,15.557133482443568,68.9652933826032,18.646632627201832,139.95328748205054,676.8291178806272,1.274,1.0223022138470996,0,5.966119623605412,75.00003213914121,0.09781507839666,6.227865695544302e-06,0.0678851152749111,0.3846166602717641,-0.007003343945116,1.1220971202755718,16.22835633764819,33.44951302018418,20.07260547308283
1.15,31.22217361539284,131.01047847057677,22.63022728221355,0.3218985653117596,0.9070508691019096,14.62825448837136,-12.221129275058168,5.577381249266898,237.4125115347709,33.372493938973314,15.620705283561696,68.9305807570252,19.220977163756828,140.56870456034616,680.6802192120233,1.274,1.0222426194541194,0,5.979809541224292,75.00003213914121,0.0980947830955942,6.393855808610801e-06,0.0673680248581578,0.3864405513835552,-0.0069696382184746,0.9624714587843844,16.00106727955931,33.51496720499964,19.860740462880898
1.16,31.22217288296976,131.01047986432687,22.93949722446352,0.3987841765793229,0.7171448228121406,42.16419804053169,-12.26310293319201,5.544916877667499,490.043774385954,33.53363517206908,15.706622389023776,68.89302505605798,19.795609518963065,141.184579544563,687.2490899318585,1.274,1.02219674531104,0,5.993696225521552,75.00003213914121,0.0985687840678618,6.560692061484176e-06,0.0666961040754376,0.3879107131290192,-0.0069332355933424,0.8205590847584877,15.74437602356126,33.646281076106014,44.26002025679022
1.17,31.2221721396415,131.01048126883433,23.251955710504514,0.4694551601527895,0.5187369769557808,5.377120935863278,-12.454414220198773,5.533051186423841,153.70937929500428,34.10985608382728,15.933604399447638,68.85259892062477,20.36978129131776,141.8001224548832,711.0491849298719,1.274,1.022149394360584,0,6.007263684959975,75.00003213914121,0.1002628816315592,6.728186572741944e-06,0.0658680425576217,0.3890248885561989,-0.0069646046225944,0.6996214525990598,15.306026320565028,34.191337984450385,14.650614954969463
