Time,Latitude,Longitude,Altitude,Angle of Attack,Angle of Sideslip,X-Acceleration,Y-Acceleration,Z-Acceleration,Thrust,True Velocity,Ground Velocity,Pitch,Roll,Yaw,Dynamic Pressure,cp,cg,parachute_deploy_gain,Wind Speed,Wind Direction,Mach,omega_x,omega_y,omega_z,Cmq,Angle of Attack(total),Angle of Attack(gust),True Velocity(gust),Acceleration
0.0,31.222216000000007,131.010392,3.000000004412624,0.0,0.0,0.0,0.0,0.0,2.2828121974499247,0.0,0.0,69.99999999623412,0.0,119.9999999935444,0.0,1.274,1.0271675151847728,0.0,0.0,0.0,0.0,0.0,0.0,0.0,-0.0,0.0,90.0,0.0,0.0
0.01,31.22221599999084,131.01039200000497,3.000002745347096,0.0,0.0,0.0,0.0,0.0,34.242186961749226,3.465174813755316e-14,2.8705476994166025e-14,69.9999999962611,-2.1713911667908447e-11,119.99999999352175,7.352495975525499e-28,1.274,1.0271659134330349,0.0,0.0,0.0,1.0183245502395064e-16,-3.3305335486039093e-18,7.169286865560398e-18,5.624298769768554e-18,-7.715917190115602e-34,0.0,89.99999999999979,3.465174813755316e-14,0.0
0.02,31.222215999994315,131.0103920000094,3.0000030495639742,0.0,0.0,0.0,0.0,0.0,25.871876237766216,3.8197434737535036e-11,2.4171837235633357e-11,69.99999999628672,-1.1921727947863515e-11,119.99999999353136,8.93414285188691e-22,1.274,1.027164492361118,0.0,0.0,0.0,1.1225230367947217e-13,-6.657678965418802e-18,1.4338573731120796e-17,1.1241821275959074e-17,-1.7010872994127372e-30,0.0,89.99999999975682,3.8197434737535036e-11,0.0
0.03,31.222215999994315,131.0103920000094,3.0000030495639742,0.0,0.0,9.81877837424427,-2.5122800045972096e-05,3.3498614629347925,180.34219359854663,1.2659015405517447e-10,1.1364406173918436e-10,69.99999999631459,-1.6431898037347223e-11,119.99999999352724,9.812605835254651e-21,1.274,1.0271551940870716,0.0,0.0,0.0,3.720154642239108e-13,-9.991600645811728e-18,2.150108433310316e-17,1.6859343782149594e-17,-8.453698244545225e-30,0.0,89.99999999919412,1.2659015405517447e-10,10.374487003414373
0.04,31.222215999994315,131.0103920000094,3.0000030495639742,18.83801224594347,-0.0001111777826462,48.68248476615645,-1.016330065874988e-05,3.3497854396877287,548.635972453808,0.1556173050466994,0.0975908358443652,69.99999999633813,-2.0932768807056278e-11,119.99999999352085,0.0148286043323172,1.274,1.027133720825283,0.0,0.0,0.0,0.0004573186944143,-1.3322134194415637e-17,-1.04744143520903e-11,1.336824254131964e-11,5.0626055458604615e-15,18.83801224625964,89.06236267790787,0.1555998412814392,48.79759610369246
0.05,31.22221599164764,131.01039201704114,3.002326315126219,5.772385609593056,-4.395076213712875e-06,71.20344550265034,4.905512691849684e-05,3.349217396035405,761.6984298824663,0.8326471944351852,0.3620326097059287,70.00000001316391,-1.0866255162484559e-10,120.00000000231074,0.4245281043148827,1.274,1.027093426565204,0.0,0.0,0.0,0.0024469331205246,-5.0245994431125096e-18,-7.32924164976824e-07,2.217344936947165e-11,1.895424184525467e-09,5.772385609594774,84.74112356985832,0.8326465040582279,71.28217104309611
0.06,31.22221596664444,131.01039206837547,3.015081730143309,4.056581213689704,3.169093567502233e-05,53.16249142470188,0.0001203825427859,3.3481235983850643,590.4875390737236,1.657216205300742,0.6755452977614796,69.99999964391398,-3.9285905645317736e-10,120.0000000287861,1.6816755551786196,1.274,1.027050317124926,0.0,0.0,0.0,0.0048701272653724,3.095757869075056e-13,-7.483541766772344e-06,3.074135420506017e-11,3.8518749565858254e-08,4.056581213813337,79.59316473687034,1.657221183301277,53.26781792157489
0.07,31.22221592883117,131.0103921460222,3.034593611434361,4.115662018628709,6.450869598349036e-05,81.18203554989698,0.0001593212642178,3.347059402768047,855.2937749779172,2.099899704220947,0.8579771146174259,69.99999543281565,-8.233801910783518e-10,120.00000006883089,2.700101932075157,1.274,1.027003201295312,0.0,0.0,0.0,0.006171060252819,3.4704292086287e-12,-2.6327204536316785e-05,1.9541142932033486e-10,1.7170712165327165e-07,4.115662019133419,76.90111966094352,2.099909837223217,81.2510043180746
0.08,31.22221588914193,131.01039222747755,3.0542761843835606,3.459696193892355,8.037433511260004e-05,16.298214211652088,0.0002413456836072,3.344878926597744,241.2171988638792,3.051964775152957,1.2149999716613011,69.99998042886442,-1.0128995578004475e-09,120.00000011111383,5.703497661025892,1.274,1.0269597189470347,0.0,0.0,0.0,0.0089689344021769,1.458982438104473e-11,-5.702803872814215e-05,7.043261397829576e-10,5.405702492731987e-07,3.459696194824858,71.30331929508368,3.051977400323993,16.63790856991177
0.09,31.2222158241468,131.01039236098703,3.0886872184095737,4.313676956300389,0.0001337561018991,50.35975918308536,0.0002293282821279,3.344215841840564,563.0937377043203,2.893161298572128,1.191209213966114,69.99994788602814,-7.098432023887522e-10,120.00000018106356,5.125380275808925,1.274,1.026918932011013,0.0,0.0,0.0,0.0085022553945842,3.8672912027154325e-11,-0.0001115933708951,2.016054215232918e-09,1.0027525988343615e-06,4.313676958370176,72.2316578138625,2.893182308931483,50.47067588835877
0.1,31.2222157788302,131.01039245392113,3.109877853389092,4.035124630954496,0.0001457499816535,47.804664812504015,0.0002878217657545,3.341734392237128,538.7437595981891,3.5677148583138303,1.4531247507621967,69.99988403958329,1.9248461973355822e-09,120.0000002323013,7.7939962029572305,1.274,1.0268846934974103,0.0,0.0,0.0,0.0104845969583028,8.579678749070606e-11,-0.0001726817043215,3.984565639703107e-09,1.913455350430327e-06,4.0351246335824245,68.43243098813296,3.567737752667411,47.92132267234452
0.11,31.222215703308,131.01039260899836,3.148841432727305,4.043401107254707,0.0001752764476999,37.67622367577205,0.0003286462930162,3.3392563999062723,442.86563930529127,4.034183355956686,1.6436552022667772,69.99978525353545,7.302513231814865e-09,120.00000031883242,9.96528118825134,1.274,1.026848594915519,0.0,0.0,0.0,0.0118554331868328,1.5870341853361987e-10,-0.0002596204409236,7.232030302688121e-09,3.252930323390323e-06,4.04340111104746,65.92012987243639,4.034210888316708,37.82391391539392
0.12,31.222215627491828,131.01039276462643,3.186995101203875,4.17874459224363,0.0002066711490009,41.15991989399172,0.0003576945202315,3.336766085769504,475.58594813540793,4.361857560629481,1.7865750500940407,69.99963665601238,1.781774420198147e-08,120.00000041104812,11.649831899889556,1.274,1.0268114448194128,0.0,0.0,0.0,0.0128183893919737,2.682972478760441e-10,-0.0003710216542429,1.2215991071490164e-08,5.026311388647148e-06,4.178744597345269,64.21681651392016,4.361890024457652,41.29495143136631
0.13,31.22221554594398,131.01039293200228,3.2277173449026786,4.202734874672792,0.0002327160860324,45.44886120763352,0.0003953741266062,3.333578629398489,515.9156326236897,4.792165672014363,1.9646716520715424,69.99942424225341,3.613383418913551e-08,120.00000051758742,14.061726603124043,1.274,1.026779572895131,0.0,0.0,0.0,0.0140829618979635,4.248908088871395e-10,-0.0005056103199642,1.908859219307828e-08,7.5253154423526356e-06,4.202734881104192,62.048594618540655,4.792202226971676,45.570952718869485
0.14,31.222215454191247,131.01039312033683,3.2737880595608355,4.184830647080848,0.000257138757548,42.32232525579263,0.0004369426767266,3.329727443445437,486.2390860568421,5.269261304374574,2.158791628597544,69.99913473613935,6.515851355725497e-08,120.00000064630268,17.000925061330125,1.274,1.0267449573927567,0.0,0.0,0.0,0.0154850332441425,6.382432869666793e-10,-0.0006690086306358,2.8426433029675884e-08,1.0948547100483978e-05,4.184830654966803,59.74181173116622,5.269301695636157,42.45310707234106
0.15,31.222215353826755,131.0103933263496,3.3242182719560263,4.21963947489699,0.0002846467688673,40.886944113003565,0.0004726792395108,3.325585650885676,472.5421858721398,5.6781946837482895,2.329510773545807,69.99875162806286,1.0876776246115984e-07,120.00000079954532,19.742017654108928,1.274,1.0267115958081523,0.0,0.0,0.0,0.0166867950518804,9.204756288136623e-10,-0.000865746478554,4.08948221429571e-08,1.526771148078443e-05,4.219639484480408,57.84996018384879,5.678239395958187,41.02196629910223
0.16,31.222215247130432,131.01039354534575,3.3775922280208457,4.253495568077899,0.0003118339050386,32.26872905470846,0.0005078415214353,3.32090791922544,391.1218908297597,6.081244877834229,2.4981889727471702,69.99825581174558,1.7187028096464329e-07,120.0000009800088,22.644030778355887,1.274,1.026675762255412,0.0,0.0,0.0,0.0178712695992133,1.2856146928958252e-09,-0.0010961187242953,5.6923362293832417e-08,2.0702404729358337e-05,4.253495579487569,56.06022383757386,6.081293860589489,32.43916312841722
0.17,31.22221513260033,131.01039378041813,3.4348437275053194,4.364838523348639,0.0003448792023946,40.840448242802736,0.0005326487904353,3.3162727284953744,471.78125980632416,6.362544479165355,2.6250789114832647,69.99762801982864,2.5997588617291615e-07,120.00000119506798,24.78723182122683,1.274,1.0266409836796937,0.0,0.0,0.0,0.0186979513961862,1.747791994374917e-09,-0.0013624931601664,7.706724512977917e-08,2.6923621797558364e-05,4.364838536947241,54.85936171416122,6.362598652663785,40.97486885600156
0.18,31.222215014088988,131.01039402363364,3.4935801365785646,4.353948305387995,0.0003681615230806,33.992183768165326,0.0005718025428208,3.310131992647221,407.1015672119096,6.81502088160835,2.810667639293692,69.99684761766231,3.794979223522764e-07,120.00000144728236,28.437950785509614,1.274,1.0266048342046536,0.0,0.0,0.0,0.020027681385988,2.3221419748804155e-09,-0.0016616990447559,1.0147209890543081e-07,3.517105786247627e-05,4.353948320923495,52.99157233768714,6.815078712285162,34.152972512863755
0.19,31.22221488419521,131.01039429023237,3.558399965607869,4.432620772533925,0.0003996774584738,38.45149959021069,0.0005986099513107,3.304145139297767,448.95313283182486,7.1223367465208405,2.946425726785696,69.99589577323147,5.440084577183829e-07,120.00000176148238,31.060341085698347,1.274,1.026566130444714,0.0,0.0,0.0,0.0209308229359413,3.022391489754689e-09,-0.0020041563310821,1.3135864879722746e-07,4.433199397898183e-05,4.432620790516937,51.77883352025967,7.122399527709208,38.59320142454953
0.2,31.222214751373183,131.01039456280608,3.624052454705669,4.443889400961181,0.0004246617145652,35.23432408779927,0.0006337972852267,3.2968110145188256,418.5156301991588,7.530482904611057,3.1167566004785483,69.99474776398331,7.478025600151903e-07,120.00000211715036,34.72195181863731,1.274,1.026529240027363,0.0,0.0,0.0,0.0221302820454282,3.866698391504749e-09,-0.0023849544920781,1.668144671071589e-07,5.57780533277244e-05,4.443889421210987,50.22448880200342,7.530549610317194,35.38822625098952
0.21,31.222214608673173,131.01039485566503,3.6948551453492566,4.493351735844891,0.0004538195602194,33.79371564104691,0.0006629296043866,3.2891790438445727,404.8187610144608,7.868284042829251,3.2629204975089228,69.99338155599101,1.0150082652278477e-06,120.00000255293388,37.906665490338085,1.274,1.0264923657015164,0.0,0.0,0.0,0.0231230169900677,4.871073773182836e-09,-0.0028117605859743,2.089322918608601e-07,6.870935089180403e-05,4.493351758715364,48.992529909481824,7.868355328639073,33.95340801819282
0.22,31.22221446109996,131.01039515850383,3.767700382407304,4.5412639153933885,0.000482649303782,41.008966751568416,0.0006914639179131,3.2808061382386606,472.5421858721387,8.20057841132235,3.4071691679735228,69.9917708347139,1.3454961520984431e-06,120.00000305929996,41.175744234065135,1.274,1.0264494137127138,0.0,0.0,0.0,0.0240995709751246,6.054779813287368e-09,-0.0032829112061357,2.580881224843564e-07,8.3609968899004e-05,4.54126394098788,47.82515604752711,8.2006542256977,41.13999323561041
0.23,31.22221430675399,131.0103954752338,3.843768625625224,4.52371495179584,0.0005047555656171,33.98493478127787,0.0007294889663961,3.2705214710765107,406.340642146096,8.647938096586296,3.5908865300848416,69.98989017772566,1.7539876018835507e-06,120.00000365514876,45.79040229326471,1.274,1.0264133390858623,0.0,0.0,0.0,0.0254142776666487,7.436335125872812e-09,-0.0038001790077148,3.1489825108822685e-07,0.0001020628978177,4.523714979897577,46.31461705147579,8.648017383405135,34.14194053232237
0.24,31.222214142622448,131.0103958120587,3.92493179063287,4.57837522350066,0.0005351929930195,35.051650311058864,0.0007555049947555,3.26053011385611,416.2328240017099,8.954297884844461,3.72617527247482,69.98771316795013,2.25257161141768e-06,120.0000043564586,49.09180568115741,1.274,1.0263750048312463,0.0,0.0,0.0,0.0263146218848643,9.034877387788232e-09,-0.0043732521010013,3.809642748985157e-07,0.00012161410144,4.578375254714954,45.32798984252032,8.954381952763216,35.20297212911011
0.25,31.22221397517227,131.0103961556623,4.0071748888306855,4.6034117733065,0.0005618935542827,36.03738579534623,0.000785606492708,3.249069743648399,425.3640807915084,9.311611941121669,3.8789349536029696,69.98520781816889,2.8559738498748624e-06,120.00000517181904,53.08749562138344,1.274,1.0263373768840591,0.0,0.0,0.0,0.0273647110956883,1.0873791100894836e-08,-0.0049950711786164,4.5609738277273444e-07,0.0001444478241125,4.603411807525074,44.2165428352526,9.311700203154778,36.183554686886296
0.26,31.22221379934012,131.01039651647062,4.09364247475714,4.621386912291471,0.0005881033207375,39.29107511182762,0.0008162761165496,3.236407051295005,455.80158342417656,9.67833954512075,4.034902068846398,69.98234620927953,3.5784678110229355e-06,120.00000612171208,57.350948423913096,1.274,1.0263006300381676,0.0,0.0,0.0,0.0284424679130479,1.2973286442992724e-08,-0.0056712051373577,5.414206381221602e-07,0.0001704578711045,4.621386949630312,43.12063533194282,9.678431924174348,39.42414126789902
0.27,31.222213616776543,131.01039689108487,4.183310605341074,4.617158109135719,0.0006115457810536,35.90419462403674,0.0008503454714941,3.221982799915672,423.8421996598744,10.088790784535757,4.205862468567124,69.97909721779352,4.436165972465058e-06,120.000007221354,62.31798301949865,1.274,1.026260090595354,0.0,0.0,0.0,0.0296487219805601,1.5355910600537293e-08,-0.0064045199323113,6.379142666348734e-07,0.0002006609239367,4.617158149547818,41.94410287616451,10.08888684592241,36.048472443180565
0.28,31.22221342607797,131.0103972823952,4.277051150896916,4.642105655370123,0.0006389739579882,41.51133203546672,0.0008785747638736,3.2071101123224945,476.3468732012228,10.432377224420517,4.35383399240675,69.97542808435722,5.446665372087172e-06,120.00000849080963,66.63429581008447,1.274,1.0262212716723291,0.0,0.0,0.0,0.0306584788590473,1.8045308789081613e-08,-0.0072006835403936,7.469524967369969e-07,0.0002332868227611,4.642105699250441,41.0023231023774,10.432477594215127,41.63503624837164
0.29,31.22221323001776,131.01039768469093,4.373143569786686,4.62134615173668,0.0006600657405645,33.17552944492765,0.0009148746278066,3.1894209319791806,397.9703104221098,10.876662296046485,4.536381530986506,69.9713027936179,6.629751536885327e-06,120.00000994797426,72.43000748232016,1.274,1.026183007522519,0.0,0.0,0.0,0.0319641703260467,2.1067646517035105e-08,-0.0080566154554079,8.688043379161898e-07,0.000272130659453,4.621346198772975,39.83162628795024,10.876765978930557,33.32848872465723
0.3,31.22221302403368,131.01039810736614,4.4744193758467325,4.664362353358112,0.0006905183788532,31.08096762732793,0.0009381960428197,3.172549142946348,378.1859457108735,11.168362145070317,4.66647911311536,69.96668711012893,8.005507138509574e-06,120.00001161892672,76.36634300732833,1.274,1.0261430389738484,0.0,0.0,0.0,0.0328214509167604,2.4447409007156216e-08,-0.0089829108229115,1.0056222251461646e-06,0.0003115527202986,4.664362404357781,39.09908960432563,11.168470611443622,31.242464973103964
0.31,31.22221281503337,131.01039853619727,4.576593712520673,4.700143580504286,0.0007196683316923,32.79732593144512,0.0009620705970519,3.154230688182399,394.1656220930229,11.470279728974068,4.800072153432283,69.96154070456518,9.597499105113692e-06,120.00001352112182,80.55022837857167,1.274,1.0261054058068628,0.0,0.0,0.0,0.0337087616009043,2.8214060606649844e-08,-0.0099686353219717,1.1565909895184251e-06,0.0003550834484269,4.700143635477137,38.36463422765983,11.47039277421126,32.94865339301887
0.32,31.222212598991007,131.01039897947376,4.68216432480395,4.718667719113184,0.0007464384342556,35.7316568886908,0.0009885845337584,3.133859770838664,421.5593934624264,11.808280530415894,4.946054328851105,69.95582953472353,1.14278227255889e-05,120.00001568218067,85.36654007972253,1.274,1.026068246703101,0.0,0.0,0.0,0.0347021168382987,3.2392058795580455e-08,-0.0110163301561155,1.3226102501723267e-06,0.0004039614423012,4.718667778018562,37.5686120062341,11.808397780690962,35.8688218659563
0.33,31.222212376029034,131.0103994369436,4.791055524254013,4.72141404831576,0.0007708346814671,35.42013590291081,0.0010176135371143,3.1111955852784385,418.5156301991632,12.181577273013426,5.104163223586657,69.94951809396906,1.351997394754887e-05,120.00001812674968,90.84831229869296,1.274,1.0260310883392356,0.0,0.0,0.0,0.0357992034445943,3.700677535501642e-08,-0.0121310534481307,1.5051409581878843e-06,0.0004588955105349,4.721414111097893,36.7208578211118,12.181698355442045,35.55651229220977
0.34,31.222212145785647,131.0103999093516,4.903491659547144,4.73024573449122,0.0007962944975467,27.63851074646407,0.0010446307681611,3.0871492806781062,345.4656368807584,12.53557620048282,5.2556261014174765,69.94256797855994,1.5899658158227497e-05,120.000020882338,96.20413272674828,1.274,1.0259901535019136,0.0,0.0,0.0,0.0368395817555172,4.208561016221623e-08,-0.0133180771902383,1.7057647550599631e-06,0.0005184333231541,4.730245801363397,35.94841996438923,12.535701282129995,27.810389570354005
0.35,31.222211909310875,131.01040039453565,5.018822212845608,4.780248518778662,0.0008286678570753,30.332092807652543,0.0010618579815451,3.063967690608957,370.5765700527057,12.774786382148209,5.367579971644358,69.93493776125636,1.8594985713558667e-05,120.00002397748868,99.9096898192772,1.274,1.025950003202184,0.0,0.0,0.0,0.0375426220587071,4.7658312175989686e-08,-0.0145774693288123,1.9252724355785177e-06,0.0005782798420984,4.780248590437683,35.44790728185619,12.774916548990808,30.486451961956565
0.36,31.22221166933814,131.0104008868675,5.135354490370708,4.798132156899578,0.0008554457330409,34.32674769697476,0.0010851169437774,3.0374319611165923,407.8625232777224,13.09301701329486,5.506730645516068,69.92658597246795,2.163521613217148e-05,120.0000274401514,104.94818266210537,1.274,1.0259105142325406,0.0,0.0,0.0,0.0384778908056978,5.3755109608570216e-08,-0.0158991451700967,2.162609490834569e-06,0.0006464142451675,4.798132232978766,34.796094028187134,13.09315138639638,34.46087058603792
0.37,31.222211421355144,131.01040139563804,5.255882891363927,4.797392186816851,0.0008791822061288,32.551601855236584,0.00111162791192,3.0078619428913056,391.1218908297639,13.457513730739372,5.661815946371007,69.91747693543164,2.5047738471809164e-05,120.0000313040604,110.87154396328836,1.274,1.025872170958032,0.0,0.0,0.0,0.0395491312153729,6.040098808671168e-08,-0.0172926678053148,2.420031948898497e-06,0.0007226353721561,4.797392267189059,34.07332166419882,13.457651832357364,32.69027405888565
0.38,31.22221116634284,131.01040191882743,5.379799334000849,4.811698494594017,0.0009057112478668,34.02947987649063,0.0011338447913587,2.9774881690446744,404.81876101445977,13.77554886562956,5.800899861213392,69.90756948297444,2.886339581486796e-05,120.00003560072224,116.17243393848278,1.274,1.02583050512925,0.0,0.0,0.0,0.0404838339452728,6.762496638941508e-08,-0.0187646375218858,2.69955777313946e-06,0.0008026686661094,4.8116985796350695,33.46655348088405,13.775691134419684,34.15949264475229
0.39,31.222210906095896,131.01040245274032,5.505993307722699,4.813508003664984,0.000929862892873,29.00025983045028,0.0011579891265804,2.9442136901860865,357.6406249338268,14.124492165837273,5.950648592462506,69.8968186645841,3.311602501056718e-05,120.00004036395212,122.13093644173792,1.274,1.02579027384009,0.0,0.0,0.0,0.0415093739609825,7.545934774906889e-08,-0.020311592409804,3.0013532510753577e-06,0.0008908380763632,4.813508093268025,32.821616487639595,14.124638228358922,29.149330452482886
0.4,31.222210638473225,131.0104030017851,5.635788650457906,4.841647069358873,0.0009592124397379,27.71178845184976,0.0011749448424961,2.91135549588368,345.4656368807565,14.390874239274588,6.07193451174791,69.8851815212744,3.783947407715338e-05,120.00004563180136,126.77947425345651,1.274,1.0257493418632293,0.0,0.0,0.0,0.0422922854866381,8.39343718693383e-08,-0.021938519432511,3.3271332720311508e-06,0.0009803271643914,4.841647164150728,32.348088166612904,14.391024912012275,27.864299944624147
0.41,31.22221036681104,131.01040355909262,5.767123077463226,4.86553909860892,0.0009876699832274,31.306062598221665,0.0011918093836199,2.876450850006428,378.9468707766882,14.663028799871563,6.195223154320929,69.87261222561014,4.307011032901644e-05,120.0000514391194,131.6183642808765,1.274,1.025708445186429,0.0,0.0,0.0,0.0430921644173401,9.308325447883581e-08,-0.0236371933433427,3.6760977501392174e-06,0.0010761942383903,4.865539198612839,31.87689439156756,14.663183942709727,31.437931330109585
0.42,31.22221008906472,131.01040412887247,5.901259531771367,4.867510642114694,0.0010118258958528,35.308283402190774,0.0012128114559048,2.8374461227958245,416.23282400171047,14.9952917972178,6.33928625560071,69.85906967380902,4.884273094936628e-05,120.00005782486392,137.64909586091787,1.274,1.0256701057426505,0.0,0.0,0.0,0.0440686959134695,1.0293499639582845e-07,-0.0254093547296826,4.049238334851429e-06,0.0011830797791891,4.867510747027452,31.315270489291198,14.995450734457847,35.422111438762386
0.43,31.222209804115888,131.01040471342728,6.038886819939341,4.854590670645608,0.0010330089741511,31.00586934514032,0.0012363751872706,2.794478603999558,375.90313951343126,15.369430568701889,6.497852263156962,69.8445117629242,5.519340856908871e-05,120.00006482835984,144.60167924299955,1.274,1.0256308158337524,0.0,0.0,0.0,0.0451682983415116,1.135186446762958e-07,-0.0272634397889413,4.449073329427772e-06,0.0013010625065656,4.854590780289497,30.70250814963406,15.369592833372094,31.13154422839874
0.44,31.22220951192321,131.01040531284193,6.180028459770617,4.866912332640401,0.0010595850174406,28.57707721036899,0.0012525768202179,2.752165534925872,353.07501253892326,15.659290812546615,6.627318538707029,69.82889155423543,6.216182865383864e-05,120.00007249162944,150.1053167542629,1.274,1.025586171750536,0.0,0.0,0.0,0.0460202245100907,1.2486676023179565e-07,-0.0292060158163984,4.8779154055816594e-06,0.001420032405556,4.866912447705031,30.24619499837236,15.659457251771938,28.709297424144207
0.45,31.222209215425703,131.01040592106523,6.322872201489905,4.881836476567178,0.0010866574689855,33.31904824532484,0.0012669045761511,2.7082028218433374,397.2093853562887,15.934249290371609,6.751662050993672,69.81215834018458,6.97909417564726e-05,120.00008085697964,155.42080512416243,1.274,1.0255397023523487,0.0,0.0,0.0,0.0468283602442113,1.3701614206272197e-07,-0.0312276295846745,5.334643585560923e-06,0.0015449645531859,4.8818365972149325,29.82567893138932,15.934419982127675,33.428929688274074
0.46,31.22220891307435,131.0104065412864,6.468371919199588,4.869610441729251,0.0011078049156487,38.95909776354321,0.0012868374716666,2.6582856015412624,449.7140588976424,16.292139278621757,6.904766425053949,69.79426683863348,7.812149592850748e-05,120.00008996920153,162.4785746623087,1.274,1.02549635315424,0.0,0.0,0.0,0.0478802236363867,1.499987870203256e-07,-0.0333272350234362,5.819761874615242e-06,0.0016858511402973,4.869610567434908,29.29014635640275,16.292313292210977,39.04968351401366
0.47,31.22220860266524,131.01040717804253,6.6178810515614845,4.838450928223533,0.0011247917292402,26.253747818137555,0.0013104398935566,2.6026193242279367,331.0078106302504,16.710658191447514,7.078951441335346,69.77517236812905,8.719457259907165e-05,120.0000998741591,170.9309671061642,1.274,1.025453319323251,0.0,0.0,0.0,0.0491102725711187,1.6384464803343264e-07,-0.0355167087264168,6.3368207228363735e-06,0.0018427306558807,4.838451058652396,28.68386015667837,16.710834873319172,26.382435512333956
0.48,31.222208284201663,131.0104078313267,6.771393590864176,4.869339340099417,0.0011561785713505,25.860860976019296,0.0013165328518772,2.5543454292827983,327.20312230115803,16.911139899671,7.177575416403102,69.75482343794755,9.70562828082882e-05,120.00011062072316,175.0543877818846,1.274,1.0254092882449153,0.0,0.0,0.0,0.0496995461609974,1.7858865391586845e-07,-0.0378054080201581,6.88909442277235e-06,0.0019849793891693,4.869339477030596,28.40887970825325,16.911321511776286,25.986704537635287
0.49,31.22220796480208,131.01040848648364,6.924537656029012,4.881367714530694,0.0011829003785372,32.565703383222065,0.0013261973190012,2.5011623511055703,389.6000096981238,17.169005224738054,7.296160258358563,69.73316318155707,0.0001077573203115,120.000122255028,180.4309832312717,1.274,1.025367445590036,0.0,0.0,0.0,0.05045746454003,1.942747077649401e-07,-0.0401641298712614,7.47069711110948e-06,0.002140948887153,4.881367857509675,28.058569663954906,17.169191034294997,32.66161128464712
0.5,31.222207637929923,131.01040915697027,7.081324512896956,4.862566137860805,0.001202418260511,33.47759680712428,0.0013425340759632,2.4399894027711366,397.970310422106,17.52898693231981,7.450304424940405,69.71015149227495,0.0001193385310595,120.0001348274002,188.0736471953394,1.274,1.0253278572281015,0.0,0.0,0.0,0.0515154948878309,2.109295159784217e-07,-0.0426011733481599,8.084173008518589e-06,0.0023184335011768,4.862566286171007,27.57768313050809,17.529175807738486,33.56639745442473
0.51,31.22220730314019,131.01040984370235,7.24202048914867,4.8479762258125,0.001223054804074,25.49162310288008,0.0013562860883156,2.3767006597692686,323.39843497208153,17.86914397471067,7.597652147346554,69.68574349602717,0.0001318441288964,120.00014838524436,195.4407439266201,1.274,1.025286455263166,0.0,0.0,0.0,0.0525152689856776,2.2858192086249162e-07,-0.0451315948093539,8.734206149830708e-06,0.002503767471626,4.847976379721193,27.13799345359824,17.86933609171003,25.602178740977283
0.52,31.222206962738102,131.01041054193402,7.405210501673173,4.865306299521403,0.0012516517170965,30.733671928447727,0.0013599291289974,2.317711624364424,372.098451184342,18.08534843773428,7.701914987606457,69.65988568649581,0.0001453248538387,120.00016298000436,200.19561780583155,1.274,1.0252426840672306,0.0,0.0,0.0,0.0531507657929359,2.4726951523704535e-07,-0.0477531686556663,9.421346966092632e-06,0.0026812161964639,4.865306460134566,26.8699055233151,18.085545046726228,30.820940596104087
0.53,31.222206619320115,131.01041124632013,7.569307468221277,4.848802699234936,0.0012715119568563,32.301199055744725,0.0013711327835325,2.2490252325653923,386.55624643486095,18.41963113311156,7.8474319110539055,69.6325258319474,0.0001598315062727,120.0001786629144,207.6614205945027,1.274,1.0251993415311351,0.0,0.0,0.0,0.0541332845214831,2.67031759303889e-07,-0.0504479325599339,1.0141887756417996e-05,0.0028848299490111,4.848802865552398,26.45837260670532,18.419830861742675,32.37940050117613
0.54,31.22220626697288,131.01041196903336,7.737918664599091,4.831496690588052,0.0012913635058467,28.31291960103712,0.0013809098107221,2.177242866245296,349.2703242098436,18.75116898748492,7.992112829440902,69.60362200959217,0.0001754082864028,120.00019548734956,215.20067397992847,1.274,1.0251561018460285,0.0,0.0,0.0,0.0551077428911958,2.878941684235108e-07,-0.0532336286085667,1.090122304443916e-05,0.003098869611663,4.831496862756785,26.061835558272342,18.751371834390056,28.396510432451375
0.55,31.222205908994248,131.01041270328463,7.909026079894722,6.513254524653416,3.221351441463697,30.068444254434496,-0.1684980275329739,2.0122048554421923,365.2500005919912,19.321439881558085,8.113323699629928,69.57312211246325,0.0001921068626005,120.00021350480982,228.48556729167785,1.274,1.025112921033824,0.0,1.2532017829729258,0.0,0.0567838195707577,3.0989272306468813e-07,-0.0561100530405476,1.1700476995263424e-05,0.0033655954893797,7.263252841114067,28.864298325220624,19.8271820386331,30.136169296172707
0.56,31.222205546564343,131.01041344664463,8.081909946161325,7.147632005732116,2.5760702967492706,28.04621552612064,-0.1801124367129838,1.8713064040150773,346.22656194657776,19.74122518808932,8.249440985479161,69.54097415464405,0.0002099796112633,120.00023276987916,238.5177983352556,1.274,1.0250709539098009,0.0,1.2577738927225492,345.0001478400497,0.0580176406259935,3.33055098311298e-07,-0.0602110325869796,0.0020678997594897,0.0036899859962421,7.595414150769229,27.93904775177684,20.145737046250648,28.109152130314726
0.57,31.22220517743276,131.01041420478916,8.258244915209472,7.111023230096635,2.545396271299606,27.73784651910312,-0.2162342718734118,1.7598048960463453,343.1828296833045,20.013515214507272,8.37184766574281,69.50647648621381,0.0033802394768671,120.00361702871795,245.1387599193384,1.274,1.0250279191823897,0.0,1.2623102824056371,345.0001478400497,0.0588179929098261,3.590105200913368e-07,-0.0649104822179671,0.0037848647854616,0.0040327880548456,7.550654830889674,27.61680978675909,20.413213619479265,27.794456282679864
0.58,31.222204803618485,131.0104149723188,8.436478759780494,7.070837206513888,2.5134246061974777,36.67542289174528,-0.253643231046515,1.6436551679583251,426.12500585731766,20.29117362392736,8.496448027207661,69.46928604104673,0.0091659389245418,120.0097945555366,251.98351788267647,1.274,1.024981594484354,0.0,1.2668518344190975,345.0001478400497,0.0596341269009272,3.878296016456044e-07,-0.0697155274404691,0.0055281719921847,0.004391333679339,7.502128681549792,27.293455179771108,20.685854824584855,36.7131118469705
0.59,31.22220442409059,131.0104157520076,8.617377877006145,6.9821635746704125,2.4650603521572254,29.65703037495276,-0.2942572111573528,1.510395641163608,360.68438819710633,20.703189710622127,8.668712149703657,69.42934201876123,0.017590131066405,120.01879143982356,262.31599950779486,1.274,1.0249386802161349,0.0,1.2713624980482177,345.0001478400497,0.0608451332023187,4.195655539455201e-07,-0.074626810540334,0.0072973586588038,0.0047960571876052,7.402500782654304,26.81737138170713,21.090281040859647,29.696924638083903
0.6,31.2222040351312,131.01041655134784,8.803154584189535,6.942828516363879,2.434622069197435,26.32180599705528,-0.3344329617386116,1.3858086566786287,329.4859594986072,20.96641993602,8.788487413969367,69.38658311223479,0.0286727225991027,120.03063059211352,269.02402727078726,1.274,1.024891335813742,0.0,1.2758612198151196,345.0001478400497,0.06161887637564,4.542655736385024e-07,-0.0796758466454262,0.0091033312591661,0.0051855572124822,7.355352408516196,26.5249980623043,21.34873440193689,26.360382811815118
0.61,31.222203643970506,131.0104173554813,8.989443388742048,6.905979080488004,2.4056139243076493,30.928606803597106,-0.3755331997159746,1.2586767326831332,372.0984511843332,21.21475796104464,8.903128553740025,69.34092978232526,0.042447640082456,120.0453500788603,275.42978532878806,1.274,1.0248423929069768,0.0,1.2804004888431295,345.0001478400497,0.0623488559009767,4.920084721078298e-07,-0.0848247177125484,0.0109322957475945,0.0055859519913831,7.3110512635460605,26.253856233774897,21.59251990244755,30.95648576813912
0.62,31.22220324706528,131.0104181716904,9.178376142430276,6.838907975206787,2.366633885844439,38.56623632291834,-0.4194210720243981,1.118171726781554,442.86563930529206,21.548060002360256,9.048163225317776,69.29232408509957,0.0589251383539333,120.06296288532457,284.14709120951966,1.274,1.0247996097896497,0.0,1.2848731019267905,345.0001478400497,0.0633285448748017,5.32843884041247e-07,-0.0900680652200833,0.012782175465028,0.0060243171252657,7.234983807239257,25.892715302775517,21.919704282725345,38.58472244504835
0.63,31.222202842498405,131.01041900390848,9.371090627003383,6.741762874309983,2.317990120966827,21.70821649487353,-0.4668552751816309,0.9617570834179706,286.11251274707456,21.972083960139766,9.22578209402536,69.24071098830898,0.0781097007269546,120.08347601853316,295.43457867572494,1.274,1.024756158874558,0.0,1.2893287937088056,345.0001478400497,0.0645748679939511,5.768124060623946e-07,-0.095424861547109,0.0146592866469061,0.0065080902574253,7.127385353892964,25.44265940206164,22.33609368013146,21.7345253898899
0.64,31.222202429388485,131.0104198539337,9.568096936393689,6.732374582560915,2.299761528177436,21.319850451647767,-0.5094913025261891,0.8339902530970341,282.3078244179702,22.107240515282857,9.300551715136224,69.18602442276662,0.1000126271475361,120.10690397236404,299.0747043905744,1.274,1.024708534665538,0.0,1.2937962563915777,345.0001478400497,0.0649722308240125,6.23964429566753e-07,-0.1009157358826042,0.0165704509549943,0.0069247801663563,7.112622914264779,25.304679707946374,22.46838921918368,21.342238505138962
0.65,31.22220201784112,131.0104207010282,9.763368697702242,6.69588846994694,2.272695012492864,37.98219762063048,-0.5545520080644522,0.6941951701589398,436.7781447787504,22.320158396057668,9.403271189856168,69.12818630234501,0.1246525411209562,120.13326927996664,304.85758922862175,1.274,1.0246641738210605,0.0,1.298285208711548,345.0001478400497,0.0655981318427396,6.743870726937153e-07,-0.1064657598128961,0.0184895293390188,0.0073758427643449,7.069407812166631,25.085896338140596,22.677058885875866,37.9925883687404
0.66,31.222201598792005,131.0104215637756,9.96229652904422,6.582120578603,2.220015101777422,32.26219495494942,-0.6073511910214228,0.5175721802108212,383.5125151715984,22.782911398404423,9.595901597676288,69.06716137265913,0.1520060947443997,120.16254979775316,317.623489684213,1.274,1.0246195561629028,0.0,1.3026592831058548,345.0001478400497,0.0669582963132084,7.280989711269623e-07,-0.1120919001933348,0.0204222338143927,0.0079264655535836,6.944859697233,24.617639110748197,23.13154330651829,32.27206190719966
0.67,31.22220116813499,131.01042245055504,10.167276505451769,6.516414723904073,2.184000076630701,22.1125256218445,-0.6574504114179557,0.3568946978471347,289.15624401033847,23.077744082210785,9.72857234935435,69.0029044864019,0.1820559357177677,120.19472997856508,325.8909709670967,1.274,1.024572383541697,0.0,1.3070411882738666,345.0001478400497,0.0678249576101109,7.851140987013565e-07,-0.1178545211538235,0.0223887467432461,0.0084416467819385,6.871166650713121,24.325692895008075,23.4207229409587,22.125175801460983
0.68,31.222200735781424,131.01042334107137,10.372444792178111,6.483026147228923,2.159164743969705,27.71363326060236,-0.7049615932307299,0.2094530238502539,340.89999248584934,23.2497506766368,9.817217290647294,68.93533568254519,0.2148118021733881,120.22982348180004,330.76052000632774,1.274,1.0245245285832842,0.0,1.3114800490747431,345.0001478400497,0.0683306391821136,8.455142373133079e-07,-0.1237078946326544,0.0243732369898006,0.0089267780162922,6.83166932551218,24.15542697830017,23.588831212142143,27.723389221383012
0.69,31.222200300265165,131.0104242383285,10.57867402156179,6.40901651413631,2.121182535713457,34.21791985344032,-0.7574802068435541,0.0392224111754769,401.0140726853658,23.555433804407528,9.95445580866092,68.86440107955872,0.2502570215693721,120.26781591542384,339.50852126723606,1.274,1.024479631064582,0.0,1.3158470563219005,345.0001478400497,0.0692291979911723,9.093519573315795e-07,-0.129617555893227,0.0263639678653579,0.0094760065824936,6.74952773292794,23.859241976981934,23.88855227041595,34.226325449246865
0.7,31.222199855929297,131.01042515384887,10.789253603206788,6.314127430349677,2.07676563991588,28.65559571585923,-0.8137312002740223,-0.1467009985052829,349.270324209851,23.930097130868432,10.117137389828509,68.7900664219716,0.2883550726775349,120.30867181409656,350.3875015718827,1.274,1.0244351749185203,0.0,1.3201683372500304,345.0001478400497,0.0703304970591363,9.766357936158233e-07,-0.1356139297812804,0.0283708542867288,0.0100718766748864,6.645576379611029,23.50446335340048,24.256243288587804,28.667522485907842
0.71,31.22219940429176,131.01042608450126,11.003265460433244,6.24795916445562,2.0421831749494888,23.503175366324488,-0.8673363793140904,-0.3197361002218617,301.3312640634036,24.189523070832514,10.238340439388082,68.71227983243199,0.3290814043320562,120.35236872747345,358.0184186032829,1.274,1.0243880468141104,0.0,1.324512389607139,345.0001478400497,0.0710931209107679,1.0473966623745083e-06,-0.1417106559651188,0.0303980958700948,0.0106385521288313,6.571982982303843,23.259577306597528,24.510240536604748,23.52134681239297
0.72,31.22219894950667,131.01042702182156,11.218293170728112,6.1916837619078855,2.0111217968324406,28.86420433125912,-0.9199540394728905,-0.4882750447581568,350.7922053414578,24.399706337340728,10.341904355083056,68.63098144250446,0.3724148192775372,120.39888800890373,364.25958605342976,1.274,1.024337302174265,0.0,1.328847112189334,345.0001478400497,0.0717110244712858,1.121692949872706e-06,-0.1478742767502462,0.032434394501835,0.0111974975800622,6.508901648335984,23.06022608717548,24.71554774526605,28.882988412398635
0.73,31.222198490137856,131.01042796872213,11.435162764603248,6.105573833167758,1.97073372127,36.607916956406704,-0.9775551865614776,-0.6782842652018107,422.3203185282354,24.71527173072212,10.484437046369523,68.5461304510004,0.4183151949839195,120.44819090446174,373.7347888848431,1.274,1.024292465384646,0.0,1.3331351519625805,345.0001478400497,0.0726386526036874,1.199557102360625e-06,-0.1540881401102255,0.0344740834160522,0.0118186889465951,6.414601319445343,22.77080227761031,25.02477282440761,36.627247611230125
0.74,31.222198022551005,131.01042893253717,11.655930916214432,5.995545440316458,1.9230964252570784,22.819296662298417,-1.0402170548376737,-0.8892449066746017,294.4828134710563,25.119550599366352,10.660130345147929,68.45769549067285,0.466732041962441,120.50022769927736,386.05330095187657,1.274,1.0242470321640116,0.0,1.3373938589212668,345.0001478400497,0.0738270197479643,1.2809924644081224e-06,-0.1603743496607748,0.036524114263795,0.0125017919293509,6.295343944445103,22.411375715103503,25.4215731639118,22.860295452754006
0.75,31.22219754653696,131.01042991364008,11.880676880758136,5.942289113958949,1.8938949990491047,26.70432834145612,-1.0934746012725804,-1.0604075103784936,330.24688556441737,25.27972226689593,10.746308308962192,68.36563236602905,0.5176225867865466,120.55495713250708,390.9837998550349,1.274,1.0241984712898409,0.0,1.341662960216241,345.0001478400497,0.074297956876687,1.366015088405643e-06,-0.1667503219441356,0.0385898105195562,0.0130814263159039,6.235765202737421,22.25883241924689,25.57716042662084,26.747734538835093
0.76,31.22219707105124,131.01043089394224,12.104321988309213,5.855884560657072,1.854483509372244,28.77914914141397,-1.152916623219524,-1.2578960776973127,349.2703242098581,25.56626388187087,10.879619164481852,68.26988672493152,0.5709492063569622,120.61234365547472,399.8889224845776,1.274,1.0241522053390697,0.0,1.345932523161234,345.0001478400497,0.0751403019428006,1.4546985263620716e-06,-0.1731491249510306,0.0406493761571134,0.0137370779002078,6.141539643906041,22.00354839333913,25.85751461113136,28.829688596759603
0.77,31.222196586040564,131.01043189368968,12.33252392226578,5.764218254662096,1.813659104740208,26.90571754413791,-1.2138074831101504,-1.4616086979693153,331.76876669606884,25.86434170948852,11.017776866881007,68.17044260084505,0.6266417200135986,120.67231686537394,409.2589454831028,1.274,1.0241065975906936,0.0,1.3501173987428776,345.0001478400497,0.0760165606575084,1.5470237407252776e-06,-0.1795975060023086,0.0427112158706976,0.014414480881526,6.041892558467394,21.741765054198066,26.149183041585584,26.972713344359043
0.78,31.222196095573707,131.01043290464133,12.562957343476077,5.678664139727467,1.7750857991788067,22.06966611534904,-1.2736307718084916,-1.6613517055342537,286.8734378128874,26.12410835797192,11.142188140012216,68.06726853462169,0.6846400894429666,120.73481738228382,417.51171391366233,1.274,1.0240588105546735,0.0,1.3543236715078832,345.0001478400497,0.0767802271054245,1.6430034605043417e-06,-0.1860925593751346,0.0447740600356642,0.0150854458625263,5.94876721013576,21.51260825395029,26.402893580641177,22.168725431908904
0.79,31.22219560023721,131.01043392560035,12.795282188120584,5.603986886815261,1.7401223947281874,31.47144623056116,-1.3307062532695868,-1.8507421548611944,373.6203323159581,26.32097553744836,11.243509205756556,67.96033465490657,0.744880900179333,120.7997823185022,423.81857379040616,1.274,1.0240083170932772,0.0,1.3585076567236911,345.0001478400497,0.0773590336096154,1.7426569474140416e-06,-0.1926189496104764,0.0468328623963102,0.0157318199692198,5.8671144902187775,21.33295013198636,26.59427130531904,31.553889673055735
0.8,31.222195101105346,131.01043495440018,13.028893616858085,5.491278256440555,1.693697783639879,31.89964920170081,-1.3970545196201696,-2.078174013927496,377.42502064505805,26.68210678471221,11.407224257518765,67.84961983284848,0.8072924714637735,120.8671399795252,435.51840749364055,1.274,1.0239625010683884,0.0,1.3626608603719697,345.0001478400497,0.0784206281726929,1.8459999473436327e-06,-0.1991553000672286,0.0488806971401561,0.0164884647324735,5.7457775791505865,21.03090838651957,26.948113465750527,31.997784106942873
0.81,31.222194591606577,131.0104360041014,13.267356506877952,5.385016151091492,1.6495581849087184,20.716752784665868,-1.462155829772224,-2.301154001591153,273.9374926939922,27.002818869698327,11.55643634294217,67.73511519875241,0.8717927827217696,120.9368075944086,446.0407535064892,1.274,1.0239149950770308,0.0,1.3667699998593588,345.0001478400497,0.0793634375422876,1.952991571097357e-06,-0.2057356284769375,0.0509279185484217,0.0172376039665228,5.631289723923424,20.762947703807765,27.26189506962825,20.895383589456713
0.82,31.222194077190967,131.01043706379485,13.50765828219653,5.31025894027368,1.615285955481914,26.66502803833898,-1.5180004922158823,-2.4884177731985604,328.725004432774,27.15445182669325,11.641998118489836,67.61679223709478,0.938312823845365,121.00871649491752,451.0538480346498,1.274,1.0238644186635044,0.0,1.3709030246259928,345.0001478400497,0.0798093152668099,2.0636491753607863e-06,-0.2123429031348644,0.0529689076815026,0.0178906885909043,5.549821917168386,20.618742098260423,27.408146742348386,26.82387497722397
0.83,31.222193561347915,131.0104381265628,13.7479217155367,5.203824486464661,1.5716403144581907,33.93038337318838,-1.5823862427778013,-2.710695731481156,395.6875032246518,27.450474766711125,11.783165555986832,67.49463219590106,1.006775205325933,121.08278902902208,460.9311000702212,1.274,1.0238188483711983,0.0,1.3750071633967331,345.0001478400497,0.0806795713478355,2.178010036651637e-06,-0.218929565387478,0.0549888694951524,0.0186462936827094,5.435351569383142,20.372145713639707,27.69731649246609,34.075251039743506
0.84,31.222193035612747,131.0104392091185,13.992657243224937,5.080159697988411,1.523088591706625,20.92186080594176,-1.6522020320836823,-2.955301649917407,275.45937482564227,27.82534515830556,11.955415564154553,67.36864371924511,1.077082827282296,121.15892625119255,473.595105066206,1.274,1.0237739661568126,0.0,1.3790513246965652,345.0001478400497,0.0817815771050894,2.296014392813604e-06,-0.2255234261700377,0.056996091763933,0.0194697447968945,5.302993385934627,20.07405974320468,28.06456317855836,21.194051971721404
0.85,31.2221925018258,131.01044030773502,14.240817103319044,4.996923678739821,1.4868624683829383,22.83312573852128,-1.707871501033828,-3.1458538497731654,292.9609323393965,27.96977624329938,12.039581795687912,67.23881942183232,1.1491494795488346,121.23704097528216,478.512975429811,1.274,1.0237227741398531,0.0,1.3831116607680551,345.0001478400497,0.0822063052177512,2.4176299175273127e-06,-0.2321352270332927,0.0589934688147035,0.0201440935967283,5.21290687547282,19.935120763326257,28.20330584041183,23.112006674006025
0.86,31.222191968551936,131.0104414055606,14.487884701153453,4.893606740277467,1.4448845695749173,28.61796629414848,-1.76921343298798,-3.360153096651977,346.2265619465616,28.20749596436508,12.160370442838444,67.1051457218655,1.2228925955507737,121.31704995340952,486.6699145618989,1.274,1.023674789281455,0.0,1.3871697428059897,345.0001478400497,0.0829052212058977,2.5429090199380103e-06,-0.2387035081815291,0.0609622936030178,0.0208896286640615,5.101960332864817,19.7334524280902,28.43443384661597,28.86881950855323
0.87,31.22219142658244,131.01044252064457,14.738669794162696,4.7742264803441214,1.3983660938802576,26.64925570906844,-1.835698807363808,-3.5959525086237623,327.9640783669946,28.522096948306285,12.31189411513972,66.9676445259278,1.2982062731695876,121.39884459456252,497.5742235338637,1.274,1.0236288969245204,0.0,1.3911468581000077,345.0001478400497,0.083830108509966,2.671786455203687e-06,-0.2452427686329107,0.0629067480501094,0.021700742119045,4.974348026532795,19.48275739851884,28.74172997483132,26.95335775748453
0.88,31.222190877104325,131.0104436505684,14.992487354499769,4.662534757361033,1.354359221260497,23.03000478965546,-1.8982854435090617,-3.818231971262272,294.4828134710421,28.77849299880707,12.441488253218536,66.82632942496298,1.374990940116804,121.48232306159213,506.5478549527368,1.274,1.0235805388426191,0.0,1.3951270705473433,345.0001478400497,0.0845839316788707,2.804206456729441e-06,-0.2517623779043373,0.064829254563766,0.0224773556744955,4.8548396829173415,19.2718823426714,28.991215436505083,23.421432569827175
0.89,31.22219032322608,131.01044478923447,15.24771286984814,4.555494650894333,1.3119096845084064,25.26876963674316,-1.9574641359259128,-4.02914932208481,315.02813424808807,28.990623576128865,12.554370952560795,66.68120866935097,1.4531510325692265,121.56738776772916,514.0304582286061,1.274,1.0235293752791452,0.0,1.3990990131925378,345.0001478400497,0.085207657859832,2.940156635916076e-06,-0.2582409062005163,0.0667232611851697,0.023225137127393,4.740254230727638,19.090034723193448,29.19667986120873,25.662743989251922
0.9,31.222189764477324,131.010445937537,15.504573899733789,4.437567540859368,1.2665263564624711,27.91829031736592,-2.0198980317033004,-4.2545006962633725,339.3781423542166,29.254265693516285,12.688386416169848,66.53230295748736,1.5325841904849116,121.65393360871283,523.4092929369904,1.274,1.0234837388140003,0.0,1.4030374756408344,345.0001478400497,0.0859827895622531,3.0796095426278e-06,-0.2646605496564085,0.0685833589943167,0.0240183622821455,4.6144215144079554,18.87701925708789,29.453194986860023,28.312747985275326
0.91,31.22218919835032,131.0104471002742,15.764297216243836,4.312987930637939,1.219475563248088,21.23710973188216,-2.084102783079888,-4.488581158123324,277.7421810230785,29.54640044096233,12.834650717108106,66.37964336951359,1.6131832306393998,121.74185005409906,533.9017601482045,1.274,1.023436404813438,0.0,1.4069465330479405,345.0001478400497,0.0868416730306564,3.2224968991513258e-06,-0.2710240074784346,0.0704100658515756,0.0248408521076515,4.481760311916744,18.648450408167115,29.73794075234997,21.806092611641937
0.92,31.222188625359248,131.0104482763826,16.026576494739796,4.202879933276905,1.176704203218434,25.291382900418544,-2.1392348252812887,-4.68991508948488,315.0281342480675,29.72548171408385,12.936461949913978,66.22325954255471,1.6948435898696828,121.83102922234266,540.3797385708641,1.274,1.0233859136578225,0.0,1.4108449915618129,345.0001478400497,0.0873682805439763,3.3687571823108888e-06,-0.2773284342887149,0.0722022612468211,0.025572106755236,4.364212193095582,18.48884330688577,29.910304984898,25.81134785709297
0.93,31.22218804981388,131.01044945755282,16.289263023211053,4.076654544232097,1.1296283480702012,30.08710204807799,-2.200758169209421,-4.9179235863144815,359.16250706547066,29.99855196620428,13.076893334925026,66.06318287918762,1.777461504433798,121.92136388053056,550.3397491325337,1.274,1.0233407575091376,0.0,1.4147281335004271,345.0001478400497,0.0881711421001211,3.5183777740570105e-06,-0.2835416794302341,0.0739505847994096,0.0263845353631103,4.230013990003022,18.27461199295872,30.17598207684752,30.56571639225276
0.94,31.222187465233112,131.01045065615463,16.55550305048386,3.941343177482151,1.0802622932165171,21.827238912513767,-2.2657541773721808,-5.161444237878942,283.06875048378083,30.323212631216684,13.239293147236395,65.89946352141251,1.86092486318492,122.01273741962936,562.3019840601152,1.274,1.0232914783978162,0.0,1.4185646883467868,345.0001478400497,0.0891256459456322,3.671252560145048e-06,-0.2896741539221975,0.0756577190270518,0.0272462103513711,4.086479089792356,18.032904721264902,30.49288978225644,22.543347292648633
0.95,31.222186872885,131.0104518696679,16.82461212996913,3.8236161845236993,1.0359257747562831,28.27806146360105,-2.3181387742893302,-5.359048025023697,342.421873617488,30.50048436865704,13.342537007705438,65.73214574944618,1.9451274787867272,122.1050394049298,568.8810164150448,1.274,1.0232418269359267,0.0,1.4224010272364096,345.0001478400497,0.0896469532469884,3.82729322808188e-06,-0.2957264296909601,0.0773234392293716,0.0279773643553034,3.961261079888225,17.876341458946783,30.66319834336049,28.874589577179666
0.96,31.22218627870548,131.0104530867842,17.093727311442404,3.685936420329013,0.986408262508086,27.699667220461286,-2.3806526341391585,-5.597826483182723,337.09533515678265,30.81556450197354,13.503187750464445,65.56127367594972,2.029965733622942,122.1981619079369,580.6801763314072,1.274,1.0231951201821403,0.0,1.4262268886456784,345.0001478400497,0.0905733110700937,3.986492698128033e-06,-0.3016604999965927,0.0789370413754496,0.02883283005354,3.815466666055797,17.6443407807518,30.97050149554549,28.359737876513478
0.97,31.22218567334953,131.01045432515957,17.367256814888265,3.5515523658117485,0.9379808423972714,17.69306015868863,-2.4388525114268886,-5.822649669715895,245.0218871929888,31.089918075543864,13.648167822829915,65.38691359984374,2.115327340180233,122.29198715375128,591.0503661762392,1.274,1.0231476260761452,0.0,1.430002039692318,345.0001478400497,0.0913799749338623,4.148703819263804e-06,-0.3074929195501388,0.0805027329074767,0.0296511803597867,3.6731737136077793,17.436974146114302,31.23724918061352,18.78551645624125
0.98,31.222185062974443,131.01045557307305,17.64223723670866,3.432263369943199,0.8937277704891987,25.80009214220128,-2.483280570442344,-5.997416407721383,319.593746642963,31.21750834850891,13.7329813843766,65.20912242428479,2.2011081124466134,122.38640586726552,595.8958200562814,1.274,1.0230935628253934,0.0,1.4337887768704016,345.0001478400497,0.0917552749530076,4.3138628540138046e-06,-0.3132058478546995,0.082015309142364,0.0303252170600719,3.546579405616714,17.309143790698357,31.35788908550912,26.604143295833047
0.99,31.222184450921635,131.01045682424908,17.917121749728626,3.291392443264151,0.8440260988482243,28.19532529663961,-2.540781016779368,-6.224894415916086,341.66094855170127,31.51650732262236,13.890315359821717,65.02796758536806,2.287201788852479,122.48130609549511,607.3493428287511,1.274,1.0230490803133316,0.0,1.4375457041475084,345.0001478400497,0.092634387471392,4.481947082653381e-06,-0.3187645058987519,0.0834653708000394,0.0311582023770031,3.397772868959345,17.091799903335,31.649081837227108,28.985880135815353
1.0,31.22218382706676,131.0104580975893,18.19652555888201,3.1496173367699214,0.7943095632456935,25.211920697478728,-2.5965552282472064,-6.448612128469289,314.2672081822764,31.81105465001877,14.047035019480033,64.84353688936015,2.3734962004466498,122.57656893512484,618.738132070597,1.274,1.022999484445133,0.0,1.4412526002100254,345.0001478400497,0.0935004257402942,4.652765244668836e-06,-0.3241889820950994,0.0848578295974763,0.0319837232100625,3.248135064153241,16.87935855379691,31.935820507866733,26.15277504764524
1.01,31.2221831972168,131.010459382138,18.47772387193145,3.012100758097997,0.7459208852135119,26.36594006836991,-2.645784420577591,-6.650160681549244,324.92031610370094,32.049143475357845,14.180942951178524,64.65590673237722,2.459888461457712,122.6720852273214,628.0176826258911,1.274,1.0229507481225095,0.0,1.444972229650938,345.0001478400497,0.0942005255872956,4.826216956705023e-06,-0.3294680711017307,0.0861893318722285,0.0327469405532583,3.103004393807148,16.697690388437735,32.16630914424386,27.320095314245673
1.02,31.222182561968346,131.01046067676293,18.760433831306795,2.869803594488137,0.696555803614678,21.97035058834842,-2.696111823522729,-6.85892263677753,284.59063161543185,32.31957395402724,14.32970865820796,64.46516024513647,2.5462763319872868,122.7677460491144,638.6434751792411,1.274,1.0229039803623294,0.0,1.4486678545091742,345.0001478400497,0.0949956920858014,5.002223046611692e-06,-0.334582501499766,0.0874546771439037,0.0335349782968903,2.9530588962799764,16.50179294917536,32.42898598861904,23.173479317469358
1.03,31.222181918491422,131.01046198664915,19.0458775078724,2.732550778065147,0.6486118045499257,17.904866462771057,-2.7380440747543004,-7.0385200941631885,247.3046933904342,32.51857955086543,14.44884772032472,64.27139196575942,2.6325566961431583,122.86344099254777,646.5147723991047,1.274,1.022853416101322,0.0,1.4523362402574165,345.0001478400497,0.0955809295037374,5.180647004356515e-06,-0.3395269877430497,0.0886521363696213,0.0342391630140502,2.808418062554258,16.34251806993895,32.62046107879438,19.43249581296494
1.04,31.2221812708972,131.01046330415366,19.332206457528308,2.5969443331213125,0.6012267970528375,28.583043526567835,-2.7741958332239647,-7.198945895213879,345.4656368807608,32.67881578694586,14.552064183766456,64.07469973804147,2.718629228961772,122.95906218746428,652.8839556149501,1.274,1.0228049544826707,0.0,1.4559935913599071,345.0001478400497,0.0960522176133567,5.3614055492232e-06,-0.3442814540792218,0.089776452640453,0.0348887386035456,2.6655854817996696,16.202944546253256,32.77325453823476,29.60593457003115
1.05,31.22218061844635,131.01046463061363,19.619729111446905,2.445117803945979,0.5502766862695426,17.136379428605697,-2.824761475609145,-7.4181637059291425,240.4562587980608,33.01953485069526,14.73500378646622,63.87519329949362,2.804393195608338,123.054500736109,666.5508469885661,1.274,1.022755494436122,0.0,1.4596165277868025,345.0001478400497,0.0970540015105809,5.544388639987461e-06,-0.3488319326240965,0.0908240289435567,0.0357174562234898,2.506236553501244,15.979957364637832,33.10597078163102,18.885548180637766
1.06,31.222179953291423,131.0104659802971,19.91175263137489,2.309738335659091,0.5032613961038843,24.50396271887208,-2.852122140585459,-7.551128280569067,308.1796836557233,33.13561340830135,14.82062819832516,63.67299075637369,2.8897493434672583,123.14964878399024,671.2267116105417,1.274,1.0227013895379469,0.0,1.4632097655164606,345.0001478400497,0.0973955110321618,5.729345790106827e-06,-0.3531924024580714,0.0917975248841822,0.0362900463289152,2.3639005898987624,15.863452056473031,33.21466450705445,25.799192389342355
1.07,31.22217928990957,131.01046732674126,20.202082177184845,2.1607210782065405,0.4534633236590273,28.884466655964363,-2.89263489492348,-7.738269308945954,348.5093681440431,33.419502967953925,14.981250688690752,63.46820235907651,2.974605589116788,123.24440582475616,682.7584195007602,1.274,1.0226540159946436,0.0,1.4668147266664295,345.0001478400497,0.0982302694443092,5.91627862276824e-06,-0.3573256679476661,0.0926882285936375,0.0370282549649185,2.207769705862473,15.671686743269907,33.490732076652286,30.04264573123714
1.08,31.222178613403635,131.01046869700463,20.49697445757488,2.009197485186935,0.4033818233155988,19.33372256622293,-2.933401218275349,-7.930066915051848,261.0015785751465,33.73246224681306,15.156260953329104,63.26096021051038,3.0588668876351086,123.33866743857332,695.5860705624484,1.274,1.0226061614050743,0.0,1.4703552668313051,345.0001478400497,0.0991504836195685,6.104925672454986e-06,-0.3612424947707888,0.0934980057214464,0.0377836247892382,2.049274195024658,15.469972402364451,33.795824792003806,21.101744767963076
1.09,31.222177929214805,131.01047008109023,20.7940662690922,1.8673621480275475,0.3555477092930297,17.745231503524032,-2.9557840050938213,-8.053958669012006,246.54375332456465,33.880628169043085,15.258648092006808,63.05139042445883,3.1424447173426087,123.4323358174705,701.6900295629512,1.274,1.0225512795791307,0.0,1.4739085106697725,345.0001478400497,0.0995863244555361,6.295113572334795e-06,-0.3649352957490953,0.0942244717033431,0.0383364306148151,1.900897367710632,15.34321308703152,33.936477114179105,19.71030569120083
1.1,31.222177243547545,131.01047146780311,21.09080760083229,1.7229606314611776,0.3073911827106539,35.90128390306108,-2.977499912524546,-8.178673137646358,413.1890617384087,34.05294111148852,15.372732656193726,62.83962378442756,3.225253203101679,123.52531545849293,708.825404835334,1.274,1.0224981043155532,0.0,1.477445604457205,345.0001478400497,0.10009314410194,6.486795966732286e-06,-0.3683782745397242,0.0948620913478529,0.0388938209015522,1.7501583337601052,15.207396838916408,34.10122577392648,36.941282948887064
1.11,31.22217655026556,131.0104728681563,21.38968243210381,1.5632328408569287,0.256726837062941,26.1721137772284,-3.023187703652672,-8.401135544387682,324.1593910379213,34.50563547985985,15.615649371565524,62.625806287014086,3.3072068192662423,123.617510580403,727.7758043409899,1.274,1.0224548851875197,0.0,1.480936968667089,345.0001478400497,0.1014241084563899,6.679787417121872e-06,-0.3715661226074558,0.095409409650913,0.0397507792551484,1.5841683082275748,14.955338886097133,34.545961902185894,27.653178513416492
1.12,31.22217583943539,131.0104742997742,21.694565407026754,1.4154593031491651,0.208509957867493,9.638573413498111,-3.0430852772584167,-8.526648709755648,172.7328179403806,34.72199393803546,15.752214804440143,62.41008727693752,3.3882237836271965,123.70882891199076,736.9094888367766,1.274,1.0223979224661404,0.0,1.4844126654072227,345.0001478400497,0.1020604126222025,6.8737097392483736e-06,-0.3745117216085217,0.0958673733884506,0.0403159465023039,1.4307314899586474,14.80615335617299,34.7547465333331,13.223698562491403
1.13,31.22217512926802,131.01047573008898,21.9981759162916,1.2756488484698612,0.1617449937965384,30.879783271759383,-3.040446891341277,-8.566888568938257,367.5328077894322,34.73933834817901,15.797734799151437,62.19260889676348,3.4682273888834185,123.79918317727856,737.6243673273196,1.274,1.0223460397860296,0.0,1.4879171178943191,345.0001478400497,0.1021117439139887,7.068562515655438e-06,-0.3771859198866144,0.0962304611288356,0.0406229200875045,1.2858604530634363,14.740229684249396,34.764745158646825,32.1900126120277
1.14,31.2221744187664,131.0104771609666,22.30097373594644,1.1192883041129429,0.1129256659739236,16.905861966759556,-3.073222434715853,-8.750996698017948,239.6953177322812,35.15809296901773,16.030511704899133,61.97353042871159,3.5471415668848487,123.8884861389294,755.4925037409027,1.274,1.0223022138470996,0.0,1.49136697379422,345.0001478400497,0.103342971494949,7.264316709861971e-06,-0.3795689733860621,0.0964958054930186,0.041371141876549,1.124969729159106,14.513834231063356,35.175831279664784,19.28296678888104
1.15,31.222173686309663,131.01047863056556,22.6112431864704,0.974736874048816,0.0658989047050321,16.641541311978248,-3.071999658272233,-8.804479086421786,237.4125115347709,35.261380044730096,16.117478955552315,61.75302282480817,3.62489330039096,123.97665330770572,759.9153327222067,1.274,1.0222426194541194,0.0,1.494769092648182,345.0001478400497,0.1036469342824842,7.460463899687357e-06,-0.3816766617460354,0.0966635617121029,0.041721840678606,0.9769617291948144,14.41648017977491,35.27173141819292,19.076082698550614
1.16,31.222172959973257,131.01048008922257,22.91815088459037,0.8277896831695615,0.018959397349698,44.20924603012414,-3.073611050918516,-8.872911379096736,490.043774385954,35.43084407175628,16.236298752805748,61.53124815072992,3.7014134038888673,124.0636037734812,767.2144801799496,1.274,1.02219674531104,0.0,1.4982158515885429,345.0001478400497,0.1041454157733367,7.657065012174497e-06,-0.3834846709990243,0.096730905936242,0.0421196985564617,0.8280067592112637,14.29505036399712,35.43382220687345,45.19549840178422
