Time,Latitude,Longitude,Altitude,Angle of Attack,Angle of Sideslip,X-Acceleration,Y-Acceleration,Z-Acceleration,Thrust,True Velocity,Ground Velocity,Pitch,Roll,Yaw,Dynamic Pressure,cp,parachute_deploy_gain,Wind Speed,Mach,omega_x,omega_y,omega_z,Cmq,Angle of Attack(total),Angle of Attack(gust),True Velocity(gust),Acceleration
0.0,31.222216000000007,131.010392,3.000000004412624,0.0,0.0,0.0,0.0,0.0,2.2828121974499247,0.0,0.0,71.99999999612658,-1.0292491154817412e-14,119.99999999354436,0.0,15.288,0.0,0.0,0.0,0.0,0.0,0.0,-0.0,0.0,90.0,0.0,0.0
0.01,31.22221599999862,131.01039200000284,3.0000009727369523,0.0,0.0,0.0,0.0,0.0,34.24218696174923,5.916279387578309e-11,5.734623670548936e-11,71.99999999613168,-5.86671995824671e-13,119.9999999935449,2.1432944861733093e-21,15.288,0.0,0.0,1.7386402909615473e-13,-3.4220131069073734e-19,7.115076756936125e-19,5.488773498207866e-19,-1.1574302492039043e-31,0.0,89.99999999962336,5.916279387578309e-11,0.0
0.02,31.22221599999738,131.01039200000537,3.0000018317022668,0.0,0.0,0.0,0.0,0.0,25.871876237766408,1.2265415415436536e-10,1.1895038237325684e-10,71.9999999961369,-1.1836364828043265e-12,119.99999999354544,9.211895886571454e-21,15.288,0.0,0.0,3.6044858651615574e-13,-6.979551485375437e-19,1.4162390878091906e-18,1.0909784360635388e-18,-4.776231873571785e-31,0.0,89.99999999921916,1.2265415415436536e-10,0.0
0.03,31.22221599921969,131.01039200159065,3.0001883335529382,18.80143492628821,-0.0001350810307892,10.931161642028636,-1.75114298675875e-05,3.026590975169265,180.34219359854663,0.0798232026864394,0.0478175828508887,71.99999999765336,-5.341802909786072e-12,119.99999999436793,0.0039016003969354,15.288,0.0,0.0,0.0002345795854893,3.788270153300133e-17,-7.771883375645477e-10,1.1422790048099072e-11,1.7057759223764537e-13,18.80143492675591,89.51882325913425,0.079801984207741,11.342422482672777
0.04,31.222215995131297,131.01039200995308,3.001692634342189,9.19442604083399,-4.49173898918486e-05,52.29595764159784,6.445392950801871e-06,3.026413589912948,548.6359724538078,0.3504174083926908,0.1601447499964056,72.00000000319055,-3.111420077280171e-11,119.99999999870242,0.0751892535633216,15.288,0.0,0.0,0.0010297854387864,2.0082066977226968e-15,-1.520937588847922e-08,2.5623342884322286e-11,1.4654248781413086e-11,9.19442604094277,87.798916624545,0.3504103527855857,52.383455068075136
0.05,31.222215983575865,131.01039203366796,3.0074067499493786,5.158590039700252,1.707592688632746e-06,76.26884281015512,5.843947534199429e-05,3.0258124765658088,761.6984298824644,0.9592973585397016,0.3772700771701255,72.0000000004862,-1.3608731808076822e-10,120.0000000109612,0.5634958029902841,15.288,0.0,0.0,0.0028191251099456,2.086299069701397e-14,-1.0551247853743037e-07,3.973493515691201e-11,2.783064866637575e-10,5.158590039700515,83.94063169874748,0.959297626767734,76.32884071402438
0.06,31.222215961742712,131.0103920785344,3.019291017943491,4.109521257467909,3.140103977270004e-05,57.06876634333886,0.0001151069734147,3.024834864051463,590.4875390737208,1.6257536642597354,0.6118982818704327,71.99999992547217,-3.5903296759057166e-10,120.00000003412836,1.6184272268450337,15.288,0.0,0.0,0.0047776672697797,1.0694899894620088e-13,-3.741090980393931e-07,5.521401959501359e-11,1.6723176417636091e-09,4.109521257587776,79.78719176344794,1.6257585967235286,57.148873286519276
0.07,31.222215929936205,131.01039214392435,3.0371334573469446,3.649087515174788,5.707077112564807e-05,86.89643797254193,0.0001728541558773,3.0234947746384675,855.2937749779139,2.3057260079826607,0.8506307413593818,71.99999965378231,-6.907496536790437e-10,120.00000006788592,3.255354923652711,15.288,0.0,0.0,0.0067759305364855,3.495199904512709e-13,-9.036515915819006e-07,7.594816279105379e-11,5.728932851326001e-09,3.6490875156204896,75.6601668283889,2.305734972638426,86.94902215090157
0.08,31.222215886364623,131.01039223353447,3.0621840248716574,3.4254446680114707,8.413075603463509e-05,17.831756866644035,0.0002285946601282,3.021841001032126,241.2171988638848,2.961944911520492,1.0819695676346892,71.99999900671328,-1.141745983122182e-09,120.00000011415082,5.371998197385977,15.288,0.0,0.0,0.0087043901031071,8.800530155962314e-13,-1.829098470920821e-06,1.0943386634701918e-10,1.4896287129277132e-08,3.4254446690434226,71.81713637501419,2.9619581267487467,18.085991154451033
0.09,31.22221583454733,131.01039234010327,3.0919888289029,3.389560809024919,0.0001118726864415,54.09031716446879,0.0002748660999733,3.020060228038602,563.0937377043176,3.504225426410036,1.2780161667917422,71.99999774508822,-1.634190085504106e-09,120.00000016921716,7.519080503822694,15.288,0.0,0.0,0.0102980157586766,1.865782139518716e-12,-3.1503298654458527e-06,1.6284478329871028e-10,3.03536411425607e-08,3.389560810868955,68.76526501308032,3.504242999330529,54.17456206384468
0.1,31.22221577423132,131.0103924641528,3.1267248829165366,3.4447939461814814,0.0001419149103147,51.372195336549765,0.0003131602029306,3.0182021883815127,538.7437595981919,3.950569597142709,1.4443465951180965,71.99999562056465,-2.1287748602259068e-09,120.00000023339832,9.55649523509932,15.288,0.0,0.0,0.0116097108366932,3.485956000178229e-12,-4.949356763187612e-06,2.4573266549165286e-10,5.3761299442583966e-08,3.444793949101151,66.34639928474206,3.9505918890846927,51.460781166288626
0.11,31.222215706113143,131.01039260424562,3.165907002780892,3.4691423802630394,0.0001702373452339,40.591037561894986,0.0003534470100582,3.016051659024047,442.8656393052949,4.421478635995476,1.6182620895289603,71.99999235067894,-2.5564479031457968e-09,120.00000030601664,11.970509656144712,15.288,0.0,0.0,0.0129935974697161,5.942887149865172e-12,-7.273722517324353e-06,3.67769289312894e-10,8.842679949465076e-08,3.4691423844348632,63.88798785789768,4.421505376815134,40.70293476011277
0.12,31.222215630588888,131.0103927595646,3.2092596514826863,3.4852659299808075,0.0001974376474727,44.30042894095728,0.000394069215595,3.013641598889868,475.58594813540446,4.896982486381051,1.793579340340896,71.99998761802138,-2.8337988279882726e-09,120.00000038673312,14.683611096353944,15.288,0.0,0.0,0.0143909889875706,9.464337642181618e-12,-1.017558359402848e-05,5.395790443954697e-10,1.3700793350599625e-07,3.4852659355662303,61.5068242157714,4.897013499814194,44.40281567867803
0.13,31.222215548046687,131.0103929293088,3.256512891171917,3.5606043721293616,0.0002276507019012,48.86766833507025,0.0004268800875964,3.0112558910133567,515.9156326236895,5.278566579338586,1.939796541405244,71.99998107389406,-2.8573058577484587e-09,120.00000047523812,17.061052093156064,15.288,0.0,0.0,0.0155123760833565,1.4300406003001044e-11,-1.3705268062305584e-05,7.724776992181392e-10,1.989112774124932e-07,3.560604379397528,59.67313531776262,5.27860233862722,48.960358155653
0.14,31.222215458587108,131.01039311327068,3.30759734332425,3.6000732663755977,0.0002555702913645,45.540290862247225,0.0004629468001456,3.0085404980032777,486.2390860568404,5.70011779273801,2.098362647205908,71.99997235012626,-2.508533681468686e-09,120.00000057154703,19.894788765881632,15.288,0.0,0.0,0.0167512184495524,2.071534240530911e-11,-1.7917736259613292e-05,1.0787346240473087e-09,2.8081526258393346e-07,3.6000732754351943,57.72385750323359,5.700157937625502,45.639559681930805
0.15,31.222215362317904,131.01039331122794,3.3624387479639086,3.651605404442164,0.0002842753491325,44.01308509501,0.0004965057129938,3.005703619811542,472.54218587214,6.091938849578711,2.2476968067377374,71.99996103728932,-1.6446954747148112e-09,120.00000067569304,22.723773683610247,15.288,0.0,0.0,0.0179026934683374,2.9002783512213203e-11,-2.287326399669318e-05,1.47199345427166e-09,3.831202693354572e-07,3.651605415492516,55.98561718911576,6.091983503446133,44.115597174664394
0.16,31.22221525912812,131.01039352340948,3.421115382839859,3.67540086436193,0.0003108411545024,34.83804992586084,0.0005330990866742,3.002517946501868,391.1218908297564,6.521183188362317,2.4085903880902046,71.99994669525161,-1.0153513453738144e-10,120.00000078796704,26.03872642002185,15.288,0.0,0.0,0.019164148528834,3.9478358970291335e-11,-2.864207894220033e-05,1.9677461746207517e-09,5.135466997084602e-07,3.6754008774883777,54.15946979122355,6.521232015176687,34.96719658394182
0.17,31.2222151493826,131.01039374906244,3.4833737923187487,3.7139589864597298,0.0003384978477213,43.96471427482637,0.0005668629535037,2.999235483723449,471.78125980632376,6.916861975403744,2.559060925010733,71.99992884100092,2.3206494032971838e-09,120.0000009081849,29.29426197817256,15.288,0.0,0.0,0.0203269651395979,5.248754693205839e-11,-3.5267097947693114e-05,2.580363454062817e-09,6.706952682968329e-07,3.713959001863866,52.549031795895466,6.916915146521327,44.06689817851128
0.18,31.22221503253009,131.01039398932429,3.549599475912623,3.7380363034619775,0.0003650282082698,36.67395661481795,0.0006021794701355,2.9956556354306425,407.10156721191447,7.332140201215607,2.71556808256092,71.99990696207136,5.837017536380516e-09,120.00000103716444,32.917216366714264,15.288,0.0,0.0,0.0215473823438242,6.839750892601699e-11,-4.285557247677198e-05,3.331016495775474e-09,8.639362741436378e-07,3.738036321259578,50.93050624815799,7.332197539712479,36.796100973258795
0.19,31.22221490871209,131.01039424390297,3.619694897703461,3.747799769666444,0.0003901520189829,41.42208371271829,0.0006393759928961,2.991742733214697,448.9531328318269,7.771071983754382,2.879366399937307,71.99988049019642,1.0709144790974043e-08,120.00000117502664,36.97605053227239,15.288,0.0,0.0,0.0228373144884866,8.761416506509219e-11,-5.146771415177372e-05,4.238406957677133e-09,1.0996552116864756e-06,3.747799789945131,49.29705748437159,7.771133268690212,41.529983675580546
0.2,31.22221477769685,131.01039451327668,3.693822889232993,3.7700519460961166,0.0004166800650969,37.99697972290605,0.0006740224661302,2.987733789228414,418.51563019916136,8.179966026035371,3.0338260708461373,71.99984881140107,1.723179577184912e-08,120.0000013223286,40.969302182777255,15.288,0.0,0.0,0.024038975990988,1.1057590044953188e-10,-6.120032215177249e-05,5.3263847350253015e-09,1.376394225587184e-06,3.7700519690893857,47.8457752505109,8.180031477986942,38.11426270718793
0.21,31.222214639876928,131.01039479663547,3.771710975053407,3.7926098867321474,0.0004432924407074,36.46301043881366,0.0007080907240332,2.983530483977461,404.8187610144644,8.582757448615462,3.1863584283669346,71.99981127559042,2.5745201416596626e-08,120.00000147900325,45.103059028532826,15.288,0.0,0.0,0.0252227064089584,1.3774582723633048e-10,-7.20875523136271e-05,6.61341033873124e-09,1.7010673350603349e-06,3.792609912601061,46.47936953648762,8.582827080829217,36.584868250565684
0.22,31.22221449507626,131.01039509434258,3.8534832466471007,3.782921298925821,0.0004660920499522,44.14577847155813,0.0007479176313898,2.978724032883548,472.5421858721365,9.056569122268344,3.360845972992861,71.99976720416048,3.661811567390422e-08,120.00000164562512,50.21995530074818,15.288,0.0,0.0,0.0266151520780326,1.6960703048385348e-10,-8.421592474264931e-05,8.124635526119773e-09,2.0969540034515424e-06,3.7829213275976334,44.9464484092354,9.056642335836344,44.24615863872642
0.23,31.22221434283448,131.01039540734791,3.9394622486964206,3.813874679301352,0.0004940771488601,36.66675459308932,0.000779455230549,2.974212905336642,406.3406421461021,9.430647902846331,3.5044030163419806,71.99971583979395,5.0272885112871524e-08,120.00000182313076,54.45382429059888,15.288,0.0,0.0,0.0277145095638672,2.0669790509245914e-10,-9.77285871729516e-05,9.894576563683824e-09,2.5339062472561444e-06,3.813874711257219,43.79476959007253,9.430725512303388,36.78718303164376
0.24,31.222214184153326,131.01039573358457,4.028950821673608,3.829256049377765,0.0005200487408944,37.802126339316736,0.0008136255607606,2.9692962675112065,416.2328240017114,9.837806876534357,3.658163422426286,71.9996564062533,6.718950080713476e-08,120.0000020109434,59.25679777340223,15.288,0.0,0.0,0.0289110855155543,2.4956955046738006e-10,-0.0001125744417092,1.1934277804843484e-08,3.0448209172448607e-06,3.829256084638984,42.59361542722471,9.83788856559955,37.91856374864305
0.25,31.22221401888584,131.01039607335582,4.122052964664892,3.851417709838087,0.0005469594058717,38.85163035360012,0.0008459008130282,2.964283881833675,425.36408079150686,10.22297576958679,3.8050691648373967,71.99958811418384,8.786880969336211e-08,120.00000220974424,63.98709205399403,15.288,0.0,0.0,0.0300430411774988,2.987811646313829e-10,-0.0001288461362054,1.4273117985167728e-08,3.621333387698252e-06,3.8514177486178034,41.50703126619192,10.223061685769354,38.96455005232871
0.26,31.222213847358866,131.0103964259872,4.218542267117083,3.8780574625554745,0.0005745172425185,42.3164797140743,0.0008766626387865,2.959162938653076,455.8015834241788,10.590779679138215,3.946551912391076,71.99951013710364,1.1286401474734325e-07,120.00000241975916,68.67355887153568,15.288,0.0,0.0,0.0311239685467471,3.5491769188178554e-10,-0.0001465721578858,1.6932703957058654e-08,4.267712643344226e-06,3.8780575050466,40.51245375834074,10.590869924095635,42.41981967733593
0.27,31.22221366913008,131.0103967923915,4.318728802515264,3.886188503202341,0.0005994342651313,38.70936050721014,0.0009111181036949,2.953518013741325,423.84219965987256,11.004860953238978,4.102320296019413,71.99942161756776,1.4276417094868828e-07,120.0000026420792,74.14786134434608,15.288,0.0,0.0,0.0323408987462391,4.1858405402174807e-10,-0.0001658847815307,1.995072923688136e-08,5.018832267232506e-06,3.886188549362022,39.43841359495857,11.00495511215316,38.8218734782956
0.28,31.22221348431185,131.01039717233687,4.422535913956003,3.90556090261878,0.0006261175699806,44.68030766832924,0.0009425767186621,2.947879457547137,476.3468732012221,11.38358114165448,4.247086834352694,71.999321619057,1.7823531611327881e-07,120.000002877279,79.33831935330025,15.288,0.0,0.0,0.033453914386159,4.904408325040897e-10,-0.0001868529238516,2.3357766479368094e-08,5.847713054408178e-06,3.9055609527288775,38.49894431917428,11.383679491972384,44.77744842575601
0.29,31.222213292835256,131.0103975659655,4.530013412817602,3.9242599519377537,0.0006528240665589,35.802573724660256,0.0009737210635801,2.942037024315898,397.97031042211177,11.759725774384751,4.391004157029451,71.99920917567837,2.1999186079018322e-07,120.00000312617878,84.66717879828003,15.288,0.0,0.0,0.0345593650464213,5.711677680739745e-10,-0.0002095620322847,2.7188189988316943e-08,6.77505090435382e-06,3.9242600061534456,37.60352534239979,11.759828319749328,35.92324968749781
0.3,31.222213095024976,131.0103979726075,4.64093665799555,3.936939025755682,0.0006785438093183,33.570228713727204,0.0010059102294455,2.93586442972183,378.1859457108711,12.149968255527943,4.539237002744259,71.99908328532703,2.6880857935396905e-07,120.00000338923812,90.3787563598417,15.288,0.0,0.0,0.0357062504417728,6.614698865958865e-10,-0.0002340353597042,3.1467140861055e-08,7.817263716758327e-06,3.9369390841381695,36.71173884615234,12.150074840940263,33.698361337808635
0.31,31.22221289105846,131.01039839189684,4.755183729044857,3.9598342215431432,0.0007060286581592,35.396825578217346,0.0010350810412898,2.9297385597941448,394.1656220930212,12.504537499407316,4.6763673222047455,71.99894291513503,3.255120771695107e-07,120.00000366712923,95.72967338626896,15.288,0.0,0.0,0.0367483036680869,7.620720834468404e-10,-0.0002603234137215,3.622454560346964e-08,8.948994505138873e-06,3.9598342843844345,35.934338386209795,12.504648402129598,35.5178635353378
0.32,31.222212681031937,131.01039882363492,4.872689374180126,3.985461429033668,0.0007340760463279,38.52097867048992,0.0010630242168685,2.9235095146848846,421.55939346242695,12.84534566718622,4.809181081594425,71.99878701464397,3.909756427278764e-07,120.0000039606604,101.01782231644016,15.288,0.0,0.0,0.0377499198995686,8.737098716736534e-10,-0.0002884807530145,4.1491545539590986e-08,1.0187112828155184e-05,3.98546149652875,35.21473736963424,12.845460975581933,38.631757748577954
0.33,31.22221246496604,131.01039926777932,4.9934410812554,4.010606629086,0.0007621365968788,38.18822026147908,0.0010905599149574,2.917102431053817,418.5156301991682,13.18247167592885,4.940798912752974,71.99861449732019,4.661299779655886e-07,120.000004270781,106.38859400029033,15.288,0.0,0.0,0.0387407190563976,9.971421990244511e-10,-0.0003185760672934,4.7302669734505256e-08,1.154498667827874e-05,4.010606701382261,34.52805863348922,13.182591392065536,38.299473293007864
0.34,31.222212242662028,131.01039972474007,5.117579377337869,4.019339771238816,0.0007871574969313,29.898022638335373,0.0011220389395318,2.910051232417875,345.46563688075645,13.569536737955724,5.0878303926024735,71.99842423285973,5.519675040347761e-07,120.0000045987411,112.72655675097128,15.288,0.0,0.0,0.0398782837956187,1.1331556132162459e-09,-0.0003507224668667,5.37022358302301e-08,1.308298593306914e-05,4.019339848191799,33.76700548046532,13.5696603843662,30.039310197084795
0.35,31.22221201433324,131.01040019407705,5.2449575244483055,4.033762873683395,0.000813261106463,32.76415525156106,0.0011515840876071,2.902959820469776,370.5765700527033,13.934300103976534,5.227895396154902,71.99821502296155,6.495674834876441e-07,120.000004945438,118.8669740701126,15.288,0.0,0.0,0.040950312688979,1.2825853697215452e-09,-0.0003849609961885,6.072234695821837e-08,1.4746020857580124e-05,4.033762955530055,33.07785186209504,13.934427850732408,32.89250745069162
0.36,31.22221177990305,131.01040067594835,5.375631006350063,4.051723629010647,0.0008401329464575,37.01692984301412,0.0011797030485285,2.8957873473716007,407.8625232777193,14.282998147928636,5.362923567977223,71.9979856440668,7.600645476620651e-07,120.00000531213882,124.88900300695136,15.288,0.0,0.0,0.0419751331662584,1.4462801652534363e-09,-0.0004213876232777,6.84067806399068e-08,1.654507199147348e-05,4.051723715967022,32.44322602189087,14.283130115703262,37.13002398000203
0.37,31.222211539445663,131.01040117020102,5.509550188388412,4.071639898917391,0.0008674922629137,35.12417761390579,0.0012067983861697,2.88849906286036,391.1218908297666,14.620581431527652,5.494447309446232,71.99773482653193,8.846681943540367e-07,120.00000570002652,130.86067091914967,15.288,0.0,0.0,0.0429672939311924,1.6251202388969355e-09,-0.0004600660652957,7.679415042686734e-08,1.849041957573993e-05,4.071639991174516,31.85023865502424,14.620717696893658,35.24274792557624
0.38,31.222211292895075,131.01040167697127,5.646763233102716,4.08264881385344,0.0008930259828975,36.695642158537446,0.0012360471443664,2.880711738179021,404.8187610144602,14.986392916850402,5.634654729559426,71.99746126698146,1.0246533537040716e-06,120.0000061105033,137.4891296153862,15.288,0.0,0.0,0.0440424171304414,1.8200057922063743e-09,-0.0005010869196581,8.592980519823866e-08,2.0642694281337543e-05,4.082648911356968,31.228847973200924,14.986533193043764,36.808540518115166
0.39,31.22221104018777,131.0104021963902,5.787316652586672,4.096641430700089,0.0009192713382325,31.335681548387896,0.0012640110027448,2.872831219844713,357.64062493382744,15.337978856701952,5.770390286512262,71.99716358743511,1.1813915463769678e-06,120.00000654506955,144.01394309468844,15.288,0.0,0.0,0.0450757388736732,2.031886352449547e-09,-0.00054455673306,9.586443829735616e-08,2.295945663566148e-05,4.096641533664766,30.65298398882095,15.338123255506089,31.4670954954126
0.4,31.222210781536543,131.01040272801887,5.931064331106764,4.109028969993624,0.0009451871856381,29.95928076777898,0.0012920492774571,2.8646905607053603,345.465636880754,15.692185018814769,5.906873567965718,71.99684037970908,1.3563276523471372e-06,120.00000700500496,150.74021066990193,15.288,0.0,0.0,0.0461167659598875,2.2617341782092324e-09,-0.0005905037520737,1.0663253249436129e-07,2.5471259834659164e-05,4.1090290785164525,30.09246700352443,15.692333488470696,30.095929256306363
0.41,31.222210517064383,131.01040327160345,6.077922766619747,4.122888296344507,0.0009714525997821,33.78425365340317,0.0013192264430821,2.85640971467756,378.94687077668647,16.03742529732769,6.0405139809190125,71.99649020751959,1.5509747261474075e-06,120.0000074917568,157.44375780268788,15.288,0.0,0.0,0.0471314487675864,2.5105374204052982e-09,-0.0006389770219162,1.1827345344180344e-07,2.816813594418537e-05,4.122888410595805,29.56469007160549,16.037577892745222,33.904791300285986
0.42,31.22221024682894,131.0104038270252,6.227854084363214,4.14444025865494,0.0009995884754813,38.04468161607466,0.0013435485656724,2.8482703202464488,416.2328240017114,16.348862540904037,6.163613566771559,71.99611159893284,1.766920641656551e-06,120.00000800692096,163.6157044470786,15.288,0.0,0.0,0.0480467946810589,2.779304965995011e-09,-0.0006900467934588,1.308321832549104e-07,3.100973487310896e-05,4.144440378988911,29.104646754454564,16.34901955589459,38.15115260238947
0.43,31.222209970843565,131.0104043942566,6.380851271439565,4.1618082623168045,0.0010268052928652,33.45815353250911,0.0013687230309017,2.8397750580998298,375.9031395134336,16.67263197205097,6.290467308135904,71.99570306121484,2.005818691215035e-06,120.00000855220898,170.15779512382937,15.288,0.0,0.0,0.0489983878509763,3.0690566816849196e-09,-0.0007437862329608,1.443552931671376e-07,3.4086145072160934e-05,4.161808388761201,28.640125213458976,16.672793262249197,33.57845085853367
0.44,31.22220968892116,131.01040497368373,6.537047157143216,4.164954087655709,0.0010505545842624,30.86574023822051,0.0013980747538988,2.830419582421933,353.0750125389216,17.050421620730056,6.433992917638883,71.99526304125902,2.269416145406482e-06,120.00000912964636,177.9537948947602,15.288,0.0,0.0,0.050108743779844,3.380847125286677e-09,-0.0008003278134917,1.589055036683518e-07,3.750784460406397e-05,4.164954219916419,28.113519280259386,17.050586641458253,30.99524475496968
0.45,31.22220940081287,131.01040556582012,6.696617751072218,4.165241899529329,0.0010735835484822,35.912216710755274,0.0014280646808282,2.820677244966047,397.2093853562869,17.438293672974723,6.580571293039616,71.99478987454265,2.5595995397253085e-06,120.00000974147088,186.13940823302417,15.288,0.0,0.0,0.0512487363629523,3.7158016249566814e-09,-0.000859850913876,1.745604864109677e-07,4.121350642664912e-05,4.1652420376426775,27.591357195572936,17.43846231108416,36.02281959036367
0.46,31.222209106468902,131.0104061707686,6.859600379555308,4.174585124444534,0.0010989881252456,41.916816790010685,0.0014546917035209,2.811153314474766,449.7140588976434,17.786187321601275,6.714685486378061,71.99428180697711,2.8783880229668832e-06,120.0000103898448,193.6374175079873,15.288,0.0,0.0,0.0522712438446989,4.0751091178509895e-09,-0.0009224765531151,1.9138630415982226e-07,4.50966024037632e-05,4.1745852688465686,27.13985967570823,17.786359950252297,42.01097612387663
0.47,31.22220880579083,131.01040678873238,7.026066274755745,4.1823089530633855,0.0011240727220223,28.37640408484148,0.0014814747534716,2.801325368441072,331.0078106302534,18.138167428286582,6.849989708801916,71.99373704967608,3.2278903746588286e-06,120.00001107707628,201.37401505997488,15.288,0.0,0.0,0.0533057667609836,4.459978104761035e-09,-0.0009883252835099,2.094509673354327e-07,4.927107017839778e-05,4.182309103852639,26.69716826759888,18.13834399721685,28.514342615617974
0.48,31.222208499300592,131.0104074186346,7.195654207463586,4.189479568102716,0.0011490100608361,27.95074823096412,0.0015080719422187,2.7912412472910484,327.2031223011574,18.48995085190441,6.98515976370584,71.99315377257649,3.6103201777021456e-06,120.00001180491516,209.25751230436188,15.288,0.0,0.0,0.0543397174489847,4.8716620260348906e-09,-0.0010573190976925,2.2877013380347535e-07,5.373205427420879e-05,4.189479725385959,26.268461765425428,18.4901313379827,28.089773168283216
0.49,31.222208187201936,131.01040806005494,7.368224738812109,4.202723284133339,0.001175611380853,35.08821363242469,0.0015321405723077,2.781292092003844,389.60000969812296,18.812014261754847,7.111044804193205,71.99253015042137,4.027946338669921e-06,120.0000125755114,216.60722913930897,15.288,0.0,0.0,0.0552863302793499,5.311396446020465e-09,-0.0011294854492155,2.4938633613154685e-07,5.8398320167141767e-05,4.202723448262914,25.88860807032205,18.81219892635871,35.1982716047702
0.5,31.22220786953184,131.01040871291724,7.5437546994244835,4.220815778795054,0.0012036252596423,36.05491615971072,0.0015540388599792,2.7714444106710974,397.97031042210494,19.10875420627192,7.229005658018125,71.99186435180009,4.483102820610566e-06,120.00001339126192,223.4908652241728,15.288,0.0,0.0,0.0561585257949344,5.7804122391526605e-09,-0.0012048912160576,2.713531252030471e-07,6.327866493526626e-05,4.220815950099865,25.54902500917784,19.108943271285572,36.161276053538906
0.51,31.222207546379583,131.0104093770373,7.722184419225251,4.232567510615346,0.0012298790840397,27.54004661432325,0.0015777580800203,2.761017323676155,323.3984349720841,19.430597746636646,7.354673636736509,71.99115452520388,4.978202222778502e-06,120.00001425458936,231.07869697977367,15.288,0.0,0.0,0.0571045034845869,6.2799518101633574e-09,-0.0012835871653678,2.947201005874635e-07,6.854585242460463e-05,4.232567688976395,25.189423168613605,19.430790935591396,27.678103017910345
0.52,31.222207217825865,131.01041005261558,7.903526349666379,-5.880892519495859,10.750141121137393,33.248491941491594,-0.5783811003304081,3.309693212253113,372.0984511843415,19.041062231065244,7.4862185409405715,71.99040976398838,8.406766324775665e-05,120.00009776694716,221.90258960618493,15.288,0.0,5.0285813911061386,0.0559598136428362,6.8275810302480516e-09,-0.0012682145378232,0.0001423513854711,6.636605340275945e-05,12.236966864291771,36.11713092147559,20.719800333368653,33.4178217458871
0.53,31.2222068838321,131.01041074056738,8.087883274639365,-5.721089522843276,10.59682914322922,34.91139707397226,-0.5935330092027185,3.313574295737854,386.5562464348624,19.355876590151063,7.618990705287101,71.9897107782313,0.0004905690602778,120.00052556631556,229.2968172932389,15.288,0.0,5.047925647291361,0.0568851404601701,7.441151815861299e-09,-0.001163367141913,0.000339518839849,6.188480722732121e-05,12.027025887069597,35.600034998560766,21.010949165624083,35.07331894336415
0.54,31.22220654428744,131.01041144116334,8.275327954139604,-5.566908331754889,10.448842154300817,30.653892673356136,-0.6088633028540607,3.3173919481169034,349.2703242098436,19.669027100438345,7.751186652134616,71.98907224926523,0.0012486326564395,120.00132304996394,236.771965004736,15.288,0.0,5.067224304246165,0.0578055832314164,8.116956787029203e-09,-0.0010570661330005,0.0005419201452881,5.713886710735508e-05,11.824729816635951,35.099544554134205,21.30124488268177,30.838886813382715
0.55,31.222206199494856,131.01041215380158,8.465654370357225,-5.41959118595492,10.308818450991527,32.49092257427224,-0.624185906994955,3.3210548790523204,365.2500005919907,19.9748270816736,7.881010457724182,71.98849496171844,0.002367296206837,120.00249972339752,244.18705711840536,15.288,0.0,5.086453605399544,0.0587044291840445,8.857027913335406e-09,-0.0009494901762762,0.0007493386490243,5.212092985389203e-05,11.632965529535086,34.62378860810625,21.58540987526781,32.66617613501038
0.56,31.22220584946225,131.01041287848844,8.658862124994886,-5.2798246734002126,10.178454547178625,30.320671908577484,-0.639352058064196,3.324495349934103,346.2265619465787,20.26888816264923,8.007083941209942,71.98797963665024,0.0038554563361958,120.00406494373348,251.42495424765195,15.288,0.0,5.105612350685577,0.0595687811640624,9.663367744483388e-09,-0.0008406599671322,0.000961853254506,4.682533430621974e-05,11.45353451282994,34.178072752175346,21.85931984872842,30.509083653454493
0.57,31.222205494273368,131.0104136150732,8.85489787471466,-5.141949590292877,10.047434692171004,29.979423759944208,-0.654997053251896,3.328014652141267,343.1828296833023,20.57074303779853,8.135572809588494,71.98752695703025,0.0057220175259691,120.00602807593872,258.96454597651274,15.288,0.0,5.124691352105634,0.0604560442824283,1.0538001298687787e-08,-0.0007306474476737,0.0011794458723076,4.130287371326021e-05,11.274700378267088,33.7313980835604,22.14091392660139,30.170690274551937
0.58,31.22220513391177,131.01041436361157,9.053778093063046,-5.002679548815387,9.909420641747454,39.49047634635821,-0.6715861113038167,3.3318203465392444,426.1250058573153,20.893965118737228,8.270751074714656,71.987137582277,0.0079759794598637,120.00839858484136,267.1614481309358,15.288,0.0,5.143689938833948,0.0614061102300775,1.1482976861107976e-08,-0.0006194713136748,0.0014022022247704,3.5567733418714e-05,11.089330802668504,33.26450367622231,22.442784756190363,39.63647028670421
0.59,31.2222047679579,131.01041512499202,9.255800390777996,-4.874182746728695,9.788015283828155,31.99999436916917,-0.6875020574695694,3.3351648994695604,360.68438819711065,21.189484128205947,8.397159841439809,71.98681223073147,0.0106269450899529,120.01118656968332,274.76689162766087,15.288,0.0,5.162636803797349,0.0622747648005557,1.2500425271488928e-08,-0.0005069227921568,0.0016306661802388,2.951670685893629e-05,10.923883225169384,32.848953063951086,22.719514502818207,32.18067158423729
0.6,31.222204396642965,131.01041589876016,9.460808898478769,-4.740282783881633,9.651790545698937,28.431141329163022,-0.7049727265664557,3.339060091472778,329.4859594986058,21.52386111481036,8.535762367204788,71.98655160081866,0.013684661323402,120.01440227997456,283.5015555057198,15.288,0.0,5.181513343793277,0.0632576272464053,1.3592580979577452e-08,-0.0003931575639086,0.0018646638414946,2.325326640976605e-05,10.74310446434157,32.38931645107748,23.032800535286945,28.63522491824554
0.61,31.222204019922515,131.0104166850304,9.668839904870786,-4.609059383924868,9.51647860983195,33.32537930253048,-0.7229283004139995,3.3430076254610035,372.0984511843297,21.864462699825022,8.676273573713447,71.98635638769757,0.0171591246877394,120.01805622757476,292.5391716780055,15.288,0.0,5.200322192187775,0.064258790277599,1.4761710355648452e-08,-0.00027817483089,0.0021043334832148,1.6712642276206573e-05,10.564610768188302,31.93332088346441,23.35244404599087,33.50043628027785
0.62,31.222203637924167,131.0104174835625,9.87980990351366,-4.494970794326918,9.41184858305361,41.45174178200932,-0.7389841895096119,3.345961463762938,442.86563930529206,22.14183246910613,8.796852528065639,71.98622728012099,0.0210605762035957,120.02215918079104,300.0024016195136,15.288,0.0,5.219062756382653,0.0650741239266543,1.6010153492817554e-08,-0.000162041187608,0.0023496765226178,9.858677390566577e-06,10.421397210459666,31.57213395678681,23.613602277406287,41.593129871551014
0.63,31.222203250460737,131.01041829476353,10.093854377062636,-4.379845272953524,9.301493912337955,23.472854977609185,-0.7559183356666938,3.349151556358781,286.11251274707894,22.43769866424377,8.923215541002586,71.98616486654393,0.0253988977214318,120.02672153009368,308.0670902243161,15.288,0.0,5.237722077901991,0.0659438242664365,1.7340167302115842e-08,-4.471394065899847e-05,0.002600931404628,2.7567158819489248e-06,10.272874451359378,31.194670258034712,23.89236463240124,23.722629480677934
0.64,31.22220285815351,131.01041911737363,10.310545787008497,-4.2615353704344345,9.180653676084312,23.04079778229926,-0.7742066042339366,3.3527666387626702,282.30782441796754,22.765092273865896,9.059439986890542,71.98616970773509,0.030184085498922,120.03175378486648,317.1162355487631,15.288,0.0,5.25630568642304,0.0669061892957348,1.875415178924408e-08,7.344606553044052e-05,0.002857474828013,-4.59409175689711e-06,10.113819246351175,30.78607245847815,24.201023059444296,23.296325943050462
0.65,31.22220246098832,131.01041995144234,10.529899065775489,-4.155477813181604,9.082101367693385,40.78309622776648,-0.7910330095813237,3.355603513517776,436.7781447787475,23.04344422872373,9.18021528084478,71.9862422870719,0.035425915046023,120.03726622250215,324.91165026423926,15.288,0.0,5.274768813563974,0.0677244281867984,2.025438519460716e-08,0.0001924403762246,0.0031194445765082,-1.2184175780353064e-05,9.980362778581554,30.44721735233941,24.464090640232467,40.92855660886956
0.66,31.222202058439024,131.01042079807337,10.752285415392576,-4.049895496196905,8.981132908341525,34.674312531326706,-0.8084999593333271,3.358561606066047,383.51251517160017,23.332697890227728,9.304381892710817,71.98638306252352,0.0411342829467121,120.04326924768168,333.11266198953405,15.288,0.0,5.293168658944677,0.0685747135492192,2.184310395588062e-08,0.0003124989519904,0.0033874955774317,-2.0033499299908025e-05,9.845191899252384,30.102115844068752,24.73768085075765,34.84596903181347
0.67,31.22220165070616,131.01042165687429,10.977570443475434,-3.941897489777984,8.871280224761849,23.840516047534383,-0.8272589923703237,3.3618976010153294,289.1562440103425,23.650584372875315,9.437495098552036,71.98659250935843,0.04731980051152,120.04977401782236,342.2437942772844,15.288,0.0,5.311507642940792,0.0695091574191522,2.3522813338475562e-08,0.000433482161024,0.0036614775717536,-2.816741566106668e-05,9.701224701443422,29.73069654327316,25.038520699646533,24.090598131489276
0.68,31.22220123797232,131.01042252748914,11.20563221858618,-3.837974307468949,8.76687214815431,29.79226851451618,-0.8459895110395408,3.365056481147489,340.8999924858462,23.95995274008164,9.56789028458385,71.98687117464301,0.0539930486388786,120.05679165006671,351.24830169753267,15.288,0.0,5.329721864218303,0.0704185734081353,2.5296009649477567e-08,0.0005552749308946,0.0039412877000853,-3.6552611415082e-05,9.564147908549437,29.3773361724899,25.33168258207688,29.993642103204703
0.69,31.22220082032636,131.01042340975437,11.43641396635784,-3.7412098434720535,8.675139649044997,36.709584472028766,-0.8639241012771518,3.367739818101896,401.0140726853634,24.240065135195376,9.689070385188735,71.9872194184914,0.0611645020533988,120.06433315701804,359.50112954512093,15.288,0.0,5.347859421207296,0.0712420124077416,2.716518209315037e-08,0.0006777958631933,0.0042268971305314,-4.513853477178832e-05,9.441797900088773,29.064329455766657,25.59755226660075,36.87386104606096
0.7,31.22220039762964,131.0104243039737,11.670017001845158,-3.64636375757448,8.584565106490652,30.76650424158065,-0.8821647767501893,3.370393978860061,349.27032420985284,24.521340327130485,9.81057868367506,71.9876375808458,0.0688445346260286,120.07240944221776,367.8843911842919,15.288,0.0,5.365928201186053,0.0720688754804504,2.913275961718908e-08,0.0008010772041928,0.0045185445852462,-5.396641852354577e-05,9.321537336120295,28.756079310771607,25.8647611221538,30.963132165743097
0.71,31.222199969943123,131.0104252100402,11.906403860010483,-3.5506642896857774,8.488822985191977,25.257745729989026,-0.901387085308278,3.3732721323424144,301.33126406340574,24.82179789917849,9.938056216471937,71.9881259928907,0.0770438044257537,120.08103170711234,376.9463687813236,15.288,0.0,5.383877707476861,0.0729521228803058,3.12012827744651e-08,0.0009250450650956,0.0048162258216126,-6.307994212642909e-05,9.196462784485288,28.43308532501148,26.150346177308,25.497944680251727
0.72,31.22219953727335,131.0104261279587,12.145574950083391,-3.4537747942467094,8.386812801780243,30.954200463616647,-0.921798989184121,3.376442480053492,350.79220534145287,25.14609512903789,10.072954206860464,71.9886849300651,0.0857732275804843,120.0902114263832,386.85144842693785,15.288,0.0,5.401746032654388,0.073905443079244,3.3373342610971264e-08,0.0010496659547114,0.0051200328596545,-7.25114936629154e-05,9.065420648904508,28.091694488350747,26.4587931327631,31.151446251166824
0.73,31.2221990996216,131.01042705774563,12.387534517675205,-3.366847728120811,8.30533582730211,39.19363761794904,-0.9403810976284316,3.378756553585756,422.320318528234,25.41419177808529,10.190214226545592,71.98931479466845,0.0950441173384755,120.09996048378376,395.1351215083503,15.288,0.0,5.419545120959543,0.0746935944302859,3.5651600028971186e-08,0.0011749189793683,0.0054300895844867,-8.202747004653862e-05,8.95738476749171,27.81532261955178,26.714226952293924,39.3502419583957
0.74,31.22219865692493,131.0104279995473,12.632331041132147,-3.2792225795946006,8.2191582120742,24.48185752535441,-0.9599236115174108,3.381274691589028,294.48281347105944,25.70039466676988,10.313102354307327,71.99001576797657,0.1048674466813931,120.11029041224069,404.0753927986058,15.288,0.0,5.437254727436329,0.0755349678013886,3.80386716710073e-08,0.0013007735412355,0.0057465078366784,-9.183460713520968e-05,8.844997652067102,27.5255182957498,26.987033596166988,24.73288943434797
0.75,31.222198209568383,131.01042895258945,12.879701818370426,-3.1918414811929487,8.130511974991629,28.605016899005182,-0.9802138281278844,3.383903069508849,330.24688556441487,25.99859103721051,10.43969462786254,71.99078799551003,0.1152543123633247,120.12121287350412,413.4967751736274,15.288,0.0,5.454844171163535,0.0764115976836311,4.053733590491696e-08,0.0014269901363629,0.0060688716835126,-0.0001019120065119,8.730669352953,27.22922705129588,27.27144693972353,28.821148674628784
0.76,31.222197757438224,131.01042991712217,13.129730603382209,-3.1088047426487164,8.049684520669574,30.80159302538476,-0.9999937616391869,3.3861825996452874,349.27032420986166,26.27620233978073,10.559803378715328,71.99163168616656,0.1262157360032749,120.13273944224612,422.3643646002064,15.288,0.0,5.472352036253155,0.0772277337155772,4.315019663841725e-08,0.0015535969281308,0.0063974344138873,-0.0001121360082513,8.625450893242236,26.95849080237432,27.53648825063044,31.00329584129547
0.77,31.222197300476864,131.01043089327953,13.3824620470224,-3.028013175431023,7.97165335399877,28.78988610544225,-1.0198454937264207,3.3883290914898123,331.7687666960708,26.54836596784605,10.678166022058228,71.99254685440799,0.1377629288438425,120.14488190186675,431.1487438804565,15.288,0.0,5.489780244811282,0.0780278655617951,4.5879943427764817e-08,0.0016805798595031,0.0067323530475897,-0.000122554863553,8.523899994392726,26.697648428424525,27.796514375813576,29.006523418494105
0.78,31.22219683875611,131.01043188092956,13.6378509099881,-2.9466921796030943,7.889307954279117,23.619078974579462,-1.0406988723528288,3.3906659790849054,286.8734378128899,26.83854549034992,10.802112679356378,71.99353359313818,0.1499071606006856,120.15765208844732,440.6145492364185,15.288,0.0,5.5071107952121965,0.0788809547064752,4.872932901979858e-08,0.0018078478312824,0.0070735877232432,-0.0001332734982067,8.418385823348265,26.42444799067677,28.073882819922225,23.883897536458782
0.79,31.222196372372725,131.01043287988898,13.895834665773572,-2.865812759845753,7.805102918891742,33.62566537044214,-1.0622768531488012,3.3930823201599583,373.6203323159534,27.139217951551945,10.929285412209312,71.99459196158904,0.1626598775899523,120.17106202283423,450.5311049388183,15.288,0.0,5.524326032976541,0.0797648909043849,5.1701158491625584e-08,0.001935309708439,0.0074210946079148,-0.0001442646722975,8.311536578256197,26.14657157585202,28.361452247036624,33.81311596627956
0.8,31.22219590109486,131.0104338906485,14.156578840653232,-2.79038336151621,7.732568482706526,34.07031122059607,-1.0826880975719355,3.394930339405956,377.42502064505743,27.403347688677936,11.044998486818352,71.99572188529267,0.17603291048717,120.18512413711107,459.33177543259615,15.288,0.0,5.541467607406316,0.0805414317033569,5.4798187851530886e-08,0.0020630529089949,0.0077753196110617,-0.0001552799211028,8.217756212628883,25.90646096827284,28.614292879099693,34.25615086658624
0.81,31.222195425034418,131.0104349129929,14.420010291417327,-2.713980049652405,7.654499440281155,22.135542078529912,-1.1043263785644026,3.397028728321504,273.9374926939919,27.69037193825005,11.167811857203636,71.99692335262264,0.190038033520519,120.19985079475408,468.992437115408,15.288,0.0,5.558526715499542,0.0813852692099202,5.80233348129588e-08,0.0021909535048456,0.0081361429928935,-0.0001666296485431,8.118692617696055,25.6500383464808,28.88916446128528,22.421899206842472
0.82,31.22219494439483,131.01043594651955,14.685992461303742,-2.638097275933143,7.574877529866586,28.461438043673635,-1.1266786516127507,3.3991907253330544,328.72500443277005,27.98698011452058,11.293561742394257,71.99819625685092,0.2046870817608155,120.21525442485132,479.0813293416917,15.288,0.0,5.575495670150999,0.0822572824752223,6.137957414640771e-08,0.0023188619803088,0.0085033626576707,-0.0001782420521031,8.018586289450552,25.38977731297725,29.17337594964208,28.68583897823215
0.83,31.22219445916114,131.01043699127305,14.954540245116672,-2.567897856871924,7.508573326453255,36.19622831018971,-1.1474401316874792,3.4006570310566806,395.68750322465047,28.237889066587336,11.405000614626749,71.99954045090149,0.2199920223147041,120.23134759431292,487.69738006622833,15.288,0.0,5.592368866821395,0.0829949871611583,6.486980225772369e-08,0.0024467516773855,0.0088771212975755,-0.0001897536577898,7.933156724387254,25.172651428023286,29.41395995721963,36.37372720772593
0.84,31.222193969222538,131.01043804749204,15.225734557831144,-2.498049984267421,7.440702102723175,22.318087419900618,-1.1688276447357573,3.4021604251207207,275.4593748256452,28.49699984405432,11.518949019264868,72.00095570547393,0.2359646059580636,120.24814264158503,496.6757269989346,15.288,0.0,5.609136874937351,0.0837568051699004,6.849686002657174e-08,0.002574609430406,0.0092576168071007,-0.0002014963662775,7.846602911251423,24.95175703225692,29.66250014139564,22.60614694510505
0.85,31.222193474896685,131.01043911453905,15.49935958461322,-2.426142354229474,7.3639432362209,24.34201583713144,-1.192097001434686,3.404090062225994,292.96093233939376,28.7932430316648,11.64441838027572,72.00244173370048,0.2526165939223234,120.26565191453489,507.04255426148336,15.288,0.0,5.62580852456428,0.0846277680216496,7.226382789904361e-08,0.0027022157643756,0.0096444347236159,-0.0002136760844514,7.751217743738326,24.70379937512678,29.946786561223007,24.607776401530742
0.86,31.222192975999853,131.01044019280178,15.775546807678635,-2.3579562784841386,7.295453599646754,30.499388896455528,-1.2144636281506591,3.4055556462354666,346.2265619465587,29.06074638474528,11.76087151900931,72.00399823794616,0.269960204924779,120.28388824144976,516.4939671101803,15.288,0.0,5.642395374433675,0.0854142676681904,7.617358084895116e-08,0.0028296283171013,0.0100379832919311,-0.0002258239234603,7.665084313986941,24.483065414332856,30.203619500219148,30.71295254808534
0.87,31.22219247256015,131.01044128223393,16.054280872774385,-2.292039205552324,7.231226141640291,28.39273165150332,-1.2365173945669825,3.4067511867072025,327.964078366998,29.31389475967243,11.87279662682704,72.00562484869387,0.2880076115715689,120.30286440109172,525.5174572552604,15.288,0.0,5.658896618997352,0.0861585829424229,8.02291378863444e-08,0.0029567745857496,0.0104382929932097,-0.0002380202498059,7.583940215948087,24.276917698425702,30.44676000752981,28.623104994907106
0.88,31.22219196461785,131.01044238276367,16.3355378640767,-2.2257154578450806,7.1630408362008176,24.525448350828498,-1.25968582642675,3.408111855670753,294.4828134710418,29.585549757420186,11.99043004993248,72.00732110214823,0.3067709838567155,120.32259317029748,535.2881821801838,15.288,0.0,5.675308326259966,0.0869572996958505,8.44335610264813e-08,0.003083561474341,0.0108453318048754,-0.0002505201652219,7.499141618252111,24.059254393222098,30.7077888716966,24.79313718776267
0.89,31.222191452262432,131.01044349421883,16.6192599008808,-2.159115027485112,7.091103913024914,26.903855662523856,-1.2839996916791956,3.409631789205004,315.028134248087,29.87582492758228,12.113799547609895,72.0090865993586,0.326262612979153,120.34308744489265,545.8286727467092,15.288,0.0,5.691629170595332,0.0878107522012319,8.878994213925141e-08,0.0032098950932992,0.0112590619414708,-0.0002633354610483,7.410917882298804,23.83065830158282,30.986851526073742,27.149432658088944
0.9,31.222190935415348,131.01044461676975,16.905505286024557,-2.0972006953590765,7.031661382125668,29.723494221968178,-1.3064350794575663,3.410411755490057,339.37814235421445,30.11633954591711,12.22161651870518,72.01092076411692,0.3464952127354341,120.36436057363044,554.6371618499603,15.288,0.0,5.707862009494203,0.0885179564635787,9.330135701935656e-08,0.0033357642741548,0.0116797164259885,-0.0002758571213059,7.336239284422552,23.64289325534989,31.21809975646423,29.947016374293412
0.91,31.22219041415392,131.0104457502673,17.194224248007338,-2.034867951987694,6.9682965865199895,22.59523069097716,-1.3300045080743017,3.411343243394282,277.7421810230789,30.375460570360136,12.335164622492456,72.01282301943165,0.3674810523601767,120.38642542976388,564.2067738423525,15.288,0.0,5.7239901021582495,0.0892798559192362,9.797094071911721e-08,0.0034610578959252,0.0121072129861538,-0.0002886731260694,7.257920333432594,23.44370889900861,31.467341652676375,22.889967773988367
0.92,31.222189888696025,131.01044689427715,17.485270132379565,-1.9722648626115,6.9012600297930975,26.91233428626424,-1.3547328360631292,3.412419327349589,315.02813424806214,30.65312752256561,12.45441618754228,72.01479275534264,0.389232530119446,120.40929501957564,574.5528682022301,15.288,0.0,5.740022800847044,0.090096273258362,1.0280197451934878e-07,0.003585604373932,0.0125412501012308,-0.0003017863836295,7.176237705220893,23.23378198934123,31.734555563329803,27.161620781139156
0.93,31.222189358946387,131.01044804900098,17.7787123724108,-1.913636159928056,6.845337580266624,32.02446218644181,-1.3776392577490495,3.4127942016739974,359.1625070654728,30.883795190095924,12.558984251002208,72.01682917853621,0.4117621801902101,120.43298249942852,583.2160954110319,15.288,0.0,5.755968423747671,0.0907745567426312,1.0779748502650634e-07,0.0037094040355657,0.0129821158143806,-0.0003145466355233,7.10656093211829,23.060411721210563,31.95650208404179,32.235248293107844
0.94,31.22218882478843,131.01044921468147,18.074634576594985,-1.8533205262467225,6.780808874535532,23.21640877906024,-1.4027264013517615,3.413591323825447,283.0687504837787,31.155031283123822,12.676103491524827,72.01893152207373,0.4350823374931027,120.45750080803312,593.4883712591,15.288,0.0,5.771826813164866,0.0915720875829449,1.129605246354068e-07,0.0038324199758644,0.0134299927858522,-0.0003278228217613,7.028379173107973,22.860482501536524,32.21767360894419,23.507911087112166
0.95,31.22218828653391,131.010450390694,18.3728255501252,-1.7943455994181257,6.718340690033972,30.093121294973614,-1.4278240955007393,3.4141948378575298,342.4218736174873,31.419340061927176,12.790997289485542,72.02109892187495,0.459205833115006,120.4828634085466,603.5837102192194,15.288,0.0,5.787591603438095,0.0923492650131837,1.1829457082098738e-07,0.0039544572302322,0.013884481964975,-0.0003411217422296,6.952769751364343,22.66811305964638,32.47223791581924,30.319817897087376
0.96,31.22218774386952,131.0104515776791,18.67350434697812,-1.7376487218439307,6.661625543514616,29.47915267715868,-1.452088544988826,3.414382167314124,337.09533515678345,31.6587589348792,12.898089577950923,72.02333058040874,0.4841454148861245,120.50908366702438,612.7998114723274,15.288,0.0,5.80327524332264,0.0930532924085066,1.2380252006654994e-07,0.0040755923882154,0.0143461931263342,-0.0003542399568907,6.883535374156361,22.49521582900376,32.7028086544491,29.711731846026616
0.97,31.22218719681745,131.01045277559697,18.97665882777505,-1.6811716679896522,6.603109880946599,18.81095436834865,-1.4771563580445572,3.414591856640352,245.02188719299323,31.908283583710883,13.008254605643868,72.02562545081544,0.509914165008346,120.53617531232292,622.4795559544422,15.288,0.0,5.81887622487703,0.0937870307955334,1.294877095337777e-07,0.0041957377218632,0.0148151464057747,-0.0003675462943589,6.812846223343016,22.317517447130065,32.94320319818237,19.175333965843755
0.98,31.22218664568761,131.0104539838265,19.28207911425909,-1.6234174737974725,6.536745533069939,27.456161749903004,-1.5044899347125928,3.4151877186376307,319.5937466429581,32.198025833982875,13.130833452271526,72.02798260356404,0.5365250843553204,120.56415197389958,633.8171052248637,15.288,0.0,5.834383984754303,0.0946389873791176,1.3535377726890836e-07,0.0043146742623805,0.0152908382394328,-0.0003813860396773,6.734469646250285,22.115433896584133,33.22258941972622,27.708623479956948
0.99,31.222186090322023,131.010455202692,19.5898770660928,-1.5701467284876405,6.485488207676989,30.017250890284096,-1.5286818296056444,3.414775798326688,341.6609485517054,32.41562692658938,13.230940954787952,72.03040087540086,0.5639915346008708,120.59302767152973,642.3940038256668,15.288,0.0,5.849810389499476,0.0952789086578068,1.414038589025452e-07,0.0044324244241991,0.0157737091479527,-0.0003944304720056,6.672059593169303,21.96307627696094,33.43219096383822,30.24951095305948
1.0,31.222185530719432,131.0104564321984,19.90005618973973,-1.5156563515229493,6.42661681571274,26.84264068752597,-1.5551044924917776,3.414730046215245,314.2672081822764,32.67239386726431,13.343133415259317,72.03287916687252,0.5923262347846797,120.62281573621352,652.5917832104248,15.288,0.0,5.86515079395168,0.0960339571249668,1.4764127435466337e-07,0.0045488849272909,0.0162637265645083,-0.0004079882567893,6.602194747638217,21.787068964767105,33.67976905227728,27.10361766168343
1.01,31.222184967073574,131.01045767195907,20.212486515045345,-1.4623198529998789,6.369789021435528,28.08052158535628,-1.5814392477659536,3.414455429775123,324.9203161036979,32.92057301046016,13.452583264418434,72.03541622007269,0.6215424826802228,120.65353011383807,662.5237159040132,15.288,0.0,5.880403057784693,0.096763771137906,1.5406960452820829e-07,0.0046639084424079,0.0167606554059054,-0.0004214694748938,6.534812471257309,21.61860504957194,33.919077306182444,28.33152217022508
1.02,31.222184399302783,131.0104589221406,20.52722674399964,-1.410252276250627,6.315699600480567,23.40214491819572,-1.6074720643931515,3.413902001328777,284.59063161540416,33.1560267167103,13.558009435259716,72.0380106733694,0.6516533322428055,120.68518449360236,672.0142625515537,15.288,0.0,5.895570972570168,0.0974561887015032,1.6069209867866565e-07,0.0047774496447059,0.0172647000106936,-0.0004348046645743,6.470611330153329,21.45997026310892,34.146086674088124,23.704410561849347
1.03,31.222183827480023,131.01046018259754,20.84422937110095,-1.3577291841501893,6.256742274979814,19.07451110618651,-1.6351959360248296,3.4135421321299444,247.30469339049705,33.418506037422695,13.67173610100327,72.04066122151048,0.6826717226301111,120.71779243377296,682.6755792353267,15.288,0.0,5.910651817499934,0.0982280509167728,1.6751220037151276e-07,0.0048893906017451,0.0177757588181992,-0.0004485017445754,6.401790282344006,21.286421615463727,34.39936068360324,19.446416368499644
1.04,31.222183251671165,131.01046145319975,21.16345202166692,-1.307111411851708,6.203609867229738,30.47219936904272,-1.6617778589490897,3.412698958598434,345.46563688072297,33.65153245351776,13.776250655933612,72.04336637642307,0.7146110839504592,120.75136801614394,692.2081083933455,15.288,0.0,5.925647792483994,0.098913348987851,1.7453340694265453e-07,0.0049996361985474,0.0182938214363161,-0.0004617982752338,6.339292838429563,21.13274967150285,34.62409037294328,30.70770187137422
1.05,31.222182671572124,131.010462734556,21.48510484366448,-1.2563126898608623,6.146708406390808,18.27812629634628,-1.6898097304764754,3.411976086518057,240.45625879819983,33.90623628990348,13.887403982115009,72.04612454714739,0.7474846596335263,120.78592512612371,702.7045099397742,15.288,0.0,5.940567228294159,0.0996623723029455,1.817587503498257e-07,0.0051082150928636,0.0188194909883663,-0.0004753838234729,6.273299447869852,20.967698394170164,34.86990801048752,18.670483085484676
1.06,31.222182087435208,131.01046402616157,21.809017791672886,-1.2055408013423738,6.086769989650217,26.14536585595241,-1.7191719265379428,3.41132696450876,308.17968365593924,34.17961644615114,14.004255885489489,72.04893426483777,0.7813062750836861,120.82147824859877,714.0595475775214,15.288,0.0,5.955403798678377,0.1004663001012477,1.8919215731168362e-07,0.00521494008757,0.0193523480261649,-0.0004892137283027,6.204564930319714,20.79356678806755,35.13392666422066,26.422960839265965
1.07,31.22218149913672,131.01046532826416,22.135277779729257,-1.157185056520824,6.035848526253342,30.83333298775004,-1.746346154805677,3.409966524452652,348.5093681440308,34.40403477969291,14.10586017651394,72.05179379066401,0.8160900965817645,120.858042238898,723.4444796172521,15.288,0.0,5.970166101977497,0.1011263193598286,1.9683702481189464e-07,0.0053197870802895,0.0198927679537173,-0.0005023103724447,6.145371212756063,20.64986746548738,35.35039099032503,31.070436426348554
1.08,31.22218090656829,131.0104666410774,22.46396056147941,-1.1091494035546248,5.983673545898579,20.6639129299236,-1.774278839581622,3.408553234155596,261.00157857466235,34.63629485494619,14.209811773670348,72.05470143386891,0.8518499155503904,120.89563154728768,733.2221840080691,15.288,0.0,5.984855111343541,0.1018093961583843,2.04696817191076e-07,0.0054226890942022,0.0204409593162132,-0.0005154670867354,6.0852350526967705,20.502988599746267,35.57450048167515,21.01817304444236
1.09,31.22218031002224,131.01046796401658,22.79486880192314,-1.0601706930504575,5.9231740324652735,18.982328576420866,-1.8052070468466723,3.407546133240413,246.54375332474407,34.918249205307426,14.32905284686071,72.05765534502679,0.8885996617314614,120.9342607728893,745.1845749756878,15.288,0.0,5.999462155752555,0.102638551738183,2.1277569591965123e-07,0.0055234368576993,0.0209963680758084,-0.0005293011735855,6.016971461666559,20.32955953517037,35.84700284649151,19.37005269263227
1.1,31.22217970957896,131.01046929692046,23.127949912754342,-1.0127509815337163,5.867827992874636,38.36308699767704,-1.835012381291088,3.406058438756599,413.1890617385841,35.171968809517736,14.439462904095311,72.06065361231283,0.9263533755154284,120.97394462896152,756.028905793275,15.288,0.0,6.013990131786,0.1033847226453553,2.210773775871225e-07,0.0056219255005176,0.0215589672215803,-0.0005426363392151,5.954282614904401,20.173924945024567,36.09207469763138,38.557683391498685
1.11,31.22217910480877,131.01047064063908,23.46349788271027,-0.9675332635171864,5.822032751668084,28.0097812454336,-1.8621237280952367,3.403788027511502,324.1593910376397,35.36923206213724,14.53232777020354,72.06369424631185,0.9651253358236096,121.01469807891436,764.5084769339556,15.288,0.0,6.028452980151716,0.1039649532525542,2.296047995270363e-07,0.0057182129977033,0.0221297075198948,-0.0005550077786121,5.901606711537106,20.05078555400045,36.28218184865449,28.277219154860504
1.12,31.222178495776184,131.0104719950373,23.801469813714323,-0.9201655598535404,5.759953774213771,10.390276955800632,-1.8950592517645923,3.402450737808421,172.73281794065943,35.666374772200925,14.655984932940616,72.0667751501309,1.0049294937581292,121.05653574002616,777.3827203518703,15.288,0.0,6.04284440050608,0.1048387796982933,2.38361904884997e-07,0.0058121504838526,0.0227084127455788,-0.0005688461606579,5.832745306630666,19.87456944443125,36.569622981393366,11.096205468949883
1.13,31.222177883111108,131.0104733588672,24.141440365272903,-0.8749511520762169,5.7074918245362,33.06091719266619,-1.925229554079649,3.400309348362628,367.5328077900705,35.906228779256075,14.761832199688516,72.06989418885321,1.045780999884102,121.09947348870432,787.8478436141645,15.288,0.0,6.05715484443164,0.1055442184688491,2.473537180474732e-07,0.0059034500598787,0.0232939451678612,-0.0005816483728058,5.773947399005255,19.73104421586377,36.80127751368047,33.29103269832275
1.14,31.22217726610449,131.01047473352332,24.48389143443736,-0.8312907476869302,5.66178838535497,18.17991454246013,-1.9534199532943564,3.3975479200354606,239.69531773195544,36.10396266076881,14.854578619169224,72.07304906968986,1.0876936400386732,121.14352576734944,796.5228154366557,15.288,0.0,6.071403369146697,0.1061258555521181,2.5658250958450544e-07,0.0059922358741942,0.02388782330214,-0.0005936279159819,5.722293354455935,19.610947133716824,36.99186762150844,18.597539465048033
1.15,31.22217664527304,131.01047611797756,24.82847363828195,-0.7857911773837682,5.599919133024192,17.9121622152372,-1.987814432087872,3.3957042320736823,237.41251153546767,36.405796409622816,14.979380485983352,72.0762374056223,1.1306811920604267,121.18870700783948,809.8697446154911,15.288,0.0,6.0855688554905205,0.1070134974240428,2.660532090455821e-07,0.0060782154468628,0.0244888855360971,-0.0006071595010482,5.654608268242778,19.43772591450436,37.28402986552364,18.33924122402863
1.16,31.222176020762948,131.01047751193937,25.17509007466268,-0.7434239177414105,5.556510336448612,47.338928352947136,-2.015876794634973,3.3924263267116377,490.0437743845894,36.589145076921255,15.067495013848635,72.07945675743379,1.1747585761680548,121.23503284227996,818.0204614904034,15.288,0.0,6.099645037112944,0.1075528647832746,2.757698187981646e-07,0.0061612743501303,0.025097049176521,-0.0006185353416894,5.605867683416552,19.3271096197417,37.46059218528999,47.503120457910725
1.17,31.22217539163952,131.01047891723445,25.52437242595364,-0.7004276173769631,5.504853109310204,8.156575700072207,-2.0473767732358445,3.389526572657727,153.70937929486794,36.8264682886526,15.17218450322446,72.08270453815962,1.2199394469925275,121.28251757298338,828.6387039781665,15.288,0.0,6.113665514995128,0.1082508970468067,2.857341633509233e-07,0.0062415538862703,0.025714279085558,-0.0006306377066005,5.549098673987819,19.189794369253057,37.68983887327571,9.066993393035359
1.18,31.222174759129803,131.0104803314463,25.875493064827985,-0.6566116136631607,5.442266053166217,22.87332370300638,-2.083599179305351,3.387179874814339,280.02501822196746,37.13886421766376,15.299925983190436,72.08597809055776,1.2662382864640604,121.3311763688835,842.7284577838972,15.288,0.0,6.127599576141164,0.1091696131695525,2.959530304619238e-07,0.0063185807563095,0.0263378570691976,-0.000643814344867,5.481614835105143,19.01640911023317,37.99244847786503,23.216444824022105
1.19,31.22217412267826,131.0104817556584,26.22882819761904,-0.6163646223921128,5.404951872069859,40.1707969197826,-2.1102440842759207,3.3829127897561646,428.4078130529292,37.28014232728498,15.374784623090608,72.08927466552669,1.3136699910509346,121.3810248357813,849.1233950296488,15.288,0.0,6.141472072617753,0.1095853368506324,3.064287391475509e-07,0.0063924373317956,0.0269693079193568,-0.0006537952950713,5.4398789040488245,18.929107455722608,38.12789153015953,40.368182448665344
1.2,31.22217348180342,131.01048319079544,26.584701045779845,-0.5743288547708437,5.348041136769901,3.884064156317887,-2.1451498583046766,3.3797828106385808,117.1843741360236,37.55607892582876,15.491075248439849,72.09259136043,1.362247844020812,121.43207688351876,861.7103772082033,15.288,0.0,6.155284727565667,0.1103968985120296,3.17164224605039e-07,0.0064630868646663,0.0276095020228802,-0.0006658909916333,5.378702363736063,18.77648344522904,38.394927941210696,5.577683581206985
1.21,31.222172837738693,131.01048463444383,26.942283100335203,-0.5330093122051818,5.292581348197659,32.190687719618474,-2.1799645302563686,3.376341788407422,359.92343213200894,37.823862164338784,15.60473392791486,72.09592521864995,1.4119869310826272,121.48434831405086,874.0125393809784,15.288,0.0,6.169014314717204,0.1111845017659846,3.281665617521541e-07,0.0065301158546297,0.0282557420141468,-0.0006775708978432,5.319276994069951,18.629434018451768,38.65403710738317,32.440596558745916
1.22,31.222172189539908,131.0104860884317,27.3022090211878,-0.4938776817688462,5.254248996680619,23.2259461233558,-2.2078256709991826,3.371516302555368,283.0687504825761,37.969463672679645,15.680645965720128,72.09927314383526,1.462901249845376,121.5378537877194,880.7239947806979,15.288,0.0,6.1826889485782015,0.1116129556190189,3.394369149055421e-07,0.0065936511380796,0.0289103770160025,-0.0006867732930608,5.277344365545966,18.5415602896924,38.79364286930232,23.57299704528353
1.23,31.222171537578944,131.01048755201904,27.664228142644017,-0.4534887615441724,5.1979446482937375,8.839740465270257,-2.2438419985748554,3.3676940374130986,159.79687382222795,38.24457249086852,15.796349345468908,72.1026319083867,1.5150037332555348,121.5926068445574,893.501778434004,15.288,0.0,6.196292740198277,0.1124221097510636,3.509803584649794e-07,0.006653452171479,0.0295723447599382,-0.0006979988655341,5.217635107557926,18.39324322347733,39.05994418697065,9.72199575897524
