Time,Latitude,Longitude,Altitude,Angle of Attack,Angle of Sideslip,X-Acceleration,Y-Acceleration,Z-Acceleration,Thrust,True Velocity,Ground Velocity,Pitch,Roll,Yaw,Dynamic Pressure,cp,parachute_deploy_gain,Wind Speed,Mach,omega_x,omega_y,omega_z,Cmq,Angle of Attack(total),Angle of Attack(gust),True Velocity(gust),Acceleration
0.0,31.222186000000004,131.010384,3.000000003643237,0.0,0.0,0.0,0.0,0.0,2.2828121974499247,0.0,0.0,69.99999999623421,0.0,113.69999999388332,0.0,15.288,0.0,0.0,0.0,0.0,0.0,0.0,-0.0,0.0,90.0,0.0,0.0
0.01,31.22218600000153,131.01038399999584,2.99999882256592,0.0,0.0,0.0,0.0,0.0,34.24218696174923,7.502283530665459e-11,7.190531319924593e-11,69.99999999623329,-4.83564628150269e-13,113.69999999388072,3.446445726795683e-21,15.288,0.0,0.0,2.204725565824978e-13,-3.659182332138578e-19,7.589415207398531e-19,4.811147140404426e-19,-1.5108918610345807e-31,0.0,89.9999999995224,7.502283530665459e-11,0.0
0.02,31.22218600000288,131.01038399999217,2.999997775701936,0.0,0.0,0.0,0.0,0.0,25.871876237766408,1.5320717031631675e-10,1.4674636035870463e-10,69.99999999623222,-9.67129256300373e-13,113.69999999387804,1.4372842949972735e-20,15.288,0.0,0.0,4.5023593667086093e-13,-7.284483346386986e-19,1.5178830414797062e-18,9.757819552369542e-19,-6.170906918166791e-31,0.0,89.99999999902465,1.5320717031631675e-10,0.0
0.03,31.22218599928065,131.01038400193067,3.000201659671132,18.81500467334555,-0.00012974450181,11.96616230539064,-1.8916256735984712e-05,3.349833086198469,180.34219359854663,0.0882870268161719,0.0553390044312322,69.99999999799445,-4.212591857125379e-12,113.69999999488518,0.0047728553458352,15.288,0.0,0.0,0.0002594525584132,3.2187251995663407e-17,-7.20264389268894e-10,1.2365134327422308e-11,1.6874092354518158e-13,18.815004673776716,89.46786891739345,0.0882666465974854,12.426199017587786
0.04,31.22218599548236,131.0103840121632,3.001799604587872,9.46752327608497,-4.6177622759613696e-05,55.21900012092241,3.931876292165237e-06,3.349616504302861,548.6359724538078,0.3767519978512604,0.1853356633749705,70.00000000507204,-2.4624598767003407e-11,113.70000000019972,0.086915163246288,15.288,0.0,0.0,0.0011071759353184,1.6174128009138757e-15,-1.3693172015529268e-08,2.7753303060112748e-11,1.3689612277852356e-11,9.467523276196548,87.63554493451223,0.3767447442872393,55.32050167054111
0.05,31.222185984749512,131.01038404118162,3.00777936418888,5.376730308971262,-2.257790939128127e-06,80.28807156553681,5.266841443842784e-05,3.348887800834877,761.6984298824644,1.018787885905993,0.4366201147110198,70.00000000894464,-1.1355399380652658e-10,113.70000001523856,0.635552918586145,15.288,0.0,0.0,0.0029939522895272,1.6418815498809788e-14,-9.32122351075408e-08,4.303264669380585e-11,2.5199270302492604e-10,5.3767303089717045,83.57022052969386,1.0187875312530217,80.35788377762394
0.06,31.22218596447235,131.01038409608267,3.0201664202003013,4.296730121134882,2.4863835723705905e-05,60.21296515808257,0.0001057204249726,3.347700952379021,590.4875390737208,1.721098934225416,0.7081674028809783,69.99999995523842,-3.0560354507026086e-10,113.70000004366592,1.8138247671743823,15.288,0.0,0.0,0.0050578622752421,8.328976953118383e-14,-3.2824985336199985e-07,5.923438275930214e-11,1.4991363363716091e-09,4.296730121206683,79.20467073327266,1.7211028398275985,60.305955550063224
0.07,31.22218593493329,131.01038417609837,3.038741944736831,3.8204913578752526,4.8016684030909405e-05,91.4060317508128,0.0001597686613101,3.346072557365335,855.2937749779139,2.4375792548422868,0.9844712334613328,69.99999973536046,-5.939103491363046e-10,113.7000000850886,3.6383156301599167,15.288,0.0,0.0,0.007163413150771,2.709313825263564e-13,-7.906546256197275e-07,7.920022733617308e-11,5.114174483651565e-09,3.820491358176508,74.87999294483174,2.437586797285377,91.46725557277466
0.08,31.222185894468456,131.01038428575305,3.0647976109320942,3.588632851766762,7.220043782492885e-05,19.18449428359557,0.0002119618497595,3.3440615022685813,241.2171988638848,3.1292508166901074,1.2522236515868983,69.99999919480445,-9.914748373602156e-10,113.7000001418522,5.996012698481753,15.288,0.0,0.0,0.0091960591623389,6.80386533246681e-13,-1.5973238302190878e-06,1.0839624626357699e-10,1.3263625118823921e-08,3.58863285249208,70.86684630658345,3.1292621579083604,19.473766155861934
0.09,31.22218584634549,131.01038441616095,3.0957981580345013,3.551302481506045,9.685468678862004e-05,57.102946699906326,0.0002554087225869,3.341892818148368,563.0937377043176,3.701810007254615,1.479132491047967,69.99999812344194,-1.4359264356978275e-09,113.7000002093888,8.390904013834115,15.288,0.0,0.0,0.010878666406854,1.440096519545733e-12,-2.748643691533636e-06,1.5214952332699618e-10,2.6999776649034504e-08,3.5513024828250237,67.68737872952666,3.701825221153239,57.20065357568538
0.1,31.222185790329306,131.01038456796124,3.1319266121977414,3.608446747536112,0.0001234669721807,54.26147302645416,0.0002914860332524,3.3396271157106168,538.7437595981919,4.174070299823608,1.6716491241860567,69.9999963052332,-1.902380107712657e-09,113.70000028805804,10.668380938744466,15.288,0.0,0.0,0.0122665227999911,2.687800116751415e-12,-4.315796035622946e-06,2.1749089204950437e-10,4.7802076800548326e-08,3.608446749645647,65.17160335282355,4.174089693970246,54.36414778470795
0.11,31.222185727066616,131.0103847393952,3.172681775073216,3.633547373470009,0.0001485939126744,42.987553988990406,0.0003293995000288,3.337005588796181,442.8656393052949,4.672024955140527,1.8729475711242067,69.99999349387662,-2.3433348587116544e-09,113.70000037699285,13.365573690709628,15.288,0.0,0.0,0.0137298902182575,4.5789425819531184e-12,-6.340230783164189e-06,3.1157625832417107e-10,7.860218435507205e-08,3.6335473765043056,62.62546922225161,4.672048296217748,43.116880735560244
0.12,31.22218565692512,131.0103849294629,3.2177790417108385,3.650108937861461,0.0001727442530266,46.86777100765684,0.000367618259785,3.334068179146888,475.58594813540446,5.17479364099247,2.0758708919414386,69.99998941286465,-2.702771525550512e-09,113.70000047573096,16.396890189902592,15.288,0.0,0.0,0.0152074069417046,7.288473386564583e-12,-8.86736416607888e-06,4.42271554299792e-10,1.217615295152289e-07,3.6501089419435786,60.16906436414164,5.174820775596283,46.986210423745625
0.13,31.222185580265183,131.0103851371844,3.2669395832841857,3.7280113734654137,0.0001995014041665,51.64515456841877,0.0003986198234033,3.3311573548369657,515.9156326236895,5.579364582999854,2.2451120211463422,69.99998375846928,-2.9114380666036422e-09,113.70000058383452,19.060875702782603,15.288,0.0,0.0,0.0163963474924215,1.100846422415094e-11,-1.1941028436408576e-05,6.179653149059831e-10,1.7678562106638216e-07,3.728011378795934,58.279338776943774,5.579395920607139,51.75247433579817
0.14,31.22218549718016,131.01038536230575,3.320091807147376,3.768719651034081,0.0002242721760019,48.1660778383537,0.0004326225136175,3.32784677779744,486.2390860568404,6.025734265159953,2.428648685938864,69.99997621008868,-2.890941335368725e-09,113.70000070125378,22.232643351545065,15.288,0.0,0.0,0.0177081261985351,1.5941871344608664e-11,-1.560901486259027e-05,8.477542742712431e-10,2.495765160917323e-07,3.7687196576976176,56.27980129251342,6.025769493750979,48.280903250602165
0.15,31.22218540777004,131.01038560455507,3.377159065217065,3.821894709649632,0.000249725644238,46.56959330999435,0.0004643042952466,3.324387732286376,472.54218587214,6.441023336496372,2.6014999612196745,69.99996641132823,-2.546763407193136e-09,113.70000082794672,25.402620271850456,15.288,0.0,0.0,0.0189285691155931,2.2314099732464315e-11,-1.992367942778425e-05,1.1417519574710292e-09,3.4051816697623295e-07,3.821894717796148,54.501255563441134,6.441062563308839,46.68809885900716
0.16,31.22218531193176,131.01038586421257,3.4382223512025254,3.8463320955387794,0.0002733212404609,36.974247749122085,0.0004987816203583,3.3205066466509234,391.1218908297564,6.895451966878468,2.7877331692857847,69.99995397923414,-1.77088415515292e-09,113.70000096417354,29.113317717489338,15.288,0.0,0.0,0.0202640360420561,3.0367358387834494e-11,-2.4945905791363795e-05,1.5114297685186711e-09,4.5643121540033697e-07,3.846332105235269,52.641145594326446,6.895494900078523,37.12304892183151
0.17,31.222185210004127,131.010386140357,3.503019838429153,3.8860314262554336,0.000297865039677,46.520531453299206,0.0005306403365217,3.31650761597812,471.78125980632376,7.314788342774694,2.9619016331667103,69.99993849340957,-4.3039914767238207e-10,113.70000110959404,32.761746921137856,15.288,0.0,0.0,0.0214963781445172,4.0366633128431416e-11,-3.0713078585132897e-05,1.96747427715988e-09,5.961228045584824e-07,3.886031437653654,51.00464968745696,7.314835131305714,46.63860064094784
0.18,31.22218510147516,131.01038643438045,3.571950002194137,3.9107265153396016,0.0003214293682635,38.895647526122765,0.0005639254295027,3.312149448254175,407.10156721191447,7.754626295791602,3.1430587898572058,69.9999195084231,1.6149322372810674e-09,113.70000126508234,36.81988229018681,15.288,0.0,0.0,0.0227889722876034,5.2593391349219385e-11,-3.731786027786564e-05,2.525509173087448e-09,7.6786585232224e-07,3.9107265285284982,49.36615848311875,7.754676785798701,39.036415444581515
0.19,31.222184986476247,131.0103867459258,3.644912152926752,3.920599115663931,0.0003437679584038,43.86258669386953,0.0005989384366483,3.307389681300437,448.9531328318269,8.219206165926856,3.332657190859447,69.99989653019398,4.538529095696477e-09,113.70000143063515,41.36350714675367,15.288,0.0,0.0,0.02415428010977,6.735860419174937e-11,-4.481243905342629e-05,3.199401151670645e-09,9.773118416308382e-07,3.92059913071168,47.71893898797248,8.21926016487149,43.987104227715655
0.2,31.222184864792144,131.01038707557822,3.722074668489528,3.943376465171875,0.000367328732016,40.28070981710589,0.0006315894240138,3.30251450988504,418.51563019916136,8.65238089736321,3.511445117640573,69.99986902534273,8.534090245934178e-09,113.7000016067622,45.83799876721736,15.288,0.0,0.0,0.025427299120469,8.499785987217288e-11,-5.328041996372527e-05,4.006766070954748e-09,1.2232205148646746e-06,3.9433764822533854,46.2587826635041,8.652438597225508,40.41586552155969
0.21,31.22218473678744,131.01038742234647,3.803156063113743,3.9664546506877016,0.000390962054969,38.67679184347145,0.0006636984664108,3.297405915846789,404.8187610144644,9.079179692250786,3.688002035198235,69.99983642883521,1.3827831253856693e-08,113.70000179318536,50.47126980736161,15.288,0.0,0.0,0.0266815841422463,1.0586558589671407e-10,-6.275155280099118e-05,4.961340042512481e-09,1.5117124669161171e-06,3.9664546699249135,44.88773728276958,9.079241104426773,38.817098210937615
0.22,31.2221846022986,131.01038778667507,3.8882846911135607,3.956175711337521,0.0004112685792646,46.713636108302936,0.0007011135033803,3.291572407481395,472.5421858721365,9.580256326712124,3.889976788904857,69.99979815126248,2.0662823443484168e-08,113.70000199039316,56.195522894218605,15.288,0.0,0.0,0.0281541581291438,1.3033127211465288e-10,-7.330053770532661e-05,6.0817207473359025e-09,1.8632831045819008e-06,3.956175732680424,43.35679625546934,9.580320928629488,46.8294591882524
0.23,31.222184460898035,131.01038816972698,3.977794004014759,3.9879066397329104,0.0004360962274406,38.89105719050748,0.0007308686121188,3.286096544282012,406.3406421461021,9.977039034039262,4.056142701351626,69.99975353557706,2.9316661139418326e-08,113.70000219928508,60.9462612310605,15.288,0.0,0.0,0.0293202403623685,1.5880617816859538e-10,-8.505067486192354e-05,7.393319440773217e-09,2.2514912291167663e-06,3.987906663538912,42.20670487756048,9.97710753587448,39.0296395118868
0.24,31.222184313516166,131.01038856897196,4.070963590490852,4.003523997322975,0.000459165577055,40.0792299321398,0.0007630441688766,3.280134925833028,416.2328240017114,10.408422364424831,4.234121060914368,69.99970190737699,4.010976417051318e-08,113.70000241888,66.32994780718496,15.288,0.0,0.0,0.030588009649109,1.91711512587616e-10,-9.795845222523724e-05,8.904557280909524e-09,2.7052895870113487e-06,4.003524023611085,41.011349410369874,10.408494489985014,40.21323112692186
0.25,31.22218416001652,131.01038898478134,4.167901030441617,4.0261356185860135,0.0004830526730531,41.17760020658354,0.0007934613160587,3.2740610008587527,425.36408079150686,10.816813039390448,4.4041629376391525,69.99964258149416,5.3372865854010094e-08,113.70000264972064,71.63651430352668,15.288,0.0,0.0,0.0317882126436337,2.2947426169209347e-10,-0.0001121037688082,1.0637152702866709e-08,3.217380562698304e-06,4.026135647516394,39.93186687113378,10.816888917126896,41.30755663120434
0.26,31.222184000702686,131.0103894163294,4.26837241014618,4.053359329950934,0.000507503069958,44.80261175215926,0.0008224724146494,3.2678597736729302,455.8015834241788,11.207047269494833,4.567925492611352,69.99957484039399,6.947299261165984e-08,113.70000289176392,76.89781807056055,15.288,0.0,0.0,0.0329350617559806,2.7254099134167665e-10,-0.0001275114371842,1.260720913253598e-08,3.7915697709142366e-06,4.053359361668992,38.945390435244384,11.207126987890645,44.921630958721536
0.27,31.22218383516388,131.01038986473338,4.372698316214008,4.0614460923241,0.0005296455772492,41.029837477288126,0.0008548809954683,3.2610328932384265,423.84219965987256,11.645685385842508,4.748226940060522,69.99949794024376,8.879821051920497e-08,113.70000314600205,83.0342688744587,15.288,0.0,0.0,0.0342241635563461,3.2137296827284217e-10,-0.0001442952656441,1.4842505534226832e-08,4.458527942364847e-06,4.061446126801262,37.8838346421185,11.645768582375233,41.15922617924542
0.28,31.222183663504484,131.01039032970942,4.48079961904222,4.081133040992532,0.0005533279247169,47.27661484082626,0.0008845140695959,3.254218495915602,476.3468732012221,12.047344998676092,4.915789434712848,69.99941106884992,1.1178948978424788e-07,113.70000341275257,88.85982357848233,15.288,0.0,0.0,0.0354045979054623,3.764736350660473e-10,-0.0001625146963723,1.7365685655384934e-08,5.194620655212288e-06,4.081133078439725,36.956255322213885,12.047431915223257,47.38848224631549
0.29,31.22218348566054,131.0103908114315,4.592727908358551,4.1001100265020245,0.0005770279952742,37.989969791857405,0.0009138463939581,3.247164755122801,397.97031042211177,12.446314684600782,5.082367374004485,69.99931338876085,1.3891902435864665e-07,113.70000369260468,94.8417675268915,15.288,0.0,0.0,0.0365771315767517,4.3836067907166327e-10,-0.0001822432988888,2.0202163500922312e-08,6.018074062137429e-06,4.100110067036654,36.07377590258778,12.446405323946324,38.12849176886316
0.3,31.222183301933686,131.01039130907952,4.708251093558373,4.112858061667493,0.0005998635114143,35.655053282557844,0.000944131403186,3.2397207148238625,378.1859457108711,12.860033399289696,5.253940723820665,69.99920403105713,1.707002607527005e-07,113.7000039856728,101.2505662360602,15.288,0.0,0.0,0.03779301412572,5.075709863465428e-10,-0.0002035013069687,2.3370674033523645e-08,6.94335970778e-06,4.112858105337573,35.19685285507256,12.860127625629724,35.80193592228613
0.31,31.222183112488807,131.0103918222051,4.827243246502713,4.136140889545823,0.0006242383343011,37.56633644061071,0.0009716215464757,3.232339252743767,394.1656220930212,13.2364445751808,5.4126574282679245,69.99908210036875,2.0768081583188525e-07,113.7000042923011,107.26326115439352,15.288,0.0,0.0,0.0388992619788015,5.846561731689753e-10,-0.0002263323252403,2.6893437641668458e-08,7.948283231812338e-06,4.1361409365698805,34.43286455705216,13.236542630309057,37.70514091683033
0.32,31.22218291741533,131.01039235056504,4.949637017503345,4.1622282001352975,0.0006491019906456,40.83513712643371,0.0009979686925508,3.224840963348891,421.55939346242695,13.59846554462374,5.566374262777002,69.99894668612772,2.504388718903276e-07,113.70000461297312,113.2095365840355,15.288,0.0,0.0,0.0399632243410653,6.701756367872645e-10,-0.00025078340164,3.0793566854276295e-08,9.047716714467492e-06,4.16222825066026,33.72644865222576,13.598567505326,40.96227562489027
0.33,31.222182716732533,131.01039289410716,5.075419569102976,4.187801887681037,0.0006739743721461,40.48743503284469,0.0010239291638211,3.217136801802925,418.5156301991682,13.956637761217308,5.718704299733134,69.99879684673242,2.995902922462564e-07,113.70000494831164,119.25032483364384,15.288,0.0,0.0,0.0410158804634189,7.647061680070125e-10,-0.0002769136723495,3.509664608790402e-08,1.0253455741189656e-05,4.187801941818244,33.053267359159875,13.956743628864118,40.61505097607
0.34,31.222182510255863,131.01039345333336,5.204736257784645,4.19642921746386,0.0006961879027693,31.814592723444047,0.0010535137542081,3.208669900766693,345.46563688075645,14.367047160772364,5.88887983533068,69.99863160305904,3.557915789971256e-07,113.70000529927128,126.36523219087664,15.288,0.0,0.0,0.042222056531773,8.688448410811866e-10,-0.0003048202762282,3.9835373705550826e-08,1.1618525957862828e-05,4.196429275109305,32.30947868183619,14.367156517712404,31.97598901989736
0.35,31.222182298183583,131.0103940277045,5.337435501771672,4.210915783240843,0.0007193441544952,34.813487415034444,0.0010813034848195,3.200164272309822,370.5765700527033,14.754132934586384,6.050986755458457,69.99844991734221,4.1975736284587617e-07,113.70000566632532,133.26448209504355,15.288,0.0,0.0,0.0433596939127697,9.832256819293898e-10,-0.0003345386312107,4.503361101379695e-08,1.309465610343774e-05,4.210915844572415,31.63649055965014,14.75424592890194,34.96026256388454
0.36,31.222182080444604,131.0103946174141,5.4735747500461605,4.22903876037745,0.0007431682866607,39.2632255716727,0.0011077666085529,3.1915717453569297,407.8625232777193,15.124417129017054,6.2072589919251575,69.99825073022951,4.922382611919288e-07,113.70000605036684,140.03566173682628,15.288,0.0,0.0,0.0444479595865755,1.1084921261805627e-09,-0.0003661511460057,5.0723697896912267e-08,1.4691545926915382e-05,4.229038825557203,31.017264542603208,15.124533865618538,39.39272792946638
0.37,31.22218185710795,131.01039522227452,5.613102797925907,4.249164960780052,0.0007674149135003,37.28328237034959,0.001133274451316,3.1828514669894137,391.1218908297666,15.483077353331511,6.359470679857624,69.99803294268581,5.740349991123437e-07,113.70000645214331,146.75405277514704,15.288,0.0,0.0,0.0455020695186381,1.245311285088233e-09,-0.0003997125883071,5.6934243389647934e-08,1.641828325195534e-05,4.2491650299519,30.439178816713017,15.483197898584232,37.418894813348615
0.38,31.2221816281124,131.0103958424523,5.756069531572451,4.260095806433531,0.0007900626414612,38.9278000801764,0.0011607546399008,3.1735466295306622,404.8187610144602,15.87126705947922,6.521735074464384,69.99779542676283,6.659911329739736e-07,113.70000687263192,154.20298254405043,15.288,0.0,0.0,0.0466429667223463,1.3943646956867835e-09,-0.0004353006984059,6.369875435270817e-08,1.8328108041903096e-05,4.260095879559656,29.83470194713067,15.87139116222873,39.05694584372078
0.39,31.22218139339905,131.0103964781077,5.9025231349944285,4.274091258047817,0.0008133283308351,33.320076729592266,0.0011870382950339,3.164143363712209,357.64062493382744,16.24457853509073,6.678818328235205,69.9975369905506,7.690136753559805e-07,113.70000731287368,161.54010621938565,15.288,0.0,0.0,0.0477401448128051,1.5563705124515804e-09,-0.0004730068442167,7.105463478762673e-08,2.0383860516746246e-05,4.274091335289374,29.274934656826048,16.244706292406182,33.46997636540994
0.4,31.22218115316572,131.01039712870306,6.0523126585892895,4.286421841403391,0.0008363022448449,31.88018820767003,0.0012133780841982,3.1544430614236454,345.465636880754,16.62063299903514,6.836764518435374,69.99725641601981,8.840594270905819e-07,113.70000777359816,169.10340080049767,15.288,0.0,0.0,0.0488453895716005,1.7320643186450851e-09,-0.0005128553637434,7.9027539265021e-08,2.2612406375611563e-05,4.286421922834417,28.730746964325096,16.620764365084565,32.03586915718869
0.41,31.22218090752676,131.01039779392735,6.205351877049411,4.30025870409831,0.0008595777771371,35.882550741685804,0.0012389121673015,3.1445895889870297,378.94687077668647,16.987310563534386,6.99141560549392,69.9969524610574,1.0121301778427253e-06,113.70000825570062,176.64448930727934,15.288,0.0,0.0,0.0499230826371405,1.922193031274436e-09,-0.0005548883906878,8.764667734700782e-08,2.5005077415911235e-05,4.300258789847355,28.21875643368965,16.987445585695873,36.020076248499606
0.42,31.222180656535848,131.0103984736348,6.36160173428776,4.322008670726048,0.0008844838439129,40.34064925656127,0.001261804338223,3.134918999355981,416.2328240017114,17.318628721060172,7.133856886815013,69.99662385300175,1.154276942054023e-06,113.70000876021427,183.59942989625057,15.288,0.0,0.0,0.0508968652507098,2.1275184665783874e-09,-0.0005991661829955,9.694534598491077e-08,2.752657757470936e-05,4.322008761057615,27.772396468009568,17.318767655457478,40.462275036947325
0.43,31.222180400205527,131.0103991677914,6.521055075967404,4.339436441324956,0.0009085827200945,35.541853595187746,0.0012854696362701,3.124839917627212,375.9031395134336,17.662848429084132,7.280642039343927,69.99626930133451,1.3115939750280808e-06,113.70000928827632,190.96736675963504,15.288,0.0,0.0,0.0519085689713619,2.3488101247838237e-09,-0.0006457514522491,1.0695800287133593e-07,3.0255957891170616e-05,4.339436536261635,27.322335771349252,17.662991148924057,35.67895714766603
0.44,31.22218013836212,131.0103998768696,6.683849332059896,4.342209064313268,0.0009296474314902,32.82948243168077,0.0013129688908547,3.113754688841357,353.0750125389216,18.063580761318697,7.446730341918701,69.99588746395321,1.4852372182848018e-06,113.7000098413532,199.7278270846888,15.288,0.0,0.0,0.0530863610987301,2.586862292117705e-09,-0.0006947575786514,1.1773083546077225e-07,3.329010177793299e-05,4.342209163639375,26.81344244367223,18.06372678999575,32.9768158972058
0.45,31.22217987077456,131.0104006014978,6.850166573233225,4.3420317510315165,0.0009500780330031,38.11022602597878,0.001341042003417,3.1022288449712887,397.2093853562869,18.47486275310604,7.616350301328129,69.99547690348253,1.6764536248320808e-06,113.70001042108892,208.92306716049887,15.288,0.0,0.0,0.0542951637545535,2.842521175226318e-09,-0.0007463379956615,1.2932090054593452e-07,3.657529369088674e-05,4.342031854775571,26.30944884471334,18.47501199101448,38.23628058998621
0.46,31.22217959739673,131.01040134180155,7.020045503401754,4.351169003849846,0.0009725797783515,44.3937050866137,0.0013660055515545,3.09098240974522,449.7140588976434,18.844323061800488,7.771531995684422,69.99503610583268,1.8865779683531e-06,113.70001102895836,217.3591612614144,15.288,0.0,0.0,0.0553810645782081,3.1166808800591503e-09,-0.000800596194505,1.417768495237597e-07,4.001824400409673e-05,4.351169112337076,25.873596578896564,18.844475834274814,44.50118229261506
0.47,31.22217931813738,131.01040209802923,7.193559875579052,4.358630093683735,0.0009947969928181,30.22514089990685,0.0013910994973101,3.079396422776949,331.0078106302534,19.2180591098146,7.9280875671397615,69.99456352718363,2.1170044481277104e-06,113.70001166656292,226.0625808853568,15.288,0.0,0.0,0.0564795377574197,3.4102493884459798e-09,-0.0008576351980594,1.551487523304888e-07,4.3718862242359527e-05,4.35863020698899,25.44665981168229,19.218215372160817,30.381603425148434
0.48,31.22217903348153,131.01040286886197,7.370336324605091,4.365514409145237,0.001016880998596,29.779838936311712,0.001416009414045,3.067527859335786,327.2031223011574,19.5915905767454,8.084483592791102,69.99405758812365,2.369198154608765e-06,113.70001233476164,234.93171707892955,15.288,0.0,0.0,0.057577416115756,3.7241711041759195e-09,-0.0009173883913609,1.6944871263079066e-07,4.767297940601472e-05,4.365514527349481,25.03354780044292,19.59175030803913,29.937410312943754
0.49,31.22217874361868,131.01040365378466,7.5502307795521535,4.3786401372577615,0.0010404145545081,37.2489281064929,0.0014385799934191,3.0558405437943126,389.60000969812296,19.93403005898306,8.23012235628909,69.99351671352461,2.644660619562788e-06,113.700013034871,243.21198709852868,15.288,0.0,0.0,0.0585839249886784,4.059374595909599e-09,-0.0009798792959512,1.8470833984680338e-07,5.180951737438081e-05,4.378640260624215,24.667474291142685,19.934193486919103,37.37406598941686
0.5,31.22217844858332,131.0104044527036,7.733219389747018,-2.805152878067376,-7.8387928899052834,38.32155145758661,0.4660184968442525,3.4920541336748028,397.97031042210494,19.486730492754106,8.366269437912349,69.99293932307316,2.9449363413826395e-06,113.70001376847225,232.4154983957592,15.288,0.0,3.7577354668479273,0.0572694789094866,4.41672905964163e-09,-0.0010516197388721,1.555754818850547e-05,5.435405300866982e-05,8.322643304909999,16.960377477481504,18.259253427081617,38.48315113693751
0.51,31.22217814822752,131.01040526552694,7.919237796363512,-2.682984181913059,-7.721330422149043,29.41029926075072,0.4774449096969209,3.4909750370554726,323.3984349720841,19.820558122268547,8.51643113605509,69.99234755328177,-5.0750277651872577e-05,113.69995704562136,240.442441639674,15.288,0.0,3.7726471166408393,0.0582506859094824,4.7630627904227585e-09,-0.0010128380378467,-9.53661472875234e-05,5.32454315320902e-05,8.171518325495502,16.702988887739274,18.61136217373438,29.62061044202253
0.52,31.22217784221061,131.01040609238268,8.108289809290849,-2.5647561068445524,-7.605540163841364,35.246463189474504,0.4893333338400608,3.489885499756083,372.0984511843415,20.1633840470182,8.669267523175805,69.99177797724712,-0.0002809708403296,113.69971246602412,248.8274740866437,15.288,0.0,3.787505083984744,0.0592583442226922,5.030312985236331e-09,-0.0009742063205648,-0.0002091366382233,5.209942734363352e-05,8.023934760167599,16.445130379653097,18.97221393801767,35.42219523519111
0.53,31.22217753038993,131.01040693365545,8.300486910984642,-2.4509284170635977,-7.494517826413474,36.986851230360976,0.5012756200156451,3.4886283843149,386.5562464348624,20.50267127472617,8.82081797007913,69.99123051231764,-0.0006923170730477,113.6992751327806,257.26716989047094,15.288,0.0,3.8023118200447,0.0602556090424561,5.217035885253225e-09,-0.0009357304790858,-0.0003258892969786,5.088289283194854e-05,7.882927416914314,16.19669706699579,19.32878932078167,37.15439367272631
0.54,31.22217721265933,131.01040778960905,8.495905882465102,-2.341054721874921,-7.387393845694175,32.53145904741884,0.513316550052148,3.4872177987553505,349.2703242098436,20.8400724485408,8.971656196495204,69.9907050595072,-0.0012895148577946,113.69864001533352,265.7992623728338,15.288,0.0,3.8170781416303305,0.0612473374489076,5.321769350856567e-09,-0.0008974322497086,-0.0004457251699836,4.960247158931641e-05,7.747497554566787,15.95622993664742,19.68287578495613,32.72185828479799
0.55,31.22217688928629,131.0104086594916,8.694333830076694,-2.2355336529211023,-7.286010362292923,34.45410815074393,0.5253018399840969,3.485611854251601,365.2500005919907,21.169573948007983,9.11970480715678,69.99020149061843,-0.0020773203114329,113.69780205045092,274.2655644880689,15.288,0.0,3.8317868311080914,0.0622158557659865,5.3430940681679605e-09,-0.0008594072436856,-0.0005685160808638,4.825088387188442e-05,7.61948733659541,15.727132423484834,20.028172179956503,34.63395733214369
0.56,31.22217656026453,131.01040954329645,8.895770484442734,-2.1345123437297286,-7.191542258381049,32.18299941479285,0.5371078470903797,3.483783418857098,346.2265619465787,21.48654356510584,9.263367725099709,69.9897196369386,-0.0030604109726445,113.69675625895074,282.53468044207733,15.288,0.0,3.846437699158432,0.0631475501790295,5.2796444904532885e-09,-0.0008216950511907,-0.0006943067677079,4.68234031290922e-05,7.500031290651937,15.511625276222691,20.35986253833244,32.37546421414629
0.57,31.222176225658608,131.01041044082487,9.100160808874673,-2.035642310332608,-7.096737195699961,31.826005907012373,0.549262569591571,3.4818663891744723,343.1828296833023,21.81167061549808,9.409786555637645,69.98925929796958,-0.0042434635155858,113.69549766250978,291.14409438162943,15.288,0.0,3.861024386854071,0.0641032251817064,5.130095472888085e-09,-0.0007843531443755,-0.0008230852484949,4.5370941812951264e-05,7.381483850754885,15.296871693570376,20.69976591670209,32.020614218275135
0.58,31.222175885440123,131.01041135213103,9.30752197349032,-1.9376657738687928,-6.997152277735356,41.78024308836452,0.5621486370349625,3.479942114712359,426.1250058573153,22.159310616425127,9.563911544297802,69.98882024651468,-0.0056311991093379,113.69402123562465,300.49272832803706,15.288,0.0,3.875546933814921,0.0651250711729385,4.893132077015429e-09,-0.0007474212257756,-0.000954900227441,4.3922823151925966e-05,7.259201291641895,15.074838392388994,21.062930512051423,41.928686131748755
0.59,31.22217553920552,131.01041227828833,9.518161869119508,-1.8451842846414177,-6.909316838525662,33.94104170988745,0.5744229256164985,3.4776955210440152,360.68438819711065,22.47754739242007,9.707835170842094,69.98840225539713,-0.0072286480688553,113.69232162435752,309.17939019926854,15.288,0.0,3.890023486876757,0.0660605096248449,4.567321868379305e-09,-0.0007108670243662,-0.001090067907764,4.237376765455233e-05,7.150303719996742,14.875236477115273,21.394862971161785,34.12357894750905
0.6,31.222175187155948,131.01041321872574,9.731919449524076,-1.7520850985492666,-6.811212146875186,30.206027781221906,0.5879259863477673,3.475537582986089,329.4859594986058,22.836787198841247,9.865839175434672,69.98800506945561,-0.0090409100087183,113.69039340020502,319.134523424081,15.288,0.0,3.904441133450113,0.0671164612481295,4.151276111431172e-09,-0.0006747779065985,-0.0012284851788688,4.086455138293219e-05,7.031922763266494,14.65836628099343,21.769402693731507,30.411003481899794
0.61,31.222174829236405,131.01041417356888,9.948832380932286,-1.6614125850818815,-6.713864141023442,35.328616915862725,0.6017704243447645,3.473256421064715,372.0984511843297,23.202502834615505,10.026011678542243,69.987628411371,-0.0110732085538546,113.68823100309372,329.43095165178005,15.288,0.0,3.9188044686078656,0.0681914526575325,3.6435759907410286e-09,-0.0006391909959887,-0.0013702312575009,3.932849370056111e-05,6.915462197712296,14.444041528131375,22.150303330087127,35.50403936171017
0.62,31.22217446555157,131.01041514250866,10.168814445522866,-1.5781221691933338,-6.638087581390527,43.83428042646061,0.6139982844638463,3.470462218063333,442.86563930529206,23.501301899721184,10.163055992216812,69.98727197929254,-0.013330888253269,113.68582874407647,337.9631903127522,15.288,0.0,3.933119406039588,0.0690697854655333,3.042795170879719e-09,-0.0006041646207489,-0.0015153053357191,3.765129060197187e-05,6.822281349386541,14.27031947653452,22.460924640292838,43.975734700012886
0.63,31.222174095914887,131.01041612603024,10.39200589049247,-1.495655025670726,-6.5583786242959645,25.0169517458028,0.6268902427071952,3.4676236051193747,286.11251274707894,23.81958048335976,10.306756497481686,69.9869354194538,-0.0158190998688944,113.68318114090944,347.1718205573396,15.288,0.0,3.9473595403216506,0.070005375166946,2.347623363255609e-09,-0.0005697265552876,-0.0016638451818792,3.5985199869022376e-05,6.7260341410158135,14.09090781439585,22.79164094369612,25.26391259276774
0.64,31.22217372089032,131.01041712257657,10.617964716239216,-1.4133979291770076,-6.471440625686255,24.56483904489935,0.6408362758823707,3.464796251054304,282.30782441796754,24.171085405963336,10.461842784456916,69.98661834679497,-0.0185430475618298,113.68028265350468,357.4860776182499,15.288,0.0,3.961538973840173,0.0710386237355306,1.5567829098254535e-09,-0.0005360194134989,-0.0018154859866057,3.435505095784463e-05,6.623347709589239,13.899469650603749,23.15671386718949,24.816260828247643
0.65,31.222173340452485,131.01041813219533,10.846706493083865,-1.3363390022219108,-6.40016978949833,43.13562821688592,0.6535348836888518,3.461561374854329,436.7781447787475,24.4707264274479,10.598996325411427,69.98632033245467,-0.0215078135224343,113.67712787247262,366.3962425037872,15.288,0.0,3.9756361373568505,0.0719194518576153,6.690610562084187e-10,-0.0005030796502501,-0.0019703067249513,3.2642844612191794e-05,6.537625041793238,13.738275123577598,23.467479533335883,43.27923216349253
0.66,31.222172954101413,131.01041915622616,11.078615230144552,-1.260555240440275,-6.327271645270981,36.74199856821682,0.6666974356813383,3.4582313699386984,383.51251517160017,24.781820229416823,10.740036249975944,69.98604091866542,-0.0247185358343667,113.67371132966532,375.76300518820847,15.288,0.0,3.9896713507608577,0.0728339469310954,-3.1673727247426086e-10,-0.0004708864633407,-0.0021286877094113,3.094169651448197e-05,6.451116271700694,13.57548002087883,23.789953591791217,36.91040921563481
0.67,31.222172562010545,131.01042019417483,11.31355209285754,-1.1852370706598427,-6.248262696210023,25.4024364269702,0.6808530400370542,3.4548789194853256,289.1562440103425,25.12307171763176,10.891400945886703,69.98577963825038,-0.0281807128450358,113.6700271726136,386.1742345565208,15.288,0.0,4.003658919858216,0.0738370832002618,-1.4019081995468126e-09,-0.0004395198606669,-0.0022905398772278,2.9277646222296622e-05,6.359245257470316,13.402594468749037,24.143541117459808,25.64534120725818
0.68,31.222172164336943,131.01042124559197,11.551391109249725,-1.1123057359385569,-6.173137776869156,31.63252150346347,0.6949269405291133,3.451320103981157,340.8999924858462,25.45526560990489,11.039579758614552,69.98553598633744,-0.0318998314766746,113.66606956108312,396.44520114992736,15.288,0.0,4.017554667869465,0.0748136067566945,-2.587709090978934e-09,-0.0004090514631576,-0.0024558019951208,2.760772247928693e-05,6.272165726361688,13.23830600803642,24.48746634330907,31.827832954505343
0.69,31.222171761151195,131.01042231026454,11.792073688303992,-1.0425272629731233,-6.106908683969459,38.873521045704415,0.7082974580179218,3.447477021382083,401.0140726853634,25.756532519736133,11.177046021629463,69.98530941636399,-0.035881303222947,113.66183273529136,405.87532824722274,15.288,0.0,4.031384790005553,0.0756992426313295,-3.8753296822857295e-09,-0.0003795439524228,-0.0026244559263134,2.5918772581869168e-05,6.194923549687877,13.091900741554683,24.799076815664677,39.03251748981631
0.7,31.22217135231364,131.01042338855288,12.03570474842544,-0.9743433870708834,-6.041555940012298,32.65300264064147,0.721858016470342,3.4434848336538546,349.27032420985284,26.05897467711417,11.314854551715932,69.98509934220289,-0.0401304830325597,113.65731099598514,415.4534298815649,15.288,0.0,4.045161305895669,0.0765883399619379,-5.265889637676905e-09,-0.0003510342878803,-0.0027966393382147,2.4252787518142204e-05,6.119331830606433,12.948410029410368,25.11172692275143,32.842004327465844
0.71,31.22217093786952,131.01042448031384,12.282245674976105,-0.9069922495825892,-5.972673913303707,26.886957584263737,0.7361515219626532,3.4394002561240087,301.33126406340574,26.38159728572001,11.459542763058744,69.98490514955509,-0.0446528650359027,113.65249849557048,425.7940537100112,15.288,0.0,4.058844163197126,0.0775367560201412,-6.760531678354551e-09,-0.0003235852137442,-0.0029723484385862,2.263259082243464e-05,6.040901146832472,12.79969919292372,25.445110080742364,27.116044721218305
0.72,31.222170517813662,131.01042558554136,12.531697021940248,-0.8404896056431234,-5.899506141907298,32.85022581225941,0.7513409029037385,3.435229355889276,350.79220534145287,26.729298256481563,11.612793927126626,69.98472615690669,-0.0494540566830942,113.64738926878564,437.0812029493284,15.288,0.0,4.07246409635732,0.0785588866260953,-8.360399169831611e-09,-0.0002972506787789,-0.0031516354696747,2.106417846350524e-05,5.958867107556783,12.644114655907323,25.80424258954929,33.03789717576429
0.73,31.22217009213568,131.01042670424317,12.784063312891735,-0.777451152972148,-5.8406804335660425,41.47573470358743,0.7649982168034706,3.430701461394556,422.320318528234,27.0176931750372,11.745570803210745,69.98456176602889,-0.0545398978763452,113.64197709457444,446.5530100661768,15.288,0.0,4.086030100517726,0.0794067213376561,-1.0066690632449214e-08,-0.0002720823905996,-0.0033345712098716,1.9488225156137336e-05,5.892018591507427,12.516782973467176,26.101829375225467,41.62440995367134
0.74,31.22216966076697,131.01042783658752,13.039394813215232,-0.7152421444343078,-5.778638360668464,26.075768322767782,0.7793638031559476,3.4260660669134686,294.48281347105944,27.32513167955797,11.884833221599468,69.98441121944033,-0.0599160069319867,113.63625599628747,456.7624235734049,15.288,0.0,4.09951929829591,0.0803105340361532,-1.1880466141388348e-08,-0.0002481370434361,-0.0035212194220846,1.797491338834929e-05,5.822585067447745,12.384684047734522,26.418963368834525,26.311423949592417
0.75,31.222169224053104,131.0104289816134,13.297419957804006,-0.6541104486352471,-5.714954389881636,30.392385777638,0.7942690373904157,3.421291472538493,330.24688556441487,27.645162574337448,12.028356967461836,69.98427375998477,-0.0655880643935937,113.63021992767963,467.5126612329301,15.288,0.0,4.112921903255152,0.0812513644621512,-1.3802822393492594e-08,-0.000225508920431,-0.0037113369721579,1.652665848045567e-05,5.75214258102081,12.25072499022208,26.748947441663223,30.594659859207365
0.76,31.22216878187892,131.01043013961677,13.558225487607828,-0.5948739324967148,-5.656760088680802,32.69233222352288,0.8087053888837576,3.416288883846255,349.27032420986166,27.943455460333645,12.16433371406572,69.98414859084218,-0.0715617141626917,113.62386288219228,477.6441051745067,15.288,0.0,4.126261274715436,0.0821283129942301,-1.5834746504641442e-08,-0.0002042422704299,-0.0039050700298799,1.5129237493332668e-05,5.687851892359659,12.128379043782438,27.056336492826397,32.88029227907035
0.77,31.222168334181408,131.01043131075167,13.82185771823942,-0.5370320010102599,-5.600563953371717,30.586892465615577,0.8231381777136079,3.411104571795113,331.7687666960708,28.23596792825732,12.298253228809376,69.98403487919931,-0.0778426718978926,113.61717877685128,487.6840679019113,15.288,0.0,4.139538868960115,0.0829882801191649,-1.7977217150020886e-08,-0.0001843916996166,-0.0041025087196369,1.3801438463187176e-05,5.626171063564176,12.01102742832808,27.357633667662625,30.787516651436214
0.78,31.222167881017416,131.01043249484596,14.088269978456696,-0.4800515792835065,-5.541411633554147,25.17422477270594,0.8383032638648373,3.4057828201347764,286.8734378128899,28.54742052663025,12.438613935488524,69.98393171743595,-0.0844366775929857,113.61016150543064,498.48930154772256,15.288,0.0,4.152726449064716,0.0839039220595653,-2.0231202674853737e-08,-0.0001660250536292,-0.0043036287319767,1.2563472590686834e-05,5.562101529171792,11.88927966458191,27.678334003017497,25.417389753608713
0.79,31.222167422466782,131.01043369166433,14.357397723288194,-0.4241579898597441,-5.481047752714409,35.65043878776806,0.8539824549743564,3.4002977169191246,373.6203323159534,28.86987900295164,12.582685273203026,69.98383827037003,-0.0913495748410763,113.602804843043,509.8011369980118,15.288,0.0,4.165838286200334,0.0848519196543972,-2.2597683915130763e-08,-0.0001492091909961,-0.0045084034602327,1.1418222712261124e-05,5.497385317443615,11.76634496802477,28.010230583876016,35.82241053247934
0.8,31.222166958306207,131.01043490179936,14.629412288230077,-0.3700389046520785,-5.428827546540032,36.116596014149735,0.8686727579303553,3.3945677658080093,377.42502064505743,29.153812408741924,12.713438486402696,69.98375355806681,-0.0985873597264709,113.59510241133286,519.8645903850936,15.288,0.0,4.178892905971203,0.085686695807794,-2.5077571160477208e-08,-0.0001339891302771,-0.0047170908983035,1.0354080767803793e-05,5.441386524062678,11.66018514244096,28.30232957225036,36.28617078621454
0.81,31.22216648863005,131.0104361249771,14.90423814177773,-0.3167424224677592,-5.372826927375959,23.6225693969462,0.8842690750561558,3.3886943581565965,273.9374926939919,29.461816095567983,12.852393586871168,69.98367659447689,-0.106156007625403,113.58704785073796,530.8931155033439,15.288,0.0,4.19188365613766,0.0865922256118072,-2.767181621398256e-08,-0.0001204393080842,-0.0049296204843474,9.405089422296711e-06,5.382127897956563,11.547850048677113,28.61909076403288,23.880765610918804
0.82,31.22216601361692,131.01043736069332,15.181734159782987,-0.264489541306232,-5.3158004732437405,30.24584009744448,0.9003637948299535,3.38264258272409,328.72500443277005,29.779869817343776,12.994726992564472,69.98360631520619,-0.1140615013440359,113.57863479647304,542.4029976963321,15.288,0.0,4.204800396112241,0.0875273021603096,-3.038135313717039e-08,-0.0001086340480212,-0.0051458738956987,8.574569939469264e-06,5.322357424538401,11.434611643382118,28.946063240444637,30.447721901739698
0.83,31.22216553324437,131.01043860899344,15.46191587784546,-0.2137017091582642,-5.268025031708488,38.34440630143103,0.9151404945463892,3.3763513977656805,395.68750322465047,30.04978261045398,13.120436383342303,69.98354172537972,-0.12230990332591,113.56985679082716,552.2649414709877,15.288,0.0,4.217629117320225,0.0883208937146523,-3.3207047779862175e-08,-9.863492012892336e-05,-0.005365932937806,7.855682730742604e-06,5.272345530444752,11.340485155705792,29.22344859570473,38.50364561304782
0.84,31.222165047402903,131.01043987016268,15.744867100409152,-0.1638188878331751,-5.219236708729713,23.815412990534863,0.930348969660456,3.369888729614417,275.4593748256452,30.3282960671407,13.24902669295661,69.98348167558035,-0.1309071284346114,113.56070754169151,562.5343231102894,15.288,0.0,4.230393710246247,0.0891397718145202,-3.614964795520218e-08,-9.050661761227337e-05,-0.0055899115724322,7.2749237863532095e-06,5.221799898437189,11.245490873166176,29.50959363234278,24.07063761442699
0.85,31.22216455637696,131.0104411434088,16.030364723390093,-0.1147346160661004,-5.164352331289477,25.93499788561808,0.9469700496015692,3.363255595540037,292.96093233939376,30.645854821072668,13.390956662679413,69.98342497305946,-0.1398590840963734,113.55118076431908,574.3605147401126,15.288,0.0,4.243083964574803,0.0900734185475064,-3.921000345358568e-08,-8.432628365777002e-05,-0.0058175686213041,6.848932643591235e-06,5.165623231027263,11.139643894698237,29.835738234111577,26.169301782867425
0.86,31.222164059990007,131.0104424292003,16.318544867114525,-0.0667756513585535,-5.115236615958212,32.38235852977208,0.962819009195443,3.356413557392076,346.2265619465587,30.933133782233163,13.522402569192284,69.98337049712082,-0.1491719249202112,113.54126990291284,585.1630789461723,15.288,0.0,4.255708624260881,0.0909180762620943,-4.2388823907038895e-08,-8.015431895406702e-05,-0.0060491401540474,6.570932756876231e-06,5.115671292386646,11.04609198742828,30.130701251878087,32.57007332450168
0.87,31.22216355826076,131.0104437274727,16.609391758382706,-0.019762939870709,-5.069114535380964,30.17752107139165,0.978360063245901,3.349378947700352,327.964078366998,31.205278062859875,13.648569488070544,69.98331693385572,-0.1588517362947408,113.53096848637686,595.4880619039,15.288,0.0,4.268267084577776,0.091718258521496,-4.5686830902150363e-08,-7.806130213519738e-05,-0.0062846431180389,6.455470367725139e-06,5.069152959519717,10.959452318451136,30.41006177782188,30.37858301111064
0.88,31.22216305121952,131.01044503813017,16.90288077413206,0.0263684543353804,-5.020304122369272,26.129238899495327,0.9947054030792104,3.342147219160781,294.4828134710418,31.49686330820468,13.781335605993368,69.9832630723352,-0.1689046164564413,113.52027001860426,606.6515558997079,15.288,0.0,4.280755586397532,0.0925755896809,-4.91047431400095e-08,-7.811865745581748e-05,-0.0065240583239905,6.520394598909633e-06,5.020373192920457,10.86854749209235,30.709284445204734,26.360889824517667
0.89,31.22216253894165,131.01044636095352,17.19895216431077,0.0715749791654265,-4.968928940863448,28.62023655706378,1.0118713865061728,3.334697843603424,315.028134248087,31.808006120026544,13.920737173335388,69.98320750996918,-0.1793366925278999,113.50916798382484,618.6788191904525,15.288,0.0,4.293156643761155,0.0934904130388153,-5.264324315176584e-08,-8.039696049057304e-05,-0.0067673632762804,6.77665739406824e-06,4.969443122433563,10.773609321242445,31.02846660868146,28.831615181832134
0.9,31.22216202134861,131.01044769614535,17.497666346783916,0.116030978058121,-4.926233167476357,31.57339674883278,1.0275157083123097,3.327075659966437,339.37814235421445,32.06677627367067,14.042066152667651,69.98314894685534,-0.1901543116693158,113.49765562081583,628.7680993821515,15.288,0.0,4.305493528902276,0.0942513105600357,-5.6302966578366544e-08,-8.496860106506331e-05,-0.0070146923641888,7.220059288300781e-06,4.927596089049254,10.696831431761494,31.29391840976839,31.764832806693224
0.91,31.222161498505663,131.0104490435159,17.79897194612555,0.1596150842308642,-4.880891186085368,24.11068171999725,1.0439767046821609,3.319239158539824,277.7421810230789,32.34508797702293,14.170025099080028,69.98308588759964,-0.2013635555861159,113.4857264620794,639.7112701796854,15.288,0.0,4.317762617360766,0.095069653098887,-6.008451579620283e-08,-9.1906895120126e-05,-0.00726599752651,7.87718160191846e-06,4.883494044988232,10.61578816085332,31.57932634697707,24.360464054580582
0.92,31.222160970606115,131.0104504025232,18.1027173826766,0.2022748707432272,-4.833062236936631,28.631803268722017,1.0612689659126409,3.3111696112463807,315.02813424806214,32.642874295426026,14.304588097545317,69.9830169051249,-0.212970583910766,113.47337394807631,651.525539250788,15.288,0.0,4.329958147915715,0.0959452444119805,-6.398857418411109e-08,-0.0001012781637478,-0.0075211037187965,8.760037562242066e-06,4.837283185917466,10.530720345154778,31.88459864107176,28.842161750313576
0.93,31.222160437557623,131.01045177341027,18.40897457752016,0.2444632976777847,-4.792944945869921,33.985602396745925,1.0770933599706598,3.302956350892461,359.1625070654728,32.89121064185595,14.422083847683924,69.98294052579077,-0.2249815987233031,113.4605914743113,661.4569790156345,15.288,0.0,4.342086415265371,0.0966754986302805,-6.801557528250527e-08,-0.000113159520543,-0.0077801775327879,9.861885153538705e-06,4.799160769537679,10.462013944527282,32.13921437625084,34.16271097310189
0.94,31.22215989924972,131.01045315647193,18.717830117035938,0.2855775079285012,-4.746936636119291,24.763823994141404,1.0945301505492404,3.2944680506128856,283.0687504837787,33.182178135771565,14.554134401423648,69.98285511608026,-0.2374026705451531,113.4473725849467,673.1917471283498,15.288,0.0,4.354147305675279,0.0975310647995256,-7.216590835317581e-08,-0.0001276316816948,-0.0080433247198573,1.1221204631533431e-05,4.755499474926647,10.382436431844695,32.437383808646885,25.005969183372674
0.95,31.222159355961203,131.01045455093123,19.02906565642924,0.325979406347942,-4.70239451385788,31.9654226077429,1.1119108562448905,3.285769846882737,342.4218736174873,33.465833820733415,14.683586941434088,69.98275910301946,-0.2502401267337139,113.4337105413568,684.7299441235409,15.288,0.0,4.366136011661243,0.0983651481888662,-7.644024589025704e-08,-0.0001447549303166,-0.0083103138450778,1.2835066789990944e-05,4.713654425153329,10.306689276174266,32.728012379127456,32.15308494888974
0.96,31.222158807403005,131.01045595757515,19.342907880922866,0.3659045411207179,-4.6618610683685375,31.323669915783352,1.1285876183488888,3.276908391294891,337.09533515678345,33.72329732181509,14.803959301331188,69.98265083035646,-0.2635002421111639,113.41959866418924,695.285211766218,15.288,0.0,4.378061951492576,0.0991222541616463,-8.083876977957996e-08,-0.0001646271489517,-0.0085814981642321,1.4708944722570168e-05,4.676167145233083,10.239948881434575,32.99182161154372,31.514824061228396
0.97,31.22215825359158,131.0104573763503,19.65934432859432,0.4050126005171951,-4.620129842045976,20.15384968406184,1.1458133559020651,3.2678060476881687,245.02188719299323,33.9913600932034,14.927883377877905,69.98252858855828,-0.2771894272247065,113.40503012893296,706.3611659858449,15.288,0.0,4.389923990876149,0.0999105227689984,-8.536192176707167e-08,-0.0001873290222519,-0.0088568893791925,1.686981953706353e-05,4.637809749910931,10.171693137244535,33.26641801580912,20.44918339933481
0.98,31.222157694804256,131.0104588064841,19.97815801595488,0.4428809884928256,-4.573037061708678,29.20769850111653,1.1646934377427642,3.2583609053151688,319.5937466429581,34.30166894735404,15.066221424906892,69.98239061876022,-0.2913140528323034,113.38999815275372,719.294822106267,15.288,0.0,4.401714148749494,0.1008229737153735,-9.001035111521592e-08,-0.0002129132034393,-0.0091361949302692,1.934823595866449e-05,4.594387321196368,10.093360691568297,33.58410039409627,29.411954683858266
0.99,31.22215713089401,131.01046024837393,20.29946475175744,0.481039431538402,-4.536391109944622,31.8909090934991,1.1811169294930304,3.2489001724538453,341.6609485517054,34.536130937669704,15.178432181394486,69.98223510227132,-0.3058806362123936,113.37449579746804,729.1391096546424,15.288,0.0,4.413441403962027,0.1015124964220155,-9.47842304626732e-08,-0.0002414784489057,-0.0094196681902844,2.2093381250827305e-05,4.561771532101343,10.037217429839467,33.82430053820115,32.07772548578732
1.0,31.222156561857624,131.01046170202324,20.62326826369585,0.5179762738753498,-4.494544939232483,28.567936927779467,1.1991704797027976,3.2390884580632675,314.2672081822764,34.8117333565116,15.304675568192993,69.98206018914986,-0.3208953659945202,113.35851647353368,740.7997363878375,15.288,0.0,4.425102250527935,0.1023229520448894,-9.968385515849897e-08,-0.0002731045143393,-0.0097072908132758,2.5185533086068365e-05,4.524232870919294,9.971295543884391,34.10645573562994,28.775974773900103
1.01,31.2221559878672,131.01046316694996,20.949434229048183,0.5543856456547843,-4.454148399934756,29.865609323031087,1.2170933014092666,3.2290699137946124,324.9203161036979,35.078287796711685,15.427721992115131,69.98186395876166,-0.3363646968231634,113.3420533082618,752.1642553077959,15.288,0.0,4.4366950769198095,0.1031068213052752,-1.0470965217414309e-07,-0.0003078546864742,-0.009998927091496,2.860666111275568e-05,4.488447618301946,9.909179760734755,34.3793363105515,30.06431154788731
1.02,31.22215540884696,131.01046464335823,21.278023459808903,0.5903735050703492,-4.415678305238446,24.967907476439343,1.2347239898557525,3.218865135507319,284.59063161540416,35.33144893238608,15.546079905096986,69.98164445293627,-0.3522949415997136,113.32509957910852,763.036137394782,15.288,0.0,4.448222756569993,0.1038513316300292,-1.098617336827818e-07,-0.0003458225312913,-0.0102946957989876,3.236562827419042e-05,4.454892303996027,9.851881253632095,34.63852222101008,25.204801920343385
1.03,31.2221548248612,131.01046613106595,21.60898692112431,0.6252499991350229,-4.373901712840798,20.4373883258264,1.2535663616293111,3.208307136827376,247.30469339049705,35.61298415052857,15.674083668481297,69.98139961470451,-0.3686923399054153,113.30764864466306,775.2203016125002,15.288,0.0,4.459683239068533,0.1046792518196358,-1.1514032724616921e-07,-0.0003870818881757,-0.010594538947455,3.651461450141717e-05,4.418279533848486,9.788528166263523,34.92660039596645,20.725624354596686
1.04,31.2221542359672,131.01046762990944,21.942280885913647,0.6600497948009647,-4.33617391986187,32.374705420881455,1.271486318257134,3.1976301081699288,345.46563688072297,35.863552787900964,15.791366751260968,69.98112745034634,-0.3855633794081541,113.28969358918008,786.1422227282803,15.288,0.0,4.471078194655746,0.1054161588106365,-1.2054563968228336e-07,-0.0004317114632376,-0.0108984511926475,4.100987925663179e-05,4.386027576919944,9.73439895113571,35.18307818988296,32.557073990993736
1.05,31.222153641891328,131.01046914064415,22.27812280918461,0.6938135127399676,-4.295896137502961,19.60628324288793,1.290428134554367,3.186605324056244,240.45625879819983,36.136873914356514,15.916364237345253,69.9808257908486,-0.4029144059940482,113.27122765748112,798.1447349155493,15.288,0.0,4.482413928899523,0.1062199525770222,-1.260774241973348e-07,-0.0004798481905367,-0.0112067824735545,4.592847570712328e-05,4.35145934441404,9.675736672535722,35.46270819330717,19.905426417489807
1.06,31.22215304285884,131.01047066264175,22.61633690820548,0.7265668588779962,-4.253573347108387,27.846606144019905,1.3103065895962132,3.175221889708772,308.17968365593924,36.4297905006762,16.047991052976673,69.98049239528513,-0.4207520620598366,113.25224377735682,811.1099541621843,15.288,0.0,4.493685665714858,0.1070813539967914,-1.317361108959922e-07,-0.0005315401616554,-0.0115192916229093,5.1286875245367735e-05,4.3150684154122905,9.61350520914812,35.76225433363513,28.05766225379071
1.07,31.22215243875792,131.01047219620892,22.95701316725913,0.7597472254459526,-4.21749083183426,32.75770455811508,1.3284830598057342,3.163835166011116,348.5093681440308,36.671253473871694,16.161866767787348,69.98012504662013,-0.4390831477412684,113.23273470165536,821.8710491490381,15.288,0.0,4.5048999131593535,0.1077915221863554,-1.375216108993188e-07,-0.0005869088790268,-0.0118361989508211,5.700273651223576e-05,4.285254002355466,9.56520529909647,36.00936965538782,32.93693865729833
1.08,31.222151829492248,131.01047374161217,23.300230024511965,0.7921908686882483,-4.1805878323205965,22.10925468476409,1.3471615918158568,3.1521528160842567,261.00157857466235,36.92093332576565,16.278466589715723,69.97972146117597,-0.4579142651359087,113.21269339485734,833.0732647000419,15.288,0.0,4.516057413935331,0.10852585174429,-1.4343386324939942e-07,-0.0006460676877252,-0.0121576270870666,6.317360272620269e-05,4.254852158121259,9.515968182452289,36.264830656711936,22.37342294880635
1.09,31.22215121532304,131.0104752981235,23.645783449383234,0.8229176428314621,-4.1380072144949045,20.349647037887884,1.3680087862308163,3.139905495115073,246.54375332474407,37.22278379401958,16.412870252954946,69.9792791848762,-0.4772520378530386,113.1921128055269,846.722576313423,15.288,0.0,4.527151618983366,0.109413541431248,-1.4947330430977156e-07,-0.0007090475559735,-0.0124832570652544,6.989639100928342e-05,4.21890024954313,9.455338132881646,36.57335205667973,20.635856878842652
1.1,31.22215059632177,131.01047686554185,23.993619138329784,0.8537041445703699,-4.099009851491715,40.648633251929695,1.3879541747961166,3.1275443895106725,413.1890617385841,37.49495666506223,16.536994358022895,69.97879582368022,-0.4971031557105059,113.17098580182136,859.1216071465824,15.288,0.0,4.538184725535359,0.1102140055019379,-1.5563995609422853e-07,-0.00077593114066,-0.0128130747590145,7.704634936444617e-05,4.18681844598377,9.40304109296909,36.85163480028755,40.79239311378505
1.11,31.22214997210761,131.0104784449285,24.344041234058167,0.885302859202088,-4.066614021465919,29.80748400365849,1.4058310006000458,3.115285123704675,324.1593910376397,37.70782145900394,16.64067359018484,69.97826886986877,-0.5174744023596004,113.14930515523828,868.8747882698161,15.288,0.0,4.549167280700212,0.1108401461438908,-1.6193310296428782e-07,-0.0008469233644711,-0.0131476322476006,8.457012367234762e-05,4.161705684745416,9.365730309915692,37.06957540500696,30.00279095071958
1.12,31.222149342740813,131.01048003611828,24.697005435347087,0.913867293496683,-4.023076342366262,11.355880210289776,1.4279589698271251,3.102065336633173,172.73281794065943,38.02554889607433,16.78022982815222,69.97769575935533,-0.5383723726345402,113.12706383735592,883.5488594470787,15.288,0.0,4.5600945280238445,0.1117745343566676,-1.6835283611427789e-07,-0.0009221046784596,-0.0134868301201148,9.285010566081664e-05,4.125399822995693,9.305035622883503,37.39412468989975,11.858241502124242
1.13,31.222148708778867,131.01048163755132,25.052071901736,0.9433156072514456,-3.986185387211582,35.101270069024885,1.447977353294378,3.088948771412225,367.5328077900705,38.28309657048855,16.89904273751136,69.97707381960448,-0.5598042571663223,113.10425418342469,895.5274294993667,15.288,0.0,4.5709592558811165,0.1125320360471459,-1.7490002648493536e-07,-0.0010014171888631,-0.0138300116821642,0.0001015158775553,4.096105722590736,9.259397138109009,37.6574530333244,35.266661358664
1.14,31.22214806959812,131.01048325097477,25.409739109848203,0.9733394380717972,-3.9539759013521145,19.51774614234177,1.4664670464546945,3.075870634613857,239.69531773195544,38.49640021155023,17.002578872906213,69.97640037501111,-0.5817765296046152,113.08086929252904,905.5034204273117,15.288,0.0,4.581775879631487,0.1131594925757869,-1.815732459391956e-07,-0.0010851611374355,-0.0141780583042437,0.0001106143074496,4.07183136251817,9.224759359729044,37.875803987559706,19.812973533422856
1.15,31.222147425658168,131.0104848751062,25.76964577033509,1.0000556758374823,-3.9107128876479273,19.238995848914566,1.489468397311745,3.0616864573154605,237.41251153546767,38.81897974184589,17.143501839204475,69.97567270603281,-0.604295644436176,113.0569022800486,920.7104516674276,15.288,0.0,4.592531322734486,0.1141081729098932,-1.883732623921953e-07,-0.0011732763796736,-0.0145303008220564,0.000120594189175,4.036363840233327,9.166478798746622,38.20516325695289,19.53794772600365
1.16,31.22214677708837,131.0104865095823,26.131691730003688,1.0294730958171705,-3.8801765795032295,50.061781150658895,1.507753868030033,3.0481555950222994,490.0437743845894,39.017141909352645,17.241647442251498,69.97488789509966,-0.6273686048463004,113.03234568259624,930.1021366236542,15.288,0.0,4.603230184005504,0.1146911380967741,-1.9529990420270963e-07,-0.00126583897858,-0.0148866933700929,0.0001307677801541,4.014220275568051,9.136959228309625,38.408110974730114,50.17715123673814
1.17,31.22214612307364,131.0104881566982,26.49653035419568,1.0568876687378128,-3.8440205596309975,9.025082098195396,1.5284934363836309,3.0338908230671384,153.70937929486794,39.27195008281394,17.35912258558896,69.97404315865883,-0.6510017781082679,113.00719270338128,942.257166725891,15.288,0.0,4.613886586710474,0.1154406236646847,-2.023512074014713e-07,-0.0013632540637242,-0.0152483770449354,0.0001417460225278,3.9864557078104665,9.09573626491201,38.66858562485989,9.643282251937142
1.18,31.22214546469313,131.01048981342595,26.863305748977737,1.0816411835312267,-3.8004061434582335,24.441040630333,1.5526358796453343,3.018634782736681,280.02501822196746,39.60554339708583,17.503523022274507,69.97313544013825,-0.6752018999681259,112.98143616174724,958.299290052618,15.288,0.0,4.624477616225945,0.1164217092833316,-2.0952926639335057e-07,-0.0014651999246175,-0.0156137817266324,0.0001536346501312,3.9511160685993594,9.038360162687503,39.00901463689501,24.675641860342726
1.19,31.22214480146296,131.01049148112835,27.23240705193276,1.1108350561810518,-3.77417561590184,42.56087605208283,1.569709999767147,3.004623350503396,428.4078130529292,39.75949341546102,17.586204315878042,69.97216176023375,-0.6999759363343317,112.95506862005188,965.729504481317,15.288,0.0,4.635018976784676,0.1168747369311463,-2.168323150526666e-07,-0.0015720141861545,-0.0159837927533019,0.0001654695997852,3.934027299444839,9.02074166336853,39.167075938767546,42.69566630563946
1.2,31.22214413297137,131.01049316097684,27.604168578652526,1.1356019345256936,-3.734523629707085,4.5556266407224015,1.5927455662484216,2.9890436639155884,117.1843741360236,40.05477565286254,17.71725953986356,69.97111899415091,-0.725329975608516,112.928083585802,980.0921548052048,15.288,0.0,4.645499394267627,0.1177432257430296,-2.2425915779297666e-07,-0.0016839616217716,-0.0163589193035181,0.0001785631739055,3.9031310119504266,8.973577587593363,39.46857332879022,5.676702788878206
1.21,31.222143460295086,131.010494849938,27.977733555714,1.1601032589010745,-3.695908960560912,34.20686198094003,1.6156595621785808,2.9731929270126294,359.92343213200894,40.34147741195229,17.84527310632727,69.97000394050876,-0.7512710286347744,112.9004735734256,994.1371861205816,15.288,0.0,4.655915757118131,0.1185865013625222,-2.318119008328719e-07,-0.0018006749244953,-0.0167376030932866,0.0001922989596387,3.873462968652023,8.92924804780437,39.76132791866476,34.373821995599755
1.22,31.222142782619247,131.0104965503197,28.353758380503407,1.1878408580017916,-3.669088193495876,24.819320291230976,1.633452756093427,2.95827195291423,283.0687504825761,40.499924575030576,17.929194324121703,69.96881342057671,-0.7778055411763415,112.8722316975944,1001.9255733549364,15.288,0.0,4.666289327147033,0.1190527727507378,-2.3948768222671005e-07,-0.0019226742919894,-0.017121208322545,0.000206126611861,3.8563252956246528,8.912635227400433,39.92397937930095,25.048317320181365
