Time,Latitude,Longitude,Altitude,Angle of Attack,Angle of Sideslip,X-Acceleration,Y-Acceleration,Z-Acceleration,Thrust,True Velocity,Ground Velocity,Pitch,Roll,Yaw,Dynamic Pressure,cp,cg,parachute_deploy_gain,Wind Speed,Wind Direction,Mach,omega_x,omega_y,omega_z,Cmq,Angle of Attack(total),Angle of Attack(gust),True Velocity(gust),Acceleration
0.0,31.222216000000007,131.010392,3.000000004412624,0.0,0.0,0.0,0.0,0.0,2.2828121974499247,0.0,0.0,69.99999999623412,0.0,119.9999999935444,0.0,1.274,1.0271675151847728,0,0.0,0.0,0.0,0.0,0.0,0.0,-0.0,0.0,90.0,0.0,0.0
0.01,31.22221599999084,131.01039200000497,3.000002745347096,0.0,0.0,0.0,0.0,0.0,34.242186961749226,3.465174813755316e-14,2.8705476994166025e-14,69.9999999962611,-2.1713911667908447e-11,119.99999999352175,7.352495975525499e-28,1.274,1.0271659134330349,0,0.0,0.0,1.0183245502395064e-16,-3.3305335486039093e-18,7.169286865560398e-18,5.624298769768554e-18,-7.715917190115602e-34,0.0,89.99999999999979,3.465174813755316e-14,0.0
0.02,31.222215999994315,131.0103920000094,3.0000030495639742,0.0,0.0,0.0,0.0,0.0,25.871876237766216,3.8197434737535036e-11,2.4171837235633357e-11,69.99999999628672,-1.1921727947863515e-11,119.99999999353136,8.93414285188691e-22,1.274,1.027164492361118,0,0.0,0.0,1.1225230367947217e-13,-6.657678965418802e-18,1.4338573731120796e-17,1.1241821275959074e-17,-1.7010872994127372e-30,0.0,89.99999999975682,3.8197434737535036e-11,0.0
0.03,31.222215999994315,131.0103920000094,3.0000030495639742,0.0,0.0,9.81877837424427,-2.5122800045972096e-05,3.3498614629347925,180.34219359854663,1.2659015405517447e-10,1.1364406173918436e-10,69.99999999631459,-1.6431898037347223e-11,119.99999999352724,9.812605835254651e-21,1.274,1.0271551940870716,0,0.0,0.0,3.720154642239108e-13,-9.991600645811728e-18,2.150108433310316e-17,1.6859343782149594e-17,-8.453698244545225e-30,0.0,89.99999999919412,1.2659015405517447e-10,10.374487003414373
0.04,31.222215999994315,131.0103920000094,3.0000030495639742,18.83801224594347,-0.0001111777826462,48.68248476615645,-1.016330065874988e-05,3.3497854396877287,548.635972453808,0.1556173050466994,0.0975908358443652,69.99999999633813,-2.0932768807056278e-11,119.99999999352085,0.0148286043323172,1.274,1.027133720825283,0,0.0,0.0,0.0004573186944143,-1.3322134194415637e-17,-1.04744143520903e-11,1.336824254131964e-11,5.0626055458604615e-15,18.83801224625964,89.06236267790787,0.1555998412814392,48.79759610369246
0.05,31.22221599164764,131.01039201704114,3.002326315126219,5.772385609593056,-4.395076213712875e-06,71.20344550265034,4.905512691849684e-05,3.349217396035405,761.6984298824663,0.8326471944351852,0.3620326097059287,70.00000001316391,-1.0866255162484559e-10,120.00000000231074,0.4245281043148827,1.274,1.027093426565204,0,0.0,0.0,0.0024469331205246,-5.0245994431125096e-18,-7.32924164976824e-07,2.217344936947165e-11,1.895424184525467e-09,5.772385609594774,84.74112356985832,0.8326465040582279,71.28217104309611
0.06,31.22221596664444,131.01039206837547,3.015081730143309,4.056581213689704,3.169093567502233e-05,53.16249142470188,0.0001203825427859,3.3481235983850643,590.4875390737236,1.657216205300742,0.6755452977614796,69.99999964391398,-3.9285905645317736e-10,120.0000000287861,1.6816755551786196,1.274,1.027050317124926,0,0.0,0.0,0.0048701272653724,3.095757869075056e-13,-7.483541766772344e-06,3.074135420506017e-11,3.8518749565858254e-08,4.056581213813337,79.59316473687034,1.657221183301277,53.26781792157489
0.07,31.22221592883117,131.0103921460222,3.034593611434361,4.115662018628709,6.450869598349036e-05,81.18203554989698,0.0001593212642178,3.347059402768047,855.2937749779172,2.099899704220947,0.8579771146174259,69.99999543281565,-8.233801910783518e-10,120.00000006883089,2.700101932075157,1.274,1.027003201295312,0,0.0,0.0,0.006171060252819,3.4704292086287e-12,-2.6327204536316785e-05,1.9541142932033486e-10,1.7170712165327165e-07,4.115662019133419,76.90111966094352,2.099909837223217,81.2510043180746
0.08,31.22221588914193,131.01039222747755,3.0542761843835606,3.459696193892355,8.037433511260004e-05,16.298214211652088,0.0002413456836072,3.344878926597744,241.2171988638792,3.051964775152957,1.2149999716613011,69.99998042886442,-1.0128995578004475e-09,120.00000011111383,5.703497661025892,1.274,1.0269597189470347,0,0.0,0.0,0.0089689344021769,1.458982438104473e-11,-5.702803872814215e-05,7.043261397829576e-10,5.405702492731987e-07,3.459696194824858,71.30331929508368,3.051977400323993,16.63790856991177
0.09,31.2222158241468,131.01039236098703,3.0886872184095737,4.313676956300389,0.0001337561018991,50.35975918308536,0.0002293282821279,3.344215841840564,563.0937377043203,2.893161298572128,1.191209213966114,69.99994788602814,-7.098432023887522e-10,120.00000018106356,5.125380275808925,1.274,1.026918932011013,0,0.0,0.0,0.0085022553945842,3.8672912027154325e-11,-0.0001115933708951,2.016054215232918e-09,1.0027525988343615e-06,4.313676958370176,72.2316578138625,2.893182308931483,50.47067588835877
0.1,31.2222157788302,131.01039245392113,3.109877853389092,4.035124630954496,0.0001457499816535,47.804664812504015,0.0002878217657545,3.341734392237128,538.7437595981891,3.5677148583138303,1.4531247507621967,69.99988403958329,1.9248461973355822e-09,120.0000002323013,7.7939962029572305,1.274,1.0268846934974103,0,0.0,0.0,0.0104845969583028,8.579678749070606e-11,-0.0001726817043215,3.984565639703107e-09,1.913455350430327e-06,4.0351246335824245,68.43243098813296,3.567737752667411,47.92132267234452
0.11,31.222215703308,131.01039260899836,3.148841432727305,4.043401107254707,0.0001752764476999,37.67622367577205,0.0003286462930162,3.3392563999062723,442.86563930529127,4.034183355956686,1.6436552022667772,69.99978525353545,7.302513231814865e-09,120.00000031883242,9.96528118825134,1.274,1.026848594915519,0,0.0,0.0,0.0118554331868328,1.5870341853361987e-10,-0.0002596204409236,7.232030302688121e-09,3.252930323390323e-06,4.04340111104746,65.92012987243639,4.034210888316708,37.82391391539392
0.12,31.222215627491828,131.01039276462643,3.186995101203875,4.17874459224363,0.0002066711490009,41.15991989399172,0.0003576945202315,3.336766085769504,475.58594813540793,4.361857560629481,1.7865750500940407,69.99963665601238,1.781774420198147e-08,120.00000041104812,11.649831899889556,1.274,1.0268114448194128,0,0.0,0.0,0.0128183893919737,2.682972478760441e-10,-0.0003710216542429,1.2215991071490164e-08,5.026311388647148e-06,4.178744597345269,64.21681651392016,4.361890024457652,41.29495143136631
0.13,31.22221554594398,131.01039293200228,3.2277173449026786,4.202734874672792,0.0002327160860324,45.44886120763352,0.0003953741266062,3.333578629398489,515.9156326236897,4.792165672014363,1.9646716520715424,69.99942424225341,3.613383418913551e-08,120.00000051758742,14.061726603124043,1.274,1.026779572895131,0,0.0,0.0,0.0140829618979635,4.248908088871395e-10,-0.0005056103199642,1.908859219307828e-08,7.5253154423526356e-06,4.202734881104192,62.048594618540655,4.792202226971676,45.570952718869485
0.14,31.222215454191247,131.01039312033683,3.2737880595608355,4.184830647080848,0.000257138757548,42.32232525579263,0.0004369426767266,3.329727443445437,486.2390860568421,5.269261304374574,2.158791628597544,69.99913473613935,6.515851355725497e-08,120.00000064630268,17.000925061330125,1.274,1.0267449573927567,0,0.0,0.0,0.0154850332441425,6.382432869666793e-10,-0.0006690086306358,2.8426433029675884e-08,1.0948547100483978e-05,4.184830654966803,59.74181173116622,5.269301695636157,42.45310707234106
0.15,31.222215353826755,131.0103933263496,3.3242182719560263,4.21963947489699,0.0002846467688673,40.886944113003565,0.0004726792395108,3.325585650885676,472.5421858721398,5.6781946837482895,2.329510773545807,69.99875162806286,1.0876776246115984e-07,120.00000079954532,19.742017654108928,1.274,1.0267115958081523,0,0.0,0.0,0.0166867950518804,9.204756288136623e-10,-0.000865746478554,4.08948221429571e-08,1.526771148078443e-05,4.219639484480408,57.84996018384879,5.678239395958187,41.02196629910223
0.16,31.222215247130432,131.01039354534575,3.3775922280208457,4.253495568077899,0.0003118339050386,32.26872905470846,0.0005078415214353,3.32090791922544,391.1218908297597,6.081244877834229,2.4981889727471702,69.99825581174558,1.7187028096464329e-07,120.0000009800088,22.644030778355887,1.274,1.026675762255412,0,0.0,0.0,0.0178712695992133,1.2856146928958252e-09,-0.0010961187242953,5.6923362293832417e-08,2.0702404729358337e-05,4.253495579487569,56.06022383757386,6.081293860589489,32.43916312841722
0.17,31.22221513260033,131.01039378041813,3.4348437275053194,4.364838523348639,0.0003448792023946,40.840448242802736,0.0005326487904353,3.3162727284953744,471.78125980632416,6.362544479165355,2.6250789114832647,69.99762801982864,2.5997588617291615e-07,120.00000119506798,24.78723182122683,1.274,1.0266409836796937,0,0.0,0.0,0.0186979513961862,1.747791994374917e-09,-0.0013624931601664,7.706724512977917e-08,2.6923621797558364e-05,4.364838536947241,54.85936171416122,6.362598652663785,40.97486885600156
0.18,31.222215014088988,131.01039402363364,3.4935801365785646,4.353948305387995,0.0003681615230806,33.992183768165326,0.0005718025428208,3.310131992647221,407.1015672119096,6.81502088160835,2.810667639293692,69.99684761766231,3.794979223522764e-07,120.00000144728236,28.437950785509614,1.274,1.0266048342046536,0,0.0,0.0,0.020027681385988,2.3221419748804155e-09,-0.0016616990447559,1.0147209890543081e-07,3.517105786247627e-05,4.353948320923495,52.99157233768714,6.815078712285162,34.152972512863755
0.19,31.22221488419521,131.01039429023237,3.558399965607869,4.432620772533925,0.0003996774584738,38.45149959021069,0.0005986099513107,3.304145139297767,448.95313283182486,7.1223367465208405,2.946425726785696,69.99589577323147,5.440084577183829e-07,120.00000176148238,31.060341085698347,1.274,1.026566130444714,0,0.0,0.0,0.0209308229359413,3.022391489754689e-09,-0.0020041563310821,1.3135864879722746e-07,4.433199397898183e-05,4.432620790516937,51.77883352025967,7.122399527709208,38.59320142454953
0.2,31.222214751373183,131.01039456280608,3.624052454705669,4.443889400961181,0.0004246617145652,35.23432408779927,0.0006337972852267,3.2968110145188256,418.5156301991588,7.530482904611057,3.1167566004785483,69.99474776398331,7.478025600151903e-07,120.00000211715036,34.72195181863731,1.274,1.026529240027363,0,0.0,0.0,0.0221302820454282,3.866698391504749e-09,-0.0023849544920781,1.668144671071589e-07,5.57780533277244e-05,4.443889421210987,50.22448880200342,7.530549610317194,35.38822625098952
0.21,31.222214608673173,131.01039485566503,3.6948551453492566,4.493351735844891,0.0004538195602194,33.79371564104691,0.0006629296043866,3.2891790438445727,404.8187610144608,7.868284042829251,3.2629204975089228,69.99338155599101,1.0150082652278477e-06,120.00000255293388,37.906665490338085,1.274,1.0264923657015164,0,0.0,0.0,0.0231230169900677,4.871073773182836e-09,-0.0028117605859743,2.089322918608601e-07,6.870935089180403e-05,4.493351758715364,48.992529909481824,7.868355328639073,33.95340801819282
0.22,31.22221446109996,131.01039515850383,3.767700382407304,4.5412639153933885,0.000482649303782,41.008966751568416,0.0006914639179131,3.2808061382386606,472.5421858721387,8.20057841132235,3.4071691679735228,69.9917708347139,1.3454961520984431e-06,120.00000305929996,41.175744234065135,1.274,1.0264494137127138,0,0.0,0.0,0.0240995709751246,6.054779813287368e-09,-0.0032829112061357,2.580881224843564e-07,8.3609968899004e-05,4.54126394098788,47.82515604752711,8.2006542256977,41.13999323561041
0.23,31.22221430675399,131.0103954752338,3.843768625625224,4.52371495179584,0.0005047555656171,33.98493478127787,0.0007294889663961,3.2705214710765107,406.340642146096,8.647938096586296,3.5908865300848416,69.98989017772566,1.7539876018835507e-06,120.00000365514876,45.79040229326471,1.274,1.0264133390858623,0,0.0,0.0,0.0254142776666487,7.436335125872812e-09,-0.0038001790077148,3.1489825108822685e-07,0.0001020628978177,4.523714979897577,46.31461705147579,8.648017383405135,34.14194053232237
0.24,31.222214142622448,131.0103958120587,3.92493179063287,4.57837522350066,0.0005351929930195,35.051650311058864,0.0007555049947555,3.26053011385611,416.2328240017099,8.954297884844461,3.72617527247482,69.98771316795013,2.25257161141768e-06,120.0000043564586,49.09180568115741,1.274,1.0263750048312463,0,0.0,0.0,0.0263146218848643,9.034877387788232e-09,-0.0043732521010013,3.809642748985157e-07,0.00012161410144,4.578375254714954,45.32798984252032,8.954381952763216,35.20297212911011
0.25,31.22221397517227,131.0103961556623,4.0071748888306855,4.6034117733065,0.0005618935542827,36.03738579534623,0.000785606492708,3.249069743648399,425.3640807915084,9.311611941121669,3.8789349536029696,69.98520781816889,2.8559738498748624e-06,120.00000517181904,53.08749562138344,1.274,1.0263373768840591,0,0.0,0.0,0.0273647110956883,1.0873791100894836e-08,-0.0049950711786164,4.5609738277273444e-07,0.0001444478241125,4.603411807525074,44.2165428352526,9.311700203154778,36.183554686886296
0.26,31.22221379934012,131.01039651647062,4.09364247475714,4.621386912291471,0.0005881033207375,39.29107511182762,0.0008162761165496,3.236407051295005,455.80158342417656,9.67833954512075,4.034902068846398,69.98234620927953,3.5784678110229355e-06,120.00000612171208,57.350948423913096,1.274,1.0263006300381676,0,0.0,0.0,0.0284424679130479,1.2973286442992724e-08,-0.0056712051373577,5.414206381221602e-07,0.0001704578711045,4.621386949630312,43.12063533194282,9.678431924174348,39.42414126789902
0.27,31.222213616776543,131.01039689108487,4.183310605341074,4.617158109135719,0.0006115457810536,35.90419462403674,0.0008503454714941,3.221982799915672,423.8421996598744,10.088790784535757,4.205862468567124,69.97909721779352,4.436165972465058e-06,120.000007221354,62.31798301949865,1.274,1.026260090595354,0,0.0,0.0,0.0296487219805601,1.5355910600537293e-08,-0.0064045199323113,6.379142666348734e-07,0.0002006609239367,4.617158149547818,41.94410287616451,10.08888684592241,36.048472443180565
0.28,31.22221342607797,131.0103972823952,4.277051150896916,4.642105655370123,0.0006389739579882,41.51133203546672,0.0008785747638736,3.2071101123224945,476.3468732012228,10.432377224420517,4.35383399240675,69.97542808435722,5.446665372087172e-06,120.00000849080963,66.63429581008447,1.274,1.0262212716723291,0,0.0,0.0,0.0306584788590473,1.8045308789081613e-08,-0.0072006835403936,7.469524967369969e-07,0.0002332868227611,4.642105699250441,41.0023231023774,10.432477594215127,41.63503624837164
0.29,31.22221323001776,131.01039768469093,4.373143569786686,4.62134615173668,0.0006600657405645,33.17552944492765,0.0009148746278066,3.1894209319791806,397.9703104221098,10.876662296046485,4.536381530986506,69.9713027936179,6.629751536885327e-06,120.00000994797426,72.43000748232016,1.274,1.026183007522519,0,0.0,0.0,0.0319641703260467,2.1067646517035105e-08,-0.0080566154554079,8.688043379161898e-07,0.000272130659453,4.621346198772975,39.83162628795024,10.876765978930557,33.32848872465723
0.3,31.22221302403368,131.01039810736614,4.4744193758467325,4.664362353358112,0.0006905183788532,31.08096762732793,0.0009381960428197,3.172549142946348,378.1859457108735,11.168362145070317,4.66647911311536,69.96668711012893,8.005507138509574e-06,120.00001161892672,76.36634300732833,1.274,1.0261430389738484,0,0.0,0.0,0.0328214509167604,2.4447409007156216e-08,-0.0089829108229115,1.0056222251461646e-06,0.0003115527202986,4.664362404357781,39.09908960432563,11.168470611443622,31.242464973103964
0.31,31.22221281503337,131.01039853619727,4.576593712520673,4.700143580504286,0.0007196683316923,32.79732593144512,0.0009620705970519,3.154230688182399,394.1656220930229,11.470279728974068,4.800072153432283,69.96154070456518,9.597499105113692e-06,120.00001352112182,80.55022837857167,1.274,1.0261054058068628,0,0.0,0.0,0.0337087616009043,2.8214060606649844e-08,-0.0099686353219717,1.1565909895184251e-06,0.0003550834484269,4.700143635477137,38.36463422765983,11.47039277421126,32.94865339301887
0.32,31.222212598991007,131.01039897947376,4.68216432480395,4.718667719113184,0.0007464384342556,35.7316568886908,0.0009885845337584,3.133859770838664,421.5593934624264,11.808280530415894,4.946054328851105,69.95582953472353,1.14278227255889e-05,120.00001568218067,85.36654007972253,1.274,1.026068246703101,0,0.0,0.0,0.0347021168382987,3.2392058795580455e-08,-0.0110163301561155,1.3226102501723267e-06,0.0004039614423012,4.718667778018562,37.5686120062341,11.808397780690962,35.8688218659563
0.33,31.222212376029034,131.0103994369436,4.791055524254013,4.72141404831576,0.0007708346814671,35.42013590291081,0.0010176135371143,3.1111955852784385,418.5156301991632,12.181577273013426,5.104163223586657,69.94951809396906,1.351997394754887e-05,120.00001812674968,90.84831229869296,1.274,1.0260310883392356,0,0.0,0.0,0.0357992034445943,3.700677535501642e-08,-0.0121310534481307,1.5051409581878843e-06,0.0004588955105349,4.721414111097893,36.7208578211118,12.181698355442045,35.55651229220977
0.34,31.222212145785647,131.0103999093516,4.903491659547144,4.73024573449122,0.0007962944975467,27.63851074646407,0.0010446307681611,3.0871492806781062,345.4656368807584,12.53557620048282,5.2556261014174765,69.94256797855994,1.5899658158227497e-05,120.000020882338,96.20413272674828,1.274,1.0259901535019136,0,0.0,0.0,0.0368395817555172,4.208561016221623e-08,-0.0133180771902383,1.7057647550599631e-06,0.0005184333231541,4.730245801363397,35.94841996438923,12.535701282129995,27.810389570354005
0.35,31.222211909310875,131.01040039453565,5.018822212845608,4.780248518778662,0.0008286678570753,30.332092807652543,0.0010618579815451,3.063967690608957,370.5765700527057,12.774786382148209,5.367579971644358,69.93493776125636,1.8594985713558667e-05,120.00002397748868,99.9096898192772,1.274,1.025950003202184,0,0.0,0.0,0.0375426220587071,4.7658312175989686e-08,-0.0145774693288123,1.9252724355785177e-06,0.0005782798420984,4.780248590437683,35.44790728185619,12.774916548990808,30.486451961956565
0.36,31.22221166933814,131.0104008868675,5.135354490370708,4.798132156899578,0.0008554457330409,34.32674769697476,0.0010851169437774,3.0374319611165923,407.8625232777224,13.09301701329486,5.506730645516068,69.92658597246795,2.163521613217148e-05,120.0000274401514,104.94818266210537,1.274,1.0259105142325406,0,0.0,0.0,0.0384778908056978,5.3755109608570216e-08,-0.0158991451700967,2.162609490834569e-06,0.0006464142451675,4.798132232978766,34.796094028187134,13.09315138639638,34.46087058603792
0.37,31.222211421355144,131.01040139563804,5.255882891363927,4.797392186816851,0.0008791822061288,32.551601855236584,0.00111162791192,3.0078619428913056,391.1218908297639,13.457513730739372,5.661815946371007,69.91747693543164,2.5047738471809164e-05,120.0000313040604,110.87154396328836,1.274,1.025872170958032,0,0.0,0.0,0.0395491312153729,6.040098808671168e-08,-0.0172926678053148,2.420031948898497e-06,0.0007226353721561,4.797392267189059,34.07332166419882,13.457651832357364,32.69027405888565
0.38,31.22221116634284,131.01040191882743,5.379799334000849,4.811698494594017,0.0009057112478668,34.02947987649063,0.0011338447913587,2.9774881690446744,404.81876101445977,13.77554886562956,5.800899861213392,69.90756948297444,2.886339581486796e-05,120.00003560072224,116.17243393848278,1.274,1.02583050512925,0,0.0,0.0,0.0404838339452728,6.762496638941508e-08,-0.0187646375218858,2.69955777313946e-06,0.0008026686661094,4.8116985796350695,33.46655348088405,13.775691134419684,34.15949264475229
0.39,31.222210906095896,131.01040245274032,5.505993307722699,4.813508003664984,0.000929862892873,29.00025983045028,0.0011579891265804,2.9442136901860865,357.6406249338268,14.124492165837273,5.950648592462506,69.8968186645841,3.311602501056718e-05,120.00004036395212,122.13093644173792,1.274,1.02579027384009,0,0.0,0.0,0.0415093739609825,7.545934774906889e-08,-0.020311592409804,3.0013532510753577e-06,0.0008908380763632,4.813508093268025,32.821616487639595,14.124638228358922,29.149330452482886
0.4,31.222210638473225,131.0104030017851,5.635788650457906,4.841647069358873,0.0009592124397379,27.71178845184976,0.0011749448424961,2.91135549588368,345.4656368807565,14.390874239274588,6.07193451174791,69.8851815212744,3.783947407715338e-05,120.00004563180136,126.77947425345651,1.274,1.0257493418632293,0,0.0,0.0,0.0422922854866381,8.39343718693383e-08,-0.021938519432511,3.3271332720311508e-06,0.0009803271643914,4.841647164150728,32.348088166612904,14.391024912012275,27.864299944624147
0.41,31.22221036681104,131.01040355909262,5.767123077463226,4.86553909860892,0.0009876699832274,31.306062598221665,0.0011918093836199,2.876450850006428,378.9468707766882,14.663028799871563,6.195223154320929,69.87261222561014,4.307011032901644e-05,120.0000514391194,131.6183642808765,1.274,1.025708445186429,0,0.0,0.0,0.0430921644173401,9.308325447883581e-08,-0.0236371933433427,3.6760977501392174e-06,0.0010761942383903,4.865539198612839,31.87689439156756,14.663183942709727,31.437931330109585
0.42,31.22221008906472,131.01040412887247,5.901259531771367,4.867510642114694,0.0010118258958528,35.308283402190774,0.0012128114559048,2.8374461227958245,416.23282400171047,14.9952917972178,6.33928625560071,69.85906967380902,4.884273094936628e-05,120.00005782486392,137.64909586091787,1.274,1.0256701057426505,0,0.0,0.0,0.0440686959134695,1.0293499639582845e-07,-0.0254093547296826,4.049238334851429e-06,0.0011830797791891,4.867510747027452,31.315270489291198,14.995450734457847,35.422111438762386
0.43,31.222209804115888,131.01040471342728,6.038886819939341,4.854590670645608,0.0010330089741511,31.00586934514032,0.0012363751872706,2.794478603999558,375.90313951343126,15.369430568701889,6.497852263156962,69.8445117629242,5.519340856908871e-05,120.00006482835984,144.60167924299955,1.274,1.0256308158337524,0,0.0,0.0,0.0451682983415116,1.135186446762958e-07,-0.0272634397889413,4.449073329427772e-06,0.0013010625065656,4.854590780289497,30.70250814963406,15.369592833372094,31.13154422839874
0.44,31.22220951192321,131.01040531284193,6.180028459770617,4.866912332640401,0.0010595850174406,28.57707721036899,0.0012525768202179,2.752165534925872,353.07501253892326,15.659290812546615,6.627318538707029,69.82889155423543,6.216182865383864e-05,120.00007249162944,150.1053167542629,1.274,1.025586171750536,0,0.0,0.0,0.0460202245100907,1.2486676023179565e-07,-0.0292060158163984,4.8779154055816594e-06,0.001420032405556,4.866912447705031,30.24619499837236,15.659457251771938,28.709297424144207
0.45,31.222209215425703,131.01040592106523,6.322872201489905,4.881836476567178,0.0010866574689855,33.31904824532484,0.0012669045761511,2.7082028218433374,397.2093853562887,15.934249290371609,6.751662050993672,69.81215834018458,6.97909417564726e-05,120.00008085697964,155.42080512416243,1.274,1.0255397023523487,0,0.0,0.0,0.0468283602442113,1.3701614206272197e-07,-0.0312276295846745,5.334643585560923e-06,0.0015449645531859,4.8818365972149325,29.82567893138932,15.934419982127675,33.428929688274074
0.46,31.22220891307435,131.0104065412864,6.468371919199588,4.869610441729251,0.0011078049156487,38.95909776354321,0.0012868374716666,2.6582856015412624,449.7140588976424,16.292139278621757,6.904766425053949,69.79426683863348,7.812149592850748e-05,120.00008996920153,162.4785746623087,1.274,1.02549635315424,0,0.0,0.0,0.0478802236363867,1.499987870203256e-07,-0.0333272350234362,5.819761874615242e-06,0.0016858511402973,4.869610567434908,29.29014635640275,16.292313292210977,39.04968351401366
0.47,31.22220860266524,131.01040717804253,6.6178810515614845,4.838450928223533,0.0011247917292402,26.253747818137555,0.0013104398935566,2.6026193242279367,331.0078106302504,16.710658191447514,7.078951441335346,69.77517236812905,8.719457259907165e-05,120.0000998741591,170.9309671061642,1.274,1.025453319323251,0,0.0,0.0,0.0491102725711187,1.6384464803343264e-07,-0.0355167087264168,6.3368207228363735e-06,0.0018427306558807,4.838451058652396,28.68386015667837,16.710834873319172,26.382435512333956
0.48,31.222208284201663,131.0104078313267,6.771393590864176,4.869339340099417,0.0011561785713505,25.860860976019296,0.0013165328518772,2.5543454292827983,327.20312230115803,16.911139899671,7.177575416403102,69.75482343794755,9.70562828082882e-05,120.00011062072316,175.0543877818846,1.274,1.0254092882449153,0,0.0,0.0,0.0496995461609974,1.7858865391586845e-07,-0.0378054080201581,6.88909442277235e-06,0.0019849793891693,4.869339477030596,28.40887970825325,16.911321511776286,25.986704537635287
0.49,31.22220796480208,131.01040848648364,6.924537656029012,4.881367714530694,0.0011829003785372,32.565703383222065,0.0013261973190012,2.5011623511055703,389.6000096981238,17.169005224738054,7.296160258358563,69.73316318155707,0.0001077573203115,120.000122255028,180.4309832312717,1.274,1.025367445590036,0,0.0,0.0,0.05045746454003,1.942747077649401e-07,-0.0401641298712614,7.47069711110948e-06,0.002140948887153,4.881367857509675,28.058569663954906,17.169191034294997,32.66161128464712
0.5,31.222207637929923,131.01040915697027,7.081324512896956,4.862566137860805,0.001202418260511,33.47759680712428,0.0013425340759632,2.4399894027711366,397.970310422106,17.52898693231981,7.450304424940405,69.71015149227495,0.0001193385310595,120.0001348274002,188.0736471953394,1.274,1.0253278572281015,0,0.0,0.0,0.0515154948878309,2.109295159784217e-07,-0.0426011733481599,8.084173008518589e-06,0.0023184335011768,4.862566286171007,27.57768313050809,17.529175807738486,33.56639745442473
0.51,31.22220730314019,131.01040984370235,7.24202048914867,4.8479762258125,0.001223054804074,25.49162310288008,0.0013562860883156,2.3767006597692686,323.39843497208153,17.86914397471067,7.597652147346554,69.68574349602717,0.0001318441288964,120.00014838524436,195.4407439266201,1.274,1.025286455263166,0,0.0,0.0,0.0525152689856776,2.2858192086249162e-07,-0.0451315948093539,8.734206149830708e-06,0.002503767471626,4.847976379721193,27.13799345359824,17.86933609171003,25.602178740977283
0.52,31.222206962738102,131.01041054193402,7.405210501673173,4.865306299521403,0.0012516517170965,30.733671928447727,0.0013599291289974,2.317711624364424,372.098451184342,18.08534843773428,7.701914987606457,69.65988568649581,0.0001453248538387,120.00016298000436,200.19561780583155,1.274,1.0252426840672306,0,0.0,0.0,0.0531507657929359,2.4726951523704535e-07,-0.0477531686556663,9.421346966092632e-06,0.0026812161964639,4.865306460134566,26.8699055233151,18.085545046726228,30.820940596104087
0.53,31.222206619320115,131.01041124632013,7.569307468221277,4.848802699234936,0.0012715119568563,32.301199055744725,0.0013711327835325,2.2490252325653923,386.55624643486095,18.41963113311156,7.8474319110539055,69.6325258319474,0.0001598315062727,120.0001786629144,207.6614205945027,1.274,1.0251993415311351,0,0.0,0.0,0.0541332845214831,2.67031759303889e-07,-0.0504479325599339,1.0141887756417996e-05,0.0028848299490111,4.848802865552398,26.45837260670532,18.419830861742675,32.37940050117613
0.54,31.22220626697288,131.01041196903336,7.737918664599091,4.831496690588052,0.0012913635058467,28.31291960103712,0.0013809098107221,2.177242866245296,349.2703242098436,18.75116898748492,7.992112829440902,69.60362200959217,0.0001754082864028,120.00019548734956,215.20067397992847,1.274,1.0251561018460285,0,0.0,0.0,0.0551077428911958,2.878941684235108e-07,-0.0532336286085667,1.090122304443916e-05,0.003098869611663,4.831496862756785,26.061835558272342,18.751371834390056,28.396510432451375
0.55,31.222205908994248,131.01041270328463,7.909026079894722,9.733191319765169,9.297818225662493,30.185670857136675,-0.5263022773373187,1.815646682234368,365.2500005919912,20.15488583947672,8.113323699629928,69.57312211246325,0.0001921068626005,120.00021350480982,248.62252994758688,1.274,1.025112921033824,0,3.7596053489187766,0.0,0.0592332356177263,3.0989272306468813e-07,-0.0561100530405476,1.1700476995263424e-05,0.0035107731766435,13.429437566264813,34.42032336603195,21.608982020748854,30.244806034379348
0.56,31.222205546564343,131.01041344664463,8.081909946161325,-2.75607672645781,8.251265823395643,28.073946613964694,-0.5189689480006129,2.347279128007413,346.22656194657776,18.53942943756393,8.247294810559758,69.54097415464405,0.0002099796112633,120.00023276987916,210.3610430218436,1.274,1.0250709539098009,0,3.773321678167647,75.00003213914121,0.0544856737244713,3.3302698971832e-07,-0.0625881051614596,0.0063968696062511,0.0036021575853603,8.696364409999772,34.01794984667534,19.831059812576115,28.176684094433604
0.57,31.222205178420328,131.01041420495483,8.258296221886255,-2.6604378585047668,8.151178948466653,27.755253849406937,-0.6205176975722573,2.366758385428565,343.1828296833045,18.80167059238947,8.37788155456992,69.50511423405666,0.0100165048196521,120.01070091644786,216.3506031627055,1.274,1.0250279191823897,0,3.786930847216913,75.00003213914121,0.0552564862485771,3.62368832415433e-07,-0.0609747343719613,0.0112029432568847,0.0035588816124163,8.571570781665875,33.604822045781575,20.077740141779493,27.86289115854662
0.58,31.22220480450529,131.01041497416787,8.436482632036213,-2.5762693602687827,8.046361105062307,36.68170441893644,-0.7257579839953496,2.386855564896853,426.12500585731766,19.06985321875869,8.507583031424398,69.47017696510773,0.0271430687676493,120.02898703963328,222.5627614371085,1.274,1.024981594484354,0,3.800559440921576,75.00003213914121,0.0560447644850945,3.93556511173083e-07,-0.0593718532528502,0.0160862480573474,0.0035146955350764,8.446146725847909,33.18819983756334,20.32962223024884,36.76644180794809
0.59,31.22220442531796,131.01041575559097,8.617357562327836,-2.476404255384637,7.886099008713319,29.65170156465476,-0.840380160899623,2.4005647535496366,360.68438819710633,19.472238631370967,8.685003737634151,69.43615383955525,0.05167088878033,120.05518133864086,232.05024119306023,1.274,1.0249386802161349,0,3.8140877853518966,75.00003213914121,0.0572274596118736,4.2662996330090737e-07,-0.0577740227744651,0.0210456243279397,0.0034922128232155,8.26343487617018,32.575226154976995,20.70707666989537,29.76058392622981
0.6,31.222204036590306,131.0104165573796,8.803086153162434,-2.398120577997972,7.787651084288572,26.304062611725865,-0.9535939034467394,2.4228555308552915,329.4859594986072,19.7262609842582,8.810017088707621,69.40303833443741,0.0836808176244885,120.08937355543962,238.13984241706385,1.274,1.024891335813742,0,3.8275821606464135,75.00003213914121,0.0579741338632674,4.6162016311385683e-07,-0.0561711667345581,0.0261144061334348,0.0034395583818003,8.146350643044467,32.197487293276744,20.945779291666245,26.43261773146355
0.61,31.22220364563136,131.01041736458265,8.989309397878914,-2.32327917109956,7.694617833000363,30.89784440528961,-1.069472248257871,2.4462945099689346,372.0984511843332,19.965463637518365,8.929887818851398,69.37082844850633,0.1233059032109839,120.13170910970032,243.94591291700127,1.274,1.0248423929069768,0,3.8411965131561137,75.00003213914121,0.0586772573948743,4.985843883348097e-07,-0.0545772396863763,0.0312515707709379,0.0033824210376918,8.035687736359197,31.846718813732025,21.17050149521132,31.01297980866696
0.62,31.22220324889548,131.0104181844683,9.178159397800444,-2.239782890602354,7.56813052794713,38.52194403340551,-1.1934721788916756,2.466021588417949,442.86563930529206,20.289623882725486,9.08009013355224,69.33951297651672,0.1706179357920955,120.18226792860143,251.9270864244999,1.274,1.0247996097896497,0,3.8546096968863415,75.00003213914121,0.0596300712578071,5.37558124486872e-07,-0.0529944515573885,0.036451356412018,0.0033375918251566,7.890754992033568,31.38018653965251,21.474969141598333,38.619241453311304
0.63,31.222202844461314,131.01041902095815,9.37077414744992,-2.1488053048758062,7.4093142324594385,21.649858836777863,-1.3277827193448206,2.482276089954651,286.11251274707456,20.704502676347545,9.262762416758472,69.30907816942126,0.2256814396148114,120.24112208667152,262.3302934401158,1.274,1.024756158874558,0,3.86797112146856,75.00003213914121,0.0608495090796826,5.78569073948409e-07,-0.0514174814114632,0.041733404748179,0.0033044287726512,7.712945738345725,30.799911800476224,21.865113920711835,21.83211142306121
0.64,31.222202431444064,131.0104198758311,9.5676641961087,-2.089654932091526,7.354631276939873,21.246489413089865,-1.4481699078686574,2.5123200345331664,282.3078244179702,20.830951822044568,9.342824654194354,69.27951194857792,0.2885922334653502,120.30837702287512,265.53933103703525,1.274,1.024708534665538,0,3.8813668854617625,75.00003213914121,0.0612212728460083,6.216517381639285e-07,-0.0498407269438715,0.0471189099764715,0.0032225974848791,7.6441642706805935,30.61778215853204,21.983044681711597,21.443466613831653
0.65,31.222202019963778,131.01042072842938,9.762800929068762,-2.0231748236222185,7.27037937020952,37.893401515447934,-1.5756263137863624,2.5387286299868483,436.7781447787504,21.03509203202384,9.450633015337193,69.25080392851841,0.3594795717387463,120.38417384394351,270.7642504641934,1.274,1.0246641738210605,0,3.8948262266311904,75.00003213914121,0.0618213682500694,6.668740232815757e-07,-0.0482880043642204,0.0525296193786288,0.0031527397133505,7.545174478006816,30.332189888407992,22.174058272692715,38.0110197146612
0.66,31.222201600942505,131.01042159723585,9.961577653672748,-1.933894190861536,7.099471132754342,32.157662716072494,-1.7255228989895643,2.5547878395347974,383.5125151715984,21.48898908187813,9.64774429864806,69.2229289150885,0.4383554193659766,120.46852819120292,282.57007765593147,1.274,1.0246195561629028,0,3.907939936807401,75.00003213914121,0.0631554967486436,7.142492630979792e-07,-0.0467543140682249,0.0579833620645435,0.0031184144129689,7.356852291682927,29.72799720436064,22.601319935241172,32.305102407215045
0.67,31.222201170263983,131.0104224905269,10.166393391663991,-1.8621269002590448,6.985850230265087,21.99143715020649,-1.8677020216181712,2.5786042620872127,289.15624401033847,21.77520070648618,9.785109577421212,69.19586312422774,0.5252602987301994,120.56148613193292,290.1415938270571,1.274,1.024572383541697,0,3.921076367549871,75.00003213914121,0.0639968120321375,7.63783761701013e-07,-0.0452230075114664,0.0635418509925271,0.0030563931697308,7.228583478496838,29.34827892244678,22.86981869030145,22.220729482028556
0.68,31.22220073785736,131.01042338815645,10.371380026473476,-1.8020326427041096,6.910788464166181,27.575313726778795,-2.0025076078742527,2.6074301660019987,340.89999248584934,21.93867956086062,9.878645458123415,69.16959046491223,0.6203293400805244,120.66319483622448,294.50866704308214,1.274,1.0245245285832842,0,3.9343835108505374,75.00003213914121,0.0644774217172272,8.155408751845908e-07,-0.0437080428000837,0.0691579776647911,0.0029761232206557,7.140767110451063,29.12316439023929,23.0215934654276,27.770607770094742
0.69,31.222200302254706,131.01042429310735,10.577410658713385,-1.7313405052870323,6.791519795553652,34.062020571286745,-2.151845159284911,2.6309555471269244,401.0140726853658,22.23585553212576,10.02010559854454,69.14408549229555,0.72362755848541,120.77372641884216,302.5354044922629,1.274,1.024479631064582,0,3.947473753362511,75.00003213914121,0.0653509689517327,8.695631361690587e-07,-0.0422191937244015,0.074796916326925,0.0029136289963528,7.00772632031804,28.737447947350677,23.30016853823492,34.23117891746145
0.7,31.22219985778657,131.0104252167178,10.787780127107736,-1.656620994644902,6.650891990136689,28.481654128550343,-2.3120633579547296,2.652206603643239,349.270324209851,22.602084875923524,10.186430546131424,69.11931586861631,0.8351686134426435,120.89309796435548,312.5768051597055,1.274,1.0244351749185203,0,3.9604260421906297,75.00003213914121,0.0664274711790253,9.258562509975602e-07,-0.0407488091885816,0.0804894587131871,0.0028584139434352,6.853205025187199,28.27709073076046,23.64445993762763,28.6981612431524
0.71,31.22219940597338,131.01042615584203,11.001570851078831,-1.5918596488296812,6.544240929797587,23.310526253910208,-2.4648276792135824,2.6778776789931444,301.3312640634036,22.85316553234642,10.311562810773188,69.09525186122822,0.9550137515377752,121.02137739154814,319.5534861657146,1.274,1.0243880468141104,0,3.973446240388937,75.00003213914121,0.0671655586001533,9.84443469750315e-07,-0.0392941216558194,0.086249178004477,0.0027869343171121,6.734246567723615,27.95595606865461,23.878898829434377,23.592944678146985
0.72,31.222198950978864,131.01042710214787,11.216362398697187,-1.5311633266380127,6.450089539543181,28.652326583028287,-2.614909938061776,2.705083281328332,350.7922053414578,23.055063538978136,10.419087896637196,69.07186352670793,1.0832455795426033,121.15865541862658,325.21795778390856,1.274,1.024337302174265,0,3.986439411996297,75.00003213914121,0.0677591019645848,1.045372645069263e-06,-0.0378642455234666,0.0920426370801197,0.0027091899499477,6.628589850993458,27.692112038661456,24.066102556642583,28.898287979802642
0.73,31.222198491364,131.01042805847794,11.432982845477207,-1.4640679253041426,6.324697279744738,36.37649736224607,-2.779488602519105,2.728556231739218,422.3203185282354,23.362403211780165,10.564544062958708,69.04911435898624,1.2198971580220903,121.304969673728,333.9395577611539,1.274,1.024292465384646,0,3.999290808205304,75.00003213914121,0.0686625446663839,1.108672068671548e-06,-0.0364637121249424,0.0978534503007514,0.0026437061732593,6.491269273066223,27.31388249378397,24.35386793125152,36.584424778131904
0.74,31.222198023486094,131.01042903192985,11.65349608714124,-1.392817154175379,6.175130076948915,22.56798084767793,-2.9588268374846254,2.7493097033986,294.4828134710563,23.75853252771445,10.742013215596536,69.0269638646571,1.3649776553947948,121.46033214257066,345.3527080981141,1.274,1.0242470321640116,0,4.012053785648424,75.00003213914121,0.069826949928344,1.1743455284771609e-06,-0.0350877240289759,0.1037036450593167,0.0025870236885199,6.329664579937514,26.847068790164204,24.72664292884703,22.92655926301587
0.75,31.22219754713578,131.01043002277987,11.877984442882097,-1.3369412170625927,6.088837122654897,26.43237979402924,-3.111385043743077,2.7775415094604776,330.24688556441737,23.910594019192303,10.8317456072971,69.00537241251243,1.5185299524833975,121.62479085369554,349.7800293932317,1.274,1.0241984712898409,0,4.024848594993164,75.00003213914121,0.0702740406170332,1.242406545359222e-06,-0.0337329354623056,0.1096104077411658,0.0025029993290886,6.233347044432714,26.641056904322134,24.86522711059748,26.75941246184246
0.76,31.22219707129029,131.01043101349808,12.101351996187232,-1.2745485220696706,5.968253966999425,28.48639147219188,-3.281919215828232,2.801486245723449,349.2703242098581,24.18905887470368,10.966997061200583,68.9843002811566,1.6806231006384416,121.79842182340172,357.9669293497775,1.274,1.0241522053390697,0,4.037645695621803,75.00003213914121,0.0710926373541954,1.3129197283724988e-06,-0.0324151208785237,0.1155082680711909,0.0024331760538009,6.102347864229149,26.3052165441864,25.124855562178013,28.81134877146793
0.77,31.222196585873466,131.0104320235975,12.329279036555064,-1.2120676909784271,5.843331429394963,26.59180367529936,-3.4568779973964303,2.8247845050397355,331.76876669606884,24.479168810708327,11.106486068943576,68.96369811631297,1.85122807580074,121.98119600581325,366.5969032439221,1.274,1.0241065975906936,0,4.0501868026053645,75.00003213914121,0.0719454673744697,1.3858732817048717e-06,-0.0311285558549012,0.1214237940325933,0.002364574768869,5.967288596057066,25.96065732461666,25.39544686524576,26.96392841732192
0.78,31.22219609496438,131.01043304505225,12.559433673358836,-1.152423964886304,5.726555954431042,21.73422879878166,-3.6290498451533297,2.848754559633255,286.8734378128874,24.73097588328485,11.23221326874045,68.9435178534056,2.0303558281510257,122.17312713379032,374.1694854317352,1.274,1.0240588105546735,0,4.062792617000409,75.00003213914121,0.072685729340525,1.4612818555251916e-06,-0.0298747127876806,0.1273541633953588,0.0022926238439912,5.840984399837107,25.656927424304737,25.629004309190883,22.21850820368975
0.79,31.22219559915184,131.0104340766802,12.79147536559354,-1.0961275418104215,5.622585596242385,31.11413540491138,-3.793607042018704,2.873751465743797,373.6203323159581,24.91990886987347,11.33527880889892,68.92370904401065,2.218012906022937,122.37422421850962,379.89981404661125,1.274,1.0240083170932772,0,4.075331716305785,75.00003213914121,0.0732412057552421,1.5391668257989364e-06,-0.0286571285892077,0.1332849438188608,0.0022159362243709,5.728097851516272,25.41489858932958,25.801685704611025,31.476011880021876
0.8,31.222195099513343,131.01043511638812,13.024796971469202,-1.033313500849654,5.479883409936271,31.520446933062093,-3.9851173467653456,2.893984218073447,377.42502064505805,25.273206576835392,11.4976729855195,68.90421796398813,2.4141838775690654,122.58447271904096,390.7393456494021,1.274,1.0239625010683884,0,4.087781195224284,75.00003213914121,0.0742797658401491,1.6195483019704424e-06,-0.0274805170399144,0.1391959133578909,0.0021550316396182,5.576163667821358,25.019004557837697,26.1326729374193,31.90289767061813
0.81,31.22219458946467,131.0104361764482,13.262988234906286,-0.973111653510561,5.345426703287917,20.31536173975193,-4.173418328307756,2.9147765603722373,273.9374926939922,25.586143593329297,11.645533550720256,68.88498724853514,2.618822480614899,122.80382506939743,400.46649086965226,1.274,1.0239149950770308,0,4.100096045370929,75.00003213914121,0.0751997122500367,1.7023989139848848e-06,-0.0263387947639266,0.1451199883974451,0.002091024883488,5.433027137003722,24.66547708186436,26.42458372129411,20.943430128728366
0.82,31.22219407446892,131.0104372464682,13.503020418970214,-0.9200190974302258,5.24522387982028,26.241058266338463,-4.3354551854168175,2.93873740180608,328.725004432774,25.72993472097085,11.732308251064191,68.86596075280147,2.8319309010980107,123.03228564785216,404.9709532833448,1.274,1.0238644186635044,0,4.112483842863589,75.00003213914121,0.0756225306110432,1.7877402458450272e-06,-0.0252359645554241,0.151041093017057,0.0020146845324749,5.325076782516829,24.46637333289801,26.55270220215192,26.75865258414373
0.83,31.22219355802296,131.01043831998018,13.7430019746482,-0.8621648224261774,5.113299814652458,33.4839360533551,-4.522404366790116,2.958483925209575,395.6875032246518,26.01821390696092,11.871279817162328,68.84707896000056,3.05348618366538,123.26983193250636,414.0868668114021,1.274,1.0238188483711983,0,4.124785408714222,75.00003213914121,0.0764700154213813,1.8756130528746649e-06,-0.0241808267473594,0.1569146867697219,0.001952032641476,5.185285786774065,24.13885997314028,26.82034341645728,33.91723370231805
0.84,31.222193031647777,131.01043941248295,13.98748196002512,-0.8025229574038432,4.964903758446063,20.45293630838209,-4.7254186038412405,2.9758042033853016,275.45937482564227,26.38545177486876,12.038809257877393,68.82827737392839,3.2833975670546405,123.51636876842592,425.8487429778135,1.274,1.0237739661568126,0,4.136906737787744,75.00003213914121,0.0775495764924637,1.9659780853121057e-06,-0.0231689522632858,0.1627675160065895,0.0018967023539886,5.02918478289292,23.746717850513104,27.16436138631809,21.20159416820228
0.85,31.22219249718969,131.01044052034675,14.235409776806383,-0.7506422771593028,4.85933245645783,22.341354239968044,-4.888138508880179,2.996951116802326,292.9609323393965,26.522140355496298,12.122964019470576,68.80949208218055,3.521612729268784,123.77184227152765,430.26210549962985,1.274,1.0237227741398531,0,4.149078220693556,75.00003213914121,0.0779515364410285,2.058818598833426e-06,-0.0221994410592437,0.1686098728557429,0.0018267054411778,4.916830696191496,23.552344769695477,27.284527774224465,23.065379323874954
0.86,31.222191963228564,131.01044162805695,14.482226060013652,-0.6964973421047379,4.73434996522588,28.10352294377208,-5.067593704247356,3.0149921564578928,346.2265619465616,26.75217034214584,12.2408590125874,68.79065808452346,3.768092855289064,124.03621312769415,437.74753406496814,1.274,1.023674789281455,0,4.16124437578862,75.00003213914121,0.0786278392508303,2.154190287576965e-06,-0.0212824132163109,0.1743848469389679,0.0017663937189279,4.785193158684141,23.279408782338813,27.494994323301803,28.71547815213868
0.87,31.22219142054273,131.01044275209912,14.73279065926796,-0.6407786095007512,4.5940448495714765,26.1122949460876,-5.262354091408803,3.030421460464648,327.9640783669946,27.059201367122743,12.38660380469802,68.77170563943343,4.022712296287096,124.30934900621216,447.84235491624736,1.274,1.0236288969245204,0,4.173170436324113,75.00003213914121,0.0795304651142741,2.252052858111532e-06,-0.0204158840095417,0.1801066059549846,0.0017138796941435,4.638422685367565,22.94493205392828,27.780059262486454,26.809098682404144
0.88,31.22219087032401,131.01044389009064,14.986417686730976,-0.5872529177033309,4.462774082429543,22.47053387646772,-5.446386231825879,3.0457657734105816,294.4828134710421,27.3080030939388,12.511260491700044,68.75256486386682,4.285364308486385,124.59113794988971,456.1046755847125,1.274,1.0235805388426191,0,4.185104126951424,75.00003213914121,0.080261954991835,2.352373975341919e-06,-0.0195993945271117,0.1857840656611433,0.0016604247163759,4.501168825342544,22.65937759994528,28.00830539908779,23.320907032664604
0.89,31.22219031568657,131.01044503645275,15.241465989006292,-0.5352308543681664,4.337271030946016,24.686883216631244,-5.6210861644151215,3.060544148823495,315.02813424808807,27.51252512021068,12.619855071382196,68.73316499564393,4.555952864030049,124.88147962394632,462.9508695577471,1.274,1.0235293752791452,0,4.197014623160408,75.00003213914121,0.080863305886398,2.455158165416046e-06,-0.0188363906347895,0.1913980190781203,0.0016076966022291,4.370108081899668,22.409136296167976,28.193171558621167,25.503053603564148
0.9,31.222189756160954,131.0104461919497,15.498167366627248,-0.4826933988364155,4.2018914695850365,27.314270531961263,-5.805720741752458,3.0729942939496024,339.3781423542166,27.76861781826869,12.747099526836488,68.71343346947809,4.834350649747011,125.1802402723265,471.5978538674068,1.274,1.0234837388140003,0,4.208825471808671,75.00003213914121,0.0816162358929432,2.5603989437544583e-06,-0.0181295916432711,0.1969327392604178,0.0015617356790848,4.229475970649293,22.119700614738083,28.4280579055065,28.093042945808293
0.91,31.222189189239288,131.01044736074016,15.757769471696868,-0.4303407794083292,4.060981583190931,20.61124304184719,-5.996069798710932,3.0835224000055232,277.7421810230785,28.053246820371506,12.884659256127575,68.69329648489196,5.120404105224301,125.48725812453232,481.3031803783175,1.274,1.023436404813438,0,4.22054906326852,75.00003213914121,0.0824530457867944,2.6680571699042702e-06,-0.0174792685729975,0.2023912069071068,0.0015211106517861,4.083681474719675,21.81046072913892,28.690610357486182,21.686039360668037
0.92,31.22218861543892,131.01044854174685,16.01996666149178,-0.3802979574764973,3.9353727199509776,24.643802496897685,-6.160752762305055,3.0942960011478657,315.0281342480675,28.224765046779574,12.981187010738708,68.67267968876126,5.413960957338595,125.80237294951004,487.1943024896795,1.274,1.0233859136578225,0,4.232242717220864,75.00003213914121,0.0829574111096864,2.778100036370795e-06,-0.0168864685136293,0.2077713092999216,0.0014784704658066,3.953676450635389,21.58538864521799,28.842446012694555,25.58996959449287
0.93,31.222188039074016,131.0104497276455,16.282578188613822,-0.3295613537482479,3.794915914269112,29.418311419907408,-6.344554155942047,3.101904613796697,359.16250706547066,28.49033344003093,13.111774956221886,68.65150806395222,5.714862444165108,126.12541772330133,496.3929913115992,1.274,1.0233407575091376,0,4.243892241844353,75.00003213914121,0.0837382101503289,2.890536030121885e-06,-0.0163550389711641,0.213044611962016,0.0014453786841303,3.8091782071139737,21.29245817273639,29.08600169072597,30.254127428657224
0.94,31.22218745366232,131.01045092909325,16.54880639744929,-0.2789596576350014,3.6465904367735296,21.1377087178166,-6.5391342545616,3.107034726604005,283.06875048378083,28.80755909165577,13.261065192748289,68.62970606009455,6.022904361267983,126.45617682618966,507.4957334679248,1.274,1.0232914783978162,0,4.25540235953234,75.00003213914121,0.0846708476898407,3.005298211220104e-06,-0.0158845411149834,0.2182210917617495,0.0014193926781372,3.657230537280311,20.96511806653763,29.379977547268048,22.343157150026137
0.95,31.22218686047577,131.01045214372192,16.817962235425572,-0.2305055723819762,3.5163311717533805,27.56801998292793,-6.697803809535156,3.112585764743373,342.421873617488,28.9773074978282,13.356822082655412,68.6071981112674,6.33789363726576,126.79444676813922,513.4809135066769,1.274,1.0232418269359267,0,4.266914587105728,75.00003213914121,0.0851700289140081,3.122334904526113e-06,-0.0154759237080311,0.2233016325948044,0.0013909925670921,3.523868755193538,20.741179548278136,29.529304840957085,28.540225853924497
0.96,31.222186265453093,131.0104533618317,17.08712999007153,-0.1816866921042651,3.3678286482189748,26.969842919052063,-6.886631632249953,3.11419824225922,337.09533515678265,29.28493886771929,13.502570164643895,68.58390840329659,6.659634673724318,127.1400215383772,524.4277485436181,1.274,1.0231951201821403,0,4.27839783909209,75.00003213914121,0.0860744796714865,3.2416617163340387e-06,-0.0151326452205374,0.228253119924633,0.0013745424129955,3.372720242164343,20.42433934004456,29.81365157687297,28.008862044159144
0.97,31.222185659250936,131.0104545982757,17.36081036640349,-0.1338414169143431,3.2233812785447062,16.943938675650458,-7.063722177333774,3.1144484314430407,245.0218871929888,29.55185846319952,13.633504143017344,68.55976193805523,6.987879503971636,127.4926390876866,534.0171448615714,1.274,1.0231476260761452,0,4.289729106643716,75.00003213914121,0.0868592796749149,3.36318142779152e-06,-0.0148543188360297,0.2330908019333513,0.0013615233608152,3.226155837649375,20.13662954101378,30.057918962209214,18.619694355033822
0.98,31.222185048029434,131.01045584301886,17.635984715200415,-0.0873077590078185,3.094174213527121,25.032059728094502,-7.201435724687764,3.1147746198327466,319.593746642963,29.671914857896965,13.711075940290836,68.53468379109593,7.322398652803423,127.85205740738375,538.3506912781661,1.274,1.0230935628253934,0,4.301099105101321,75.00003213914121,0.0872124220709765,3.486865371719772e-06,-0.0146430528013439,0.2377993720266829,0.0013475760467221,3.095404544937133,19.944606091436075,30.15771039895746,26.23292800394295
0.99,31.222184435130224,131.0104570908586,17.91107065674351,-0.0408762080474075,2.9453772508483924,27.40930946034063,-7.378066765646115,3.11048068832258,341.66094855170127,29.963476346719418,13.850878542812652,68.50859992197309,7.6629363444874095,128.21800642878907,548.9680257182235,1.274,1.0230490803133316,0,4.312381231266717,75.00003213914121,0.0880696601297229,3.6127191013405656e-06,-0.0145007990799302,0.2423492414844709,0.0013475619508997,2.945660629148217,19.643027732267765,30.425931377539666,28.55488057063937
1.0,31.2221838104351,131.01045835723735,18.19079846171009,0.0047640330946938,2.7965711981013786,24.40860721032744,-7.5505865682195585,3.1040354103939336,314.2672081822764,30.250613929975508,13.989037795000453,68.48143879686009,8.009190114975283,128.59016609876778,559.5248393817529,1.274,1.022999484445133,0,4.323513320909528,75.00003213914121,0.0889139052350748,3.740612786747036e-06,-0.0144277924758177,0.2467583524463449,0.001353589630327,2.7965752527038643,19.346430975281493,30.68972390541472,25.73764750907133
1.01,31.222183179751788,131.01045963297247,18.4723849150278,0.0494678722702986,2.652695087045381,25.545994769485784,-7.7048946183291935,3.0961425977628108,324.92031610370094,30.481238114451827,14.106631773186404,68.45312898910916,8.360879846522558,128.96824053155143,568.0733912028584,1.274,1.0229507481225095,0,4.334688250390503,75.00003213914121,0.0895920504135752,3.870490950763088e-06,-0.0144255939165851,0.2510173348563931,0.001363664389679,2.653155959704644,19.086033832326684,30.89777363777128,26.86167062615121
1.02,31.22218254367814,131.0104609171015,18.755541610713365,0.0933158889840618,2.50523180419766,21.134627644960403,-7.86337731237017,3.085415766392861,284.59063161543185,30.74422106071684,14.235947798555229,68.42360064752488,8.717708134923788,129.35191542667658,577.9022929430463,1.274,1.0229039803623294,0,4.345793322710656,75.00003213914121,0.0903653123718466,4.002316075296114e-06,-0.0144951809169236,0.2551103607089037,0.0013820269662166,2.506968028887098,18.80744711788844,31.13761657306781,22.76016210178056
1.03,31.222181899388406,131.01046221365962,19.04152936604885,0.1366452481824693,2.3631162786702364,17.054091888603647,-7.998198200289624,3.073340275926172,247.3046933904342,30.935754270226173,14.339243823777815,68.39278669435207,9.079351397696437,129.74084848174834,585.1091895568344,1.274,1.022853416101322,0,4.356818528601291,75.00003213914121,0.0909285720290847,4.136005349751799e-06,-0.0146376669690602,0.2590333981033582,0.0014042680832721,2.367061444424191,18.571597838714844,31.306846476742862,19.085561166695697
1.04,31.22218125099269,131.0104635164702,19.328450885820576,0.1794767247168634,2.223161219292279,27.718027771202685,-8.116954999054675,3.0594334271922925,345.4656368807608,31.088490408027027,14.428381521387513,68.36062202747385,9.445477045989914,130.13468782125605,590.8847759464073,1.274,1.0228049544826707,0,4.367813889484725,75.00003213914121,0.0913778008012382,4.27151946230054e-06,-0.0148536572230123,0.2627699986188021,0.0014319851603858,2.23039044439604,18.35802737585913,31.43761613568137,29.04365946084039
1.05,31.222180597753937,131.0104648265377,19.61662590245185,0.2204220993164189,2.069398447810421,16.258324835968082,-8.279217212588527,3.040143939022604,240.4562587980608,31.421781720186743,14.583176024230577,68.32704523387245,9.81572619609431,130.53305337988627,603.6054143103428,1.274,1.022755494436122,0,4.378707280218507,75.00003213914121,0.0923577378524642,4.4087981212881e-06,-0.0151433815090452,0.2663090856977688,0.0014755269173086,2.0810993991381874,18.04388548531384,31.74677139948916,18.496514247150856
1.06,31.222179931834752,131.0104661547314,19.90947665676891,0.2621915690965982,1.9308590933606289,23.613445555639288,-8.374124963416119,3.021875223163012,308.1796836557233,31.5303601379272,14.656145558333266,68.29199867801316,10.189721919564423,130.9355457353036,607.7670610917518,1.274,1.0227013895379469,0,4.389513211864913,75.00003213914121,0.0926771875913219,4.547669686669752e-06,-0.0155093466369317,0.2696623923903948,0.0015163647633809,1.9485726138457389,17.854974832682903,31.83360136997232,25.23593687138277
1.07,31.22217926769959,131.01046748059767,20.200605687596447,0.301631314341814,1.7811363617194935,27.98273917298475,-8.508961866301846,2.9982391629422733,348.5093681440431,31.80676289473313,14.790190632635804,68.25542509434192,10.567101368396177,131.34178062954263,618.4521386852253,1.274,1.0226540159946436,0,4.400360126224556,75.00003213914121,0.0934899253361892,4.688164648572489e-06,-0.0159496736220486,0.272799906861254,0.0015730422168475,1.8064879958805375,17.57573447839194,32.08649807990406,29.401114974498416
1.08,31.22217859046845,131.01046882468907,20.496490089426462,0.3398901708216464,1.6299191451499202,18.421847746194565,-8.64583643408143,2.9712666907868246,261.0015785751465,32.112275616100554,14.934824181033337,68.21727457327786,10.947458166599976,131.75132696431388,630.3720895898147,1.274,1.0226061614050743,0,4.411011967863337,75.00003213914121,0.0943882369677809,4.830103850518926e-06,-0.0164668192509611,0.2757307456344409,0.0016395986999643,1.664971646286555,17.283574296743033,32.3682681861301,20.565587464904645
1.09,31.222177905579024,131.01047017917188,20.79469415223901,0.3788833083767971,1.4877040631617793,16.82398817208749,-8.729396979485438,2.944499129570415,246.54375332456465,32.25291355997645,15.019349814406317,68.177498294761,11.330397208091536,132.16376570375604,635.8874840808638,1.274,1.0225512795791307,0,4.421708097166199,75.00003213914121,0.0948019358186502,4.973379737928363e-06,-0.0170622455085081,0.2784486619213222,0.0017062767165857,1.5351819691465496,17.0782827637061,32.48657530995168,19.181215414150117
1.1,31.22217721923031,131.01047153570275,21.092570892155663,0.4167927739194457,1.3438854864272287,34.97174820009393,-8.812094359581405,2.914651624564632,413.1890617384087,32.41768960786103,15.112638868792324,68.13605083252162,11.715513548077384,132.5786671314744,642.3830390445536,1.274,1.0224981043155532,0,4.432359125747436,75.00003213914121,0.0952865871793809,5.117986105528497e-06,-0.0177330712382664,0.2809338630024834,0.0017823702235136,1.4070225866055133,16.86090673326208,32.6287672912081,36.182473288396366
1.11,31.222176525294223,131.0104729023645,21.392704363782364,0.4499940199850924,1.188267426366067,25.23568860662665,-8.967661421157048,2.8763170603187542,324.1593910379213,32.86291141587372,15.308259616070332,68.09289443655489,12.102375341978243,132.9955724202827,660.130044109392,1.274,1.0224548851875197,0,4.442872766996072,75.00003213914121,0.0965955722577893,5.263805841729798e-06,-0.0184796860024188,0.2831825108747459,0.0018828685610062,1.2706081464165335,16.50689985679058,33.049550646717364,26.93570364120112
1.12,31.22217581384919,131.0104742916518,21.699145794625096,0.4852460658624469,1.0430761318236503,8.696099676730915,-9.047798908586609,2.8396176988557773,172.7328179403806,33.07173890488585,15.41760776588895,68.04799564476072,12.490546072737196,133.4140175067479,668.5266200323731,1.274,1.0223979224661404,0,4.453342661728089,75.00003213914121,0.0972097253184472,5.4105704398534445e-06,-0.0193090244670746,0.2852036310516657,0.0019798120387625,1.1504110341830147,16.271311815511098,33.23557587020417,12.866555224826712
1.13,31.22217510308872,131.01047567991776,22.0043092910052,0.5225083831199907,0.904633165286768,29.93211138354721,-9.061642513443786,2.8045953698945167,367.5328077894322,33.081466871327365,15.454186452154124,68.00132006790022,12.87960084025934,133.833550593449,668.9003621703022,1.274,1.0223460397860296,0,4.463907973524774,75.00003213914121,0.0972386541564134,5.5583124529039295e-06,-0.0202156334891811,0.2869755244431094,0.0020733183015198,1.0446786526459848,16.130395627485566,33.223560412788245,31.3992103739467
1.14,31.222174392018683,131.01047706869747,22.308665357644703,0.5524771141054808,0.7542951476921024,15.954605813266529,-9.18313259977133,2.7577101026495896,239.6953177322812,33.49266576048067,15.637519005528654,67.9528433115515,13.269088039533548,134.25369081284498,685.6123769944521,1.274,1.0223022138470996,0,4.474307968789788,75.00003213914121,0.0984476577397624,5.707039661318109e-06,-0.0211931965472293,0.2884848101557029,0.0022005302998896,0.9349729928606751,15.803457969696804,33.61114674271141,18.61408971752196
1.15,31.222173659037708,131.01047848459532,22.62089754849491,0.5866973309180391,0.6131209751488639,15.687436199655725,-9.203919581062785,2.7151339867967828,237.4125115347709,33.58838074909163,15.705458067243796,67.9025507497782,13.658542420916708,134.6739422173556,689.5159688976355,1.274,1.0222426194541194,0,4.484563616634011,75.00003213914121,0.0987293482845867,5.856380834563676e-06,-0.022253325666034,0.2897409899842336,0.0023171392735908,0.8485976368877591,15.623110257252456,33.68468772859732,18.3896640192038
1.16,31.22217293219929,131.0104798927398,22.929662349158743,0.6185954313657296,0.4709979786959144,43.253471798827405,-9.234545474560514,2.66832521831743,490.043774385954,33.75019843132758,15.797590035961008,67.85042451262946,14.047511400818804,135.09382206800544,696.1550446060866,1.274,1.02219674531104,0,4.494965202422356,75.00003213914121,0.099205339210775,6.006417025121551e-06,-0.0233862071271406,0.2907278871325658,0.0024467600973084,0.7774900539422022,15.413993038795612,33.82418178755682,44.30868551699985
1.17,31.222172194967097,131.01048131340684,23.241586755286264,0.6416638877325417,0.3234065672670967,6.495797546746744,-9.376799332068543,2.607202181974131,153.70937929500428,34.327097184218765,16.041923615381243,67.79645905278305,14.43552743682515,135.5128310299725,720.1358979253662,1.274,1.022149394360584,0,4.505124176841608,75.00003213914121,0.1009014306761557,6.156980699946724e-06,-0.0245926882600862,0.2914436675663762,0.0026168892253474,0.7185540897243359,15.027932195797984,34.37789749925642,11.701164672796155
