Time,Latitude,Longitude,Altitude,Angle of Attack,Angle of Sideslip,X-Acceleration,Y-Acceleration,Z-Acceleration,Thrust,True Velocity,Ground Velocity,Pitch,Roll,Yaw,Dynamic Pressure,cp,parachute_deploy_gain,Wind Speed,Mach,omega_x,omega_y,omega_z,Cmq,Angle of Attack(total),Angle of Attack(gust),True Velocity(gust),Acceleration
0.0,31.222216000000007,131.010392,3.000000004412624,0.0,0.0,0.0,0.0,0.0,2.2828121974499247,0.0,0.0,71.99999999612658,-1.0292491154817412e-14,119.99999999354436,0.0,15.288,0,0.0,0.0,0.0,0.0,0.0,-0.0,0.0,90.0,0.0,0.0
0.01,31.22221599999862,131.01039200000284,3.0000009727369523,0.0,0.0,0.0,0.0,0.0,34.24218696174923,5.916279387578309e-11,5.734623670548936e-11,71.99999999613168,-5.86671995824671e-13,119.9999999935449,2.1432944861733093e-21,15.288,0,0.0,1.7386402909615473e-13,-3.4220131069073734e-19,7.115076756936125e-19,5.488773498207866e-19,-1.1574302492039043e-31,0.0,89.99999999962336,5.916279387578309e-11,0.0
0.02,31.22221599999738,131.01039200000537,3.0000018317022668,0.0,0.0,0.0,0.0,0.0,25.871876237766408,1.2265415415436536e-10,1.1895038237325684e-10,71.9999999961369,-1.1836364828043265e-12,119.99999999354544,9.211895886571454e-21,15.288,0,0.0,3.6044858651615574e-13,-6.979551485375437e-19,1.4162390878091906e-18,1.0909784360635388e-18,-4.776231873571785e-31,0.0,89.99999999921916,1.2265415415436536e-10,0.0
0.03,31.22221599921969,131.01039200159065,3.0001883335529382,18.80143492628821,-0.0001350810307892,10.931161642028636,-1.75114298675875e-05,3.026590975169265,180.34219359854663,0.0798232026864394,0.0478175828508887,71.99999999765336,-5.341802909786072e-12,119.99999999436793,0.0039016003969354,15.288,0,0.0,0.0002345795854893,3.788270153300133e-17,-7.771883375645477e-10,1.1422790048099072e-11,1.7057759223764537e-13,18.80143492675591,89.51882325913425,0.079801984207741,11.342422482672777
0.04,31.222215995131297,131.01039200995308,3.001692634342189,9.19442604083399,-4.49173898918486e-05,52.29595764159784,6.445392950801871e-06,3.026413589912948,548.6359724538078,0.3504174083926908,0.1601447499964056,72.00000000319055,-3.111420077280171e-11,119.99999999870242,0.0751892535633216,15.288,0,0.0,0.0010297854387864,2.0082066977226968e-15,-1.520937588847922e-08,2.5623342884322286e-11,1.4654248781413086e-11,9.19442604094277,87.798916624545,0.3504103527855857,52.383455068075136
0.05,31.222215983575865,131.01039203366796,3.0074067499493786,5.158590039700252,1.707592688632746e-06,76.26884281015512,5.843947534199429e-05,3.0258124765658088,761.6984298824644,0.9592973585397016,0.3772700771701255,72.0000000004862,-1.3608731808076822e-10,120.0000000109612,0.5634958029902841,15.288,0,0.0,0.0028191251099456,2.086299069701397e-14,-1.0551247853743037e-07,3.973493515691201e-11,2.783064866637575e-10,5.158590039700515,83.94063169874748,0.959297626767734,76.32884071402438
0.06,31.222215961742712,131.0103920785344,3.019291017943491,4.109521257467909,3.140103977270004e-05,57.06876634333886,0.0001151069734147,3.024834864051463,590.4875390737208,1.6257536642597354,0.6118982818704327,71.99999992547217,-3.5903296759057166e-10,120.00000003412836,1.6184272268450337,15.288,0,0.0,0.0047776672697797,1.0694899894620088e-13,-3.741090980393931e-07,5.521401959501359e-11,1.6723176417636091e-09,4.109521257587776,79.78719176344794,1.6257585967235286,57.148873286519276
0.07,31.222215929936205,131.01039214392435,3.0371334573469446,3.649087515174788,5.707077112564807e-05,86.89643797254193,0.0001728541558773,3.0234947746384675,855.2937749779139,2.3057260079826607,0.8506307413593818,71.99999965378231,-6.907496536790437e-10,120.00000006788592,3.255354923652711,15.288,0,0.0,0.0067759305364855,3.495199904512709e-13,-9.036515915819006e-07,7.594816279105379e-11,5.728932851326001e-09,3.6490875156204896,75.6601668283889,2.305734972638426,86.94902215090157
0.08,31.222215886364623,131.01039223353447,3.0621840248716574,3.4254446680114707,8.413075603463509e-05,17.831756866644035,0.0002285946601282,3.021841001032126,241.2171988638848,2.961944911520492,1.0819695676346892,71.99999900671328,-1.141745983122182e-09,120.00000011415082,5.371998197385977,15.288,0,0.0,0.0087043901031071,8.800530155962314e-13,-1.829098470920821e-06,1.0943386634701918e-10,1.4896287129277132e-08,3.4254446690434226,71.81713637501419,2.9619581267487467,18.085991154451033
0.09,31.22221583454733,131.01039234010327,3.0919888289029,3.389560809024919,0.0001118726864415,54.09031716446879,0.0002748660999733,3.020060228038602,563.0937377043176,3.504225426410036,1.2780161667917422,71.99999774508822,-1.634190085504106e-09,120.00000016921716,7.519080503822694,15.288,0,0.0,0.0102980157586766,1.865782139518716e-12,-3.1503298654458527e-06,1.6284478329871028e-10,3.03536411425607e-08,3.389560810868955,68.76526501308032,3.504242999330529,54.17456206384468
0.1,31.22221577423132,131.0103924641528,3.1267248829165366,3.4447939461814814,0.0001419149103147,51.372195336549765,0.0003131602029306,3.0182021883815127,538.7437595981919,3.950569597142709,1.4443465951180965,71.99999562056465,-2.1287748602259068e-09,120.00000023339832,9.55649523509932,15.288,0,0.0,0.0116097108366932,3.485956000178229e-12,-4.949356763187612e-06,2.4573266549165286e-10,5.3761299442583966e-08,3.444793949101151,66.34639928474206,3.9505918890846927,51.460781166288626
0.11,31.222215706113143,131.01039260424562,3.165907002780892,3.4691423802630394,0.0001702373452339,40.591037561894986,0.0003534470100582,3.016051659024047,442.8656393052949,4.421478635995476,1.6182620895289603,71.99999235067894,-2.5564479031457968e-09,120.00000030601664,11.970509656144712,15.288,0,0.0,0.0129935974697161,5.942887149865172e-12,-7.273722517324353e-06,3.67769289312894e-10,8.842679949465076e-08,3.4691423844348632,63.88798785789768,4.421505376815134,40.70293476011277
0.12,31.222215630588888,131.0103927595646,3.2092596514826863,3.4852659299808075,0.0001974376474727,44.30042894095728,0.000394069215595,3.013641598889868,475.58594813540446,4.896982486381051,1.793579340340896,71.99998761802138,-2.8337988279882726e-09,120.00000038673312,14.683611096353944,15.288,0,0.0,0.0143909889875706,9.464337642181618e-12,-1.017558359402848e-05,5.395790443954697e-10,1.3700793350599625e-07,3.4852659355662303,61.5068242157714,4.897013499814194,44.40281567867803
0.13,31.222215548046687,131.0103929293088,3.256512891171917,3.5606043721293616,0.0002276507019012,48.86766833507025,0.0004268800875964,3.0112558910133567,515.9156326236895,5.278566579338586,1.939796541405244,71.99998107389406,-2.8573058577484587e-09,120.00000047523812,17.061052093156064,15.288,0,0.0,0.0155123760833565,1.4300406003001044e-11,-1.3705268062305584e-05,7.724776992181392e-10,1.989112774124932e-07,3.560604379397528,59.67313531776262,5.27860233862722,48.960358155653
0.14,31.222215458587108,131.01039311327068,3.30759734332425,3.6000732663755977,0.0002555702913645,45.540290862247225,0.0004629468001456,3.0085404980032777,486.2390860568404,5.70011779273801,2.098362647205908,71.99997235012626,-2.508533681468686e-09,120.00000057154703,19.894788765881632,15.288,0,0.0,0.0167512184495524,2.071534240530911e-11,-1.7917736259613292e-05,1.0787346240473087e-09,2.8081526258393346e-07,3.6000732754351943,57.72385750323359,5.700157937625502,45.639559681930805
0.15,31.222215362317904,131.01039331122794,3.3624387479639086,3.651605404442164,0.0002842753491325,44.01308509501,0.0004965057129938,3.005703619811542,472.54218587214,6.091938849578711,2.2476968067377374,71.99996103728932,-1.6446954747148112e-09,120.00000067569304,22.723773683610247,15.288,0,0.0,0.0179026934683374,2.9002783512213203e-11,-2.287326399669318e-05,1.47199345427166e-09,3.831202693354572e-07,3.651605415492516,55.98561718911576,6.091983503446133,44.115597174664394
0.16,31.22221525912812,131.01039352340948,3.421115382839859,3.67540086436193,0.0003108411545024,34.83804992586084,0.0005330990866742,3.002517946501868,391.1218908297564,6.521183188362317,2.4085903880902046,71.99994669525161,-1.0153513453738144e-10,120.00000078796704,26.03872642002185,15.288,0,0.0,0.019164148528834,3.9478358970291335e-11,-2.864207894220033e-05,1.9677461746207517e-09,5.135466997084602e-07,3.6754008774883777,54.15946979122355,6.521232015176687,34.96719658394182
0.17,31.2222151493826,131.01039374906244,3.4833737923187487,3.7139589864597298,0.0003384978477213,43.96471427482637,0.0005668629535037,2.999235483723449,471.78125980632376,6.916861975403744,2.559060925010733,71.99992884100092,2.3206494032971838e-09,120.0000009081849,29.29426197817256,15.288,0,0.0,0.0203269651395979,5.248754693205839e-11,-3.5267097947693114e-05,2.580363454062817e-09,6.706952682968329e-07,3.713959001863866,52.549031795895466,6.916915146521327,44.06689817851128
0.18,31.22221503253009,131.01039398932429,3.549599475912623,3.7380363034619775,0.0003650282082698,36.67395661481795,0.0006021794701355,2.9956556354306425,407.10156721191447,7.332140201215607,2.71556808256092,71.99990696207136,5.837017536380516e-09,120.00000103716444,32.917216366714264,15.288,0,0.0,0.0215473823438242,6.839750892601699e-11,-4.285557247677198e-05,3.331016495775474e-09,8.639362741436378e-07,3.738036321259578,50.93050624815799,7.332197539712479,36.796100973258795
0.19,31.22221490871209,131.01039424390297,3.619694897703461,3.747799769666444,0.0003901520189829,41.42208371271829,0.0006393759928961,2.991742733214697,448.9531328318269,7.771071983754382,2.879366399937307,71.99988049019642,1.0709144790974043e-08,120.00000117502664,36.97605053227239,15.288,0,0.0,0.0228373144884866,8.761416506509219e-11,-5.146771415177372e-05,4.238406957677133e-09,1.0996552116864756e-06,3.747799789945131,49.29705748437159,7.771133268690212,41.529983675580546
0.2,31.22221477769685,131.01039451327668,3.693822889232993,3.7700519460961166,0.0004166800650969,37.99697972290605,0.0006740224661302,2.987733789228414,418.51563019916136,8.179966026035371,3.0338260708461373,71.99984881140107,1.723179577184912e-08,120.0000013223286,40.969302182777255,15.288,0,0.0,0.024038975990988,1.1057590044953188e-10,-6.120032215177249e-05,5.3263847350253015e-09,1.376394225587184e-06,3.7700519690893857,47.8457752505109,8.180031477986942,38.11426270718793
0.21,31.222214639876928,131.01039479663547,3.771710975053407,3.7926098867321474,0.0004432924407074,36.46301043881366,0.0007080907240332,2.983530483977461,404.8187610144644,8.582757448615462,3.1863584283669346,71.99981127559042,2.5745201416596626e-08,120.00000147900325,45.103059028532826,15.288,0,0.0,0.0252227064089584,1.3774582723633048e-10,-7.20875523136271e-05,6.61341033873124e-09,1.7010673350603349e-06,3.792609912601061,46.47936953648762,8.582827080829217,36.584868250565684
0.22,31.22221449507626,131.01039509434258,3.8534832466471007,3.782921298925821,0.0004660920499522,44.14577847155813,0.0007479176313898,2.978724032883548,472.5421858721365,9.056569122268344,3.360845972992861,71.99976720416048,3.661811567390422e-08,120.00000164562512,50.21995530074818,15.288,0,0.0,0.0266151520780326,1.6960703048385348e-10,-8.421592474264931e-05,8.124635526119773e-09,2.0969540034515424e-06,3.7829213275976334,44.9464484092354,9.056642335836344,44.24615863872642
0.23,31.22221434283448,131.01039540734791,3.9394622486964206,3.813874679301352,0.0004940771488601,36.66675459308932,0.000779455230549,2.974212905336642,406.3406421461021,9.430647902846331,3.5044030163419806,71.99971583979395,5.0272885112871524e-08,120.00000182313076,54.45382429059888,15.288,0,0.0,0.0277145095638672,2.0669790509245914e-10,-9.77285871729516e-05,9.894576563683824e-09,2.5339062472561444e-06,3.813874711257219,43.79476959007253,9.430725512303388,36.78718303164376
0.24,31.222214184153326,131.01039573358457,4.028950821673608,3.829256049377765,0.0005200487408944,37.802126339316736,0.0008136255607606,2.9692962675112065,416.2328240017114,9.837806876534357,3.658163422426286,71.9996564062533,6.718950080713476e-08,120.0000020109434,59.25679777340223,15.288,0,0.0,0.0289110855155543,2.4956955046738006e-10,-0.0001125744417092,1.1934277804843484e-08,3.0448209172448607e-06,3.829256084638984,42.59361542722471,9.83788856559955,37.91856374864305
0.25,31.22221401888584,131.01039607335582,4.122052964664892,3.851417709838087,0.0005469594058717,38.85163035360012,0.0008459008130282,2.964283881833675,425.36408079150686,10.22297576958679,3.8050691648373967,71.99958811418384,8.786880969336211e-08,120.00000220974424,63.98709205399403,15.288,0,0.0,0.0300430411774988,2.987811646313829e-10,-0.0001288461362054,1.4273117985167728e-08,3.621333387698252e-06,3.8514177486178034,41.50703126619192,10.223061685769354,38.96455005232871
0.26,31.222213847358866,131.0103964259872,4.218542267117083,3.8780574625554745,0.0005745172425185,42.3164797140743,0.0008766626387865,2.959162938653076,455.8015834241788,10.590779679138215,3.946551912391076,71.99951013710364,1.1286401474734325e-07,120.00000241975916,68.67355887153568,15.288,0,0.0,0.0311239685467471,3.5491769188178554e-10,-0.0001465721578858,1.6932703957058654e-08,4.267712643344226e-06,3.8780575050466,40.51245375834074,10.590869924095635,42.41981967733593
0.27,31.22221366913008,131.0103967923915,4.318728802515264,3.886188503202341,0.0005994342651313,38.70936050721014,0.0009111181036949,2.953518013741325,423.84219965987256,11.004860953238978,4.102320296019413,71.99942161756776,1.4276417094868828e-07,120.0000026420792,74.14786134434608,15.288,0,0.0,0.0323408987462391,4.1858405402174807e-10,-0.0001658847815307,1.995072923688136e-08,5.018832267232506e-06,3.886188549362022,39.43841359495857,11.00495511215316,38.8218734782956
0.28,31.22221348431185,131.01039717233687,4.422535913956003,3.90556090261878,0.0006261175699806,44.68030766832924,0.0009425767186621,2.947879457547137,476.3468732012221,11.38358114165448,4.247086834352694,71.999321619057,1.7823531611327881e-07,120.000002877279,79.33831935330025,15.288,0,0.0,0.033453914386159,4.904408325040897e-10,-0.0001868529238516,2.3357766479368094e-08,5.847713054408178e-06,3.9055609527288775,38.49894431917428,11.383679491972384,44.77744842575601
0.29,31.222213292835256,131.0103975659655,4.530013412817602,3.9242599519377537,0.0006528240665589,35.802573724660256,0.0009737210635801,2.942037024315898,397.97031042211177,11.759725774384751,4.391004157029451,71.99920917567837,2.1999186079018322e-07,120.00000312617878,84.66717879828003,15.288,0,0.0,0.0345593650464213,5.711677680739745e-10,-0.0002095620322847,2.7188189988316943e-08,6.77505090435382e-06,3.9242600061534456,37.60352534239979,11.759828319749328,35.92324968749781
0.3,31.222213095024976,131.0103979726075,4.64093665799555,3.936939025755682,0.0006785438093183,33.570228713727204,0.0010059102294455,2.93586442972183,378.1859457108711,12.149968255527943,4.539237002744259,71.99908328532703,2.6880857935396905e-07,120.00000338923812,90.3787563598417,15.288,0,0.0,0.0357062504417728,6.614698865958865e-10,-0.0002340353597042,3.1467140861055e-08,7.817263716758327e-06,3.9369390841381695,36.71173884615234,12.150074840940263,33.698361337808635
0.31,31.22221289105846,131.01039839189684,4.755183729044857,3.9598342215431432,0.0007060286581592,35.396825578217346,0.0010350810412898,2.9297385597941448,394.1656220930212,12.504537499407316,4.6763673222047455,71.99894291513503,3.255120771695107e-07,120.00000366712923,95.72967338626896,15.288,0,0.0,0.0367483036680869,7.620720834468404e-10,-0.0002603234137215,3.622454560346964e-08,8.948994505138873e-06,3.9598342843844345,35.934338386209795,12.504648402129598,35.5178635353378
0.32,31.222212681031937,131.01039882363492,4.872689374180126,3.985461429033668,0.0007340760463279,38.52097867048992,0.0010630242168685,2.9235095146848846,421.55939346242695,12.84534566718622,4.809181081594425,71.99878701464397,3.909756427278764e-07,120.0000039606604,101.01782231644016,15.288,0,0.0,0.0377499198995686,8.737098716736534e-10,-0.0002884807530145,4.1491545539590986e-08,1.0187112828155184e-05,3.98546149652875,35.21473736963424,12.845460975581933,38.631757748577954
0.33,31.22221246496604,131.01039926777932,4.9934410812554,4.010606629086,0.0007621365968788,38.18822026147908,0.0010905599149574,2.917102431053817,418.5156301991682,13.18247167592885,4.940798912752974,71.99861449732019,4.661299779655886e-07,120.000004270781,106.38859400029033,15.288,0,0.0,0.0387407190563976,9.971421990244511e-10,-0.0003185760672934,4.7302669734505256e-08,1.154498667827874e-05,4.010606701382261,34.52805863348922,13.182591392065536,38.299473293007864
0.34,31.222212242662028,131.01039972474007,5.117579377337869,4.019339771238816,0.0007871574969313,29.898022638335373,0.0011220389395318,2.910051232417875,345.46563688075645,13.569536737955724,5.0878303926024735,71.99842423285973,5.519675040347761e-07,120.0000045987411,112.72655675097128,15.288,0,0.0,0.0398782837956187,1.1331556132162459e-09,-0.0003507224668667,5.37022358302301e-08,1.308298593306914e-05,4.019339848191799,33.76700548046532,13.5696603843662,30.039310197084795
0.35,31.22221201433324,131.01040019407705,5.2449575244483055,4.033762873683395,0.000813261106463,32.76415525156106,0.0011515840876071,2.902959820469776,370.5765700527033,13.934300103976534,5.227895396154902,71.99821502296155,6.495674834876441e-07,120.000004945438,118.8669740701126,15.288,0,0.0,0.040950312688979,1.2825853697215452e-09,-0.0003849609961885,6.072234695821837e-08,1.4746020857580124e-05,4.033762955530055,33.07785186209504,13.934427850732408,32.89250745069162
0.36,31.22221177990305,131.01040067594835,5.375631006350063,4.051723629010647,0.0008401329464575,37.01692984301412,0.0011797030485285,2.8957873473716007,407.8625232777193,14.282998147928636,5.362923567977223,71.9979856440668,7.600645476620651e-07,120.00000531213882,124.88900300695136,15.288,0,0.0,0.0419751331662584,1.4462801652534363e-09,-0.0004213876232777,6.84067806399068e-08,1.654507199147348e-05,4.051723715967022,32.44322602189087,14.283130115703262,37.13002398000203
0.37,31.222211539445663,131.01040117020102,5.509550188388412,4.071639898917391,0.0008674922629137,35.12417761390579,0.0012067983861697,2.88849906286036,391.1218908297666,14.620581431527652,5.494447309446232,71.99773482653193,8.846681943540367e-07,120.00000570002652,130.86067091914967,15.288,0,0.0,0.0429672939311924,1.6251202388969355e-09,-0.0004600660652957,7.679415042686734e-08,1.849041957573993e-05,4.071639991174516,31.85023865502424,14.620717696893658,35.24274792557624
0.38,31.222211292895075,131.01040167697127,5.646763233102716,4.08264881385344,0.0008930259828975,36.695642158537446,0.0012360471443664,2.880711738179021,404.8187610144602,14.986392916850402,5.634654729559426,71.99746126698146,1.0246533537040716e-06,120.0000061105033,137.4891296153862,15.288,0,0.0,0.0440424171304414,1.8200057922063743e-09,-0.0005010869196581,8.592980519823866e-08,2.0642694281337543e-05,4.082648911356968,31.228847973200924,14.986533193043764,36.808540518115166
0.39,31.22221104018777,131.0104021963902,5.787316652586672,4.096641430700089,0.0009192713382325,31.335681548387896,0.0012640110027448,2.872831219844713,357.64062493382744,15.337978856701952,5.770390286512262,71.99716358743511,1.1813915463769678e-06,120.00000654506955,144.01394309468844,15.288,0,0.0,0.0450757388736732,2.031886352449547e-09,-0.00054455673306,9.586443829735616e-08,2.295945663566148e-05,4.096641533664766,30.65298398882095,15.338123255506089,31.4670954954126
0.4,31.222210781536543,131.01040272801887,5.931064331106764,4.109028969993624,0.0009451871856381,29.95928076777898,0.0012920492774571,2.8646905607053603,345.465636880754,15.692185018814769,5.906873567965718,71.99684037970908,1.3563276523471372e-06,120.00000700500496,150.74021066990193,15.288,0,0.0,0.0461167659598875,2.2617341782092324e-09,-0.0005905037520737,1.0663253249436129e-07,2.5471259834659164e-05,4.1090290785164525,30.09246700352443,15.692333488470696,30.095929256306363
0.41,31.222210517064383,131.01040327160345,6.077922766619747,4.122888296344507,0.0009714525997821,33.78425365340317,0.0013192264430821,2.85640971467756,378.94687077668647,16.03742529732769,6.0405139809190125,71.99649020751959,1.5509747261474075e-06,120.0000074917568,157.44375780268788,15.288,0,0.0,0.0471314487675864,2.5105374204052982e-09,-0.0006389770219162,1.1827345344180344e-07,2.816813594418537e-05,4.122888410595805,29.56469007160549,16.037577892745222,33.904791300285986
0.42,31.22221024682894,131.0104038270252,6.227854084363214,4.14444025865494,0.0009995884754813,38.04468161607466,0.0013435485656724,2.8482703202464488,416.2328240017114,16.348862540904037,6.163613566771559,71.99611159893284,1.766920641656551e-06,120.00000800692096,163.6157044470786,15.288,0,0.0,0.0480467946810589,2.779304965995011e-09,-0.0006900467934588,1.308321832549104e-07,3.100973487310896e-05,4.144440378988911,29.104646754454564,16.34901955589459,38.15115260238947
0.43,31.222209970843565,131.0104043942566,6.380851271439565,4.1618082623168045,0.0010268052928652,33.45815353250911,0.0013687230309017,2.8397750580998298,375.9031395134336,16.67263197205097,6.290467308135904,71.99570306121484,2.005818691215035e-06,120.00000855220898,170.15779512382937,15.288,0,0.0,0.0489983878509763,3.0690566816849196e-09,-0.0007437862329608,1.443552931671376e-07,3.4086145072160934e-05,4.161808388761201,28.640125213458976,16.672793262249197,33.57845085853367
0.44,31.22220968892116,131.01040497368373,6.537047157143216,4.164954087655709,0.0010505545842624,30.86574023822051,0.0013980747538988,2.830419582421933,353.0750125389216,17.050421620730056,6.433992917638883,71.99526304125902,2.269416145406482e-06,120.00000912964636,177.9537948947602,15.288,0,0.0,0.050108743779844,3.380847125286677e-09,-0.0008003278134917,1.589055036683518e-07,3.750784460406397e-05,4.164954219916419,28.113519280259386,17.050586641458253,30.99524475496968
0.45,31.22220940081287,131.01040556582012,6.696617751072218,4.165241899529329,0.0010735835484822,35.912216710755274,0.0014280646808282,2.820677244966047,397.2093853562869,17.438293672974723,6.580571293039616,71.99478987454265,2.5595995397253085e-06,120.00000974147088,186.13940823302417,15.288,0,0.0,0.0512487363629523,3.7158016249566814e-09,-0.000859850913876,1.745604864109677e-07,4.121350642664912e-05,4.1652420376426775,27.591357195572936,17.43846231108416,36.02281959036367
0.46,31.222209106468902,131.0104061707686,6.859600379555308,4.174585124444534,0.0010989881252456,41.916816790010685,0.0014546917035209,2.811153314474766,449.7140588976434,17.786187321601275,6.714685486378061,71.99428180697711,2.8783880229668832e-06,120.0000103898448,193.6374175079873,15.288,0,0.0,0.0522712438446989,4.0751091178509895e-09,-0.0009224765531151,1.9138630415982226e-07,4.50966024037632e-05,4.1745852688465686,27.13985967570823,17.786359950252297,42.01097612387663
0.47,31.22220880579083,131.01040678873238,7.026066274755745,4.1823089530633855,0.0011240727220223,28.37640408484148,0.0014814747534716,2.801325368441072,331.0078106302534,18.138167428286582,6.849989708801916,71.99373704967608,3.2278903746588286e-06,120.00001107707628,201.37401505997488,15.288,0,0.0,0.0533057667609836,4.459978104761035e-09,-0.0009883252835099,2.094509673354327e-07,4.927107017839778e-05,4.182309103852639,26.69716826759888,18.13834399721685,28.514342615617974
0.48,31.222208499300592,131.0104074186346,7.195654207463586,4.189479568102716,0.0011490100608361,27.95074823096412,0.0015080719422187,2.7912412472910484,327.2031223011574,18.48995085190441,6.98515976370584,71.99315377257649,3.6103201777021456e-06,120.00001180491516,209.25751230436188,15.288,0,0.0,0.0543397174489847,4.8716620260348906e-09,-0.0010573190976925,2.2877013380347535e-07,5.373205427420879e-05,4.189479725385959,26.268461765425428,18.4901313379827,28.089773168283216
0.49,31.222208187201936,131.01040806005494,7.368224738812109,4.202723284133339,0.001175611380853,35.08821363242469,0.0015321405723077,2.781292092003844,389.60000969812296,18.812014261754847,7.111044804193205,71.99253015042137,4.027946338669921e-06,120.0000125755114,216.60722913930897,15.288,0,0.0,0.0552863302793499,5.311396446020465e-09,-0.0011294854492155,2.4938633613154685e-07,5.8398320167141767e-05,4.202723448262914,25.88860807032205,18.81219892635871,35.1982716047702
0.5,31.22220786953184,131.01040871291724,7.5437546994244835,4.220815778795054,0.0012036252596423,36.05491615971072,0.0015540388599792,2.7714444106710974,397.97031042210494,19.10875420627192,7.229005658018125,71.99186435180009,4.483102820610566e-06,120.00001339126192,223.4908652241728,15.288,0,0.0,0.0561585257949344,5.7804122391526605e-09,-0.0012048912160576,2.713531252030471e-07,6.327866493526626e-05,4.220815950099865,25.54902500917784,19.108943271285572,36.161276053538906
0.51,31.222207546379583,131.0104093770373,7.722184419225251,4.232567510615346,0.0012298790840397,27.54004661432325,0.0015777580800203,2.761017323676155,323.3984349720841,19.430597746636646,7.354673636736509,71.99115452520388,4.978202222778502e-06,120.00001425458936,231.07869697977367,15.288,0,0.0,0.0571045034845869,6.2799518101633574e-09,-0.0012835871653678,2.947201005874635e-07,6.854585242460463e-05,4.232567688976395,25.189423168613605,19.430790935591396,27.678103017910345
0.52,31.22220721780357,131.01041005256985,7.903524916084662,-3.2495603444863894,8.017154510446133,33.178790027612365,-0.4369247561519098,3.175528567077217,372.0984511843415,19.0998051249926,7.48533159734066,71.99040721729537,6.437891359877976e-05,120.00007706385352,223.27386896347187,15.288,0,3.771435951136609,0.0561324532434968,6.823408162084709e-09,-0.0012913123958819,0.0001072099024053,6.778324385455513e-05,8.646698070805588,33.1824313955437,20.35503137775464,33.33327155589819
0.53,31.222206883741297,131.01041074027708,8.0878776616025,-3.1295725082800057,7.9020251004867665,34.841753796297226,-0.4483771943806801,3.175758412629243,386.5562464348624,19.41872751163869,7.616601589228545,71.98968327405464,0.0003709984713295,120.0003998352431,230.78834524176816,15.288,0,3.785943837168354,0.057069853532207,7.424406049402287e-09,-0.0012321552949903,0.0002562989488302,6.575679237681374e-05,8.495530306462227,32.70307309957357,20.656043508281776,34.98905959304449
0.54,31.222206544084354,131.01041144041525,8.275315750809977,-3.0137528493105523,7.790946027378656,30.584321503662487,-0.45996226588621,3.175882896046863,349.2703242098436,19.73586027950568,7.747267054998653,71.98899328670385,0.0009434508282193,120.00100214395684,238.38374888019464,15.288,0,3.800417350282002,0.058002000203053,8.080563200656051e-09,-0.0011728047333206,0.0004093459796965,6.361043423758961e-05,8.35017887862632,32.23940077485169,20.955891379848627,30.75221161631849
0.55,31.22220619913484,131.01041215237876,8.465633237479889,-2.9026856956961526,7.6858802607178465,32.42143847649311,-0.4715397864567569,3.17585522793444,365.2500005919907,20.045464110956217,7.87553378355757,71.98833733171297,0.0017885652563975,120.00189117289554,245.9171498431928,15.288,0,3.814838689242365,0.0589120257847957,8.793764310770946e-09,-0.0011133880174404,0.0005661867998167,6.133400308401416e-05,8.212656815325113,31.798892764483902,21.24914181823919,32.580025768621454
0.56,31.22220584889967,131.0104128761704,8.658829815774956,-2.796641607723397,7.588084695498176,30.25129153124807,-0.482997779629044,3.1756431743514666,346.2265619465787,20.343117984131755,8.000023649626888,71.9877154343218,0.0029130606758396,120.00307398915356,253.2698913777764,15.288,0,3.829206969117101,0.0597869371632749,9.56586786173303e-09,-0.0010539448279058,0.0007268803736624,5.89204411698548e-05,8.084209668394251,31.3864071997298,21.53157026051429,30.421351642136038
0.57,31.22220549346175,131.01041361163584,8.854852215928132,-2.6925767540052097,7.489847838822277,29.910160886806647,-0.4948150711823465,3.175395715186422,343.1828296833023,20.648562392678485,8.126903037805246,71.9871275825797,0.004323657985493,120.0045576617295,260.92758485311543,15.288,0,3.8435153124896497,0.0606847501543078,1.0398755390525146e-08,-0.0009945430087191,0.0008914124791045,5.6433347155140606e-05,7.956534441034531,30.97333290572227,21.821717049337938,30.082315472339417
0.58,31.222205132803765,131.0104143588273,9.053716993010095,-2.5888006024891586,7.386438568601168,39.42134226645239,-0.5073420486208037,3.175209102813473,426.1250058573153,20.97549651886058,8.26044624173139,71.98657373524571,0.0060271457853215,120.00634933081749,269.25052617031054,15.288,0,3.857763229088684,0.0616457260821639,1.1294330582615282e-08,-0.0009352218700833,0.0010598472475824,5.390648715633385e-05,7.824588749954479,30.541916314169843,22.13254437324116,39.55226384026171
0.59,31.22220476650524,131.0104151186296,9.25572183928294,-2.4915416844586966,7.295467481602314,31.931010118744336,-0.519360442444523,3.1747229995574013,360.68438819711065,21.274380535842884,8.385191641129333,71.98605386512202,0.0080307634175704,120.00845661091148,276.97303064380907,15.288,0,3.8719722503251375,0.0625242707636073,1.225456916304762e-08,-0.000875902264695,0.0012325943951173,5.1205696280880393e-05,7.707012162879917,30.1580864545158,22.417255814236423,32.09264726688105
0.6,31.22220439479645,131.01041589058477,9.460710966889932,-2.3925310502601933,7.193483564292968,28.36231596926049,-0.5325483204929224,3.1744159380664767,329.4859594986058,21.612399728444046,8.522104889434667,71.98556791581585,0.0103418541104556,120.01088722493148,285.83872816682486,15.288,0,3.886128434646393,0.063517838045847,1.3281548238622657e-08,-0.0008166986912591,0.0014095221406257,4.850226341248705e-05,7.578937853420856,29.733915384955303,22.73938329528869,28.5443775795108
0.61,31.222204017632016,131.0104166748035,9.668720751031287,-2.295890419045364,7.092224164637738,33.25672791847563,-0.5460997400455323,3.174045785203544,372.0984511843297,21.956607375522992,8.660900623591258,71.98511581039423,0.0129679443830305,120.01364908871284,295.01010044858253,15.288,0,3.900233767296307,0.0645295997447969,1.4377372999945156e-08,-0.0007576435224425,0.0015907341858015,4.571077987027117e-05,7.452771592793287,29.313372866674232,23.06780859654985,33.412314248135566
0.62,31.22220363513868,131.010417471042,9.879667765796295,-2.2086351889896942,7.013871999831415,41.383293508783694,-0.5582193723538703,3.1731365761625034,442.86563930529206,22.236962889259527,8.779736766485327,71.98469744876914,0.0159167398487785,120.01675030610504,302.585810980743,15.288,0,3.914287813852407,0.0653537090259706,1.554421827275413e-08,-0.0006988040286729,0.0017762309947309,4.269829708208296e-05,7.351739679820856,28.9803483909836,23.335949714375857,41.50852185073314
0.63,31.222203247128324,131.01041827970383,10.093687579340711,-2.1217214497287,6.931281387693898,23.404625290469177,-0.5709989850962224,3.172253772251794,286.11251274707894,22.535912667168912,8.904330559093086,71.98431266059167,0.0191956698167691,120.02019869061228,310.76993222069945,15.288,0,3.928280888012429,0.0662324725921811,1.6784184235807837e-08,-0.0006401944285021,0.0019661917954067,3.9642204644621816e-05,7.247232566876975,28.632565207193046,23.622022136158936,23.625531080249097
0.64,31.222202854221383,131.0104190995257,10.310352733684708,-2.0341837640053355,6.840908949826763,22.972797725625018,-0.5847966117885176,3.171472584799468,282.30782441796754,22.866578160143515,9.03876421773874,71.98396124136075,0.0228122441077724,120.02400213938844,319.9499270813808,15.288,0,3.942217056635043,0.0672044543106285,1.8099510179741244e-08,-0.0005820276601363,0.0021601461054782,3.656844782362484e-05,7.135562757188103,28.25635578245237,23.938594362163407,23.198052952258212
0.65,31.22220245640285,131.0104199305539,10.529678237805308,-1.9532867553620723,6.767164840699291,40.71535430586494,-0.5974926414540415,3.170262593136477,436.7781447787475,23.1477519220786,9.157723832883068,71.98364292879677,0.0267738001897356,120.028168368883,327.8597832778766,15.288,0,3.9560629844990833,0.0680309871765197,1.949232057038317e-08,-0.0005243353295678,0.0023581972776461,3.334805555376315e-05,7.042165164271864,27.944519875284836,24.208266009409485,40.842963146889176
0.66,31.22220205314589,131.0104207738892,10.752035366307796,-1.8734203478344915,6.691643331743059,34.60684607296923,-0.6106695870036821,3.169020841304856,383.51251517160017,23.439860204643896,9.280049324272118,71.98335742855103,0.0310877605896473,120.03270518538474,336.1795334639916,15.288,0,3.969861247818632,0.068889663004039,2.0964699248076733e-08,-0.000467043464277,0.0025608384793773,3.0078461517593408e-05,6.947792523037328,27.6271269847323,24.488593129625208,34.7570051292585
0.67,31.222201644650102,131.01042162913575,10.97728980932532,-1.7932990970848648,6.609531026341942,23.77333851918329,-0.6248176603072052,3.1678485567299783,289.1562440103425,23.760757491420712,9.41129890897152,71.98310445203923,0.0357620738736103,120.03762094740264,345.4398252899231,15.288,0,3.983613825019938,0.069832956412472,2.2518977472159796e-08,-0.0004102562655107,0.002767955898879,2.6782395111543176e-05,6.847447930504442,27.28572412868727,24.796679039822077,23.991608656667687
0.68,31.222201231097262,131.0104224959343,11.205319718931577,-1.7158515578636175,6.5314945716766015,29.72540220405799,-0.6389430342542773,3.166506019671937,340.8999924858462,24.073015313510265,9.539807202685743,71.98288366538151,0.0408046764262414,120.0429240004906,354.57108484580607,15.288,0,3.997273034520719,0.0707508653469652,2.41574945420205e-08,-0.0003540647165221,0.0029794714576206,2.3417338900374387e-05,6.752170237670731,26.961126622870854,25.096759437972267,29.900410444785805
0.69,31.22220081257541,131.01042337411815,11.436068396317808,-1.642374562208986,6.462909665063164,36.643055520958896,-0.6524683459248531,3.164877871092397,401.0140726853634,24.35575932438825,9.659075924665608,71.98269464167187,0.0462234073874068,120.04862259041349,362.9410208226311,15.288,0,4.010874504793764,0.071582039550871,2.5882575506822205e-08,-0.0002985437318069,0.0031953628837776,1.9976730310095072e-05,6.667469159159671,26.67378645325033,25.368799350284903,36.78526450623184
0.7,31.22220038894517,131.01042426398817,11.669637228120274,-1.5704907497905132,6.3952028178275215,30.70033325612277,-0.666222843976662,3.1631474116063467,349.27032420985284,24.639630037983864,9.778649807698152,71.98253702384771,0.0520260048915704,120.05472484917416,371.44227713365575,15.288,0,4.0244243726144,0.072416531796138,2.7696479238704263e-08,-0.0002437181471891,0.0034158095348582,1.649783991391451e-05,6.584436846386227,26.39097572695501,25.642101580831543,30.870047237773804
0.71,31.222199960266728,131.01042516543438,11.905988832812683,-1.4989947409255695,6.323668910491969,25.19195086124576,-0.6807147142918178,3.1614066200625,301.33126406340574,24.9427660710921,9.904172575344113,71.98241030791944,0.0582204365313918,120.06123915729144,380.6294068098568,15.288,0,4.037885071381521,0.0733076521799099,2.960158590453105e-08,-0.0001896611803105,0.0036408076771727,1.2996255484661424e-05,6.49820299541927,26.094793368244257,25.934070237717265,25.398666353473157
0.72,31.222199526545875,131.01042607845872,12.145123693194147,-1.4278164619480311,6.247490364488352,30.888797827274608,-0.6961002124668481,3.1596742000385687,350.79220534145287,25.26984431801124,10.037097041597178,71.9823139989452,0.064814842109562,120.06817407371256,390.6683878778065,15.288,0,4.051284598894991,0.0742691468307365,3.1600312163613e-08,-0.0001364285538272,0.0038704261024311,9.47093915203218e-06,6.407941117550645,25.7818723126406,26.24925432118132,31.05778369057313
0.73,31.22219908778308,131.01042700307457,12.38704612943962,-1.3614932820210424,6.186594699087034,39.12866113739676,-0.7101082192498092,3.1575217628597807,422.320318528234,25.54032064665701,10.152355114895228,71.98224757882828,0.071817669401485,120.0755384810611,399.0669289964957,15.288,0,4.064632196303787,0.0750642931377601,3.3695153983131545e-08,-8.407104866726162e-05,0.0041047575230785,5.898586127379008e-06,6.334067267506591,25.5288127105286,26.51022143799694,39.262276039109125
0.74,31.22219864391477,131.01042793942554,12.63180469147648,-1.29560021209936,6.1222171921782005,24.41732699503191,-0.7248375344187228,3.155344176640201,294.48281347105944,25.82897731634695,10.273221648796818,71.98221046202227,0.0792370829940302,120.08334096405092,408.1288187992493,15.288,0,4.077913046499553,0.0759128793018132,3.5888555007023635e-08,-3.2646173312497165e-05,0.0043438856514844,2.316351164207003e-06,6.257294124444153,25.26356221357315,26.78882399494232,24.63102604250731
0.75,31.222198195325088,131.01042888673425,12.879136766696272,-1.230525990052356,6.056016920470556,28.54095268615531,-0.740128010497374,3.1530982761971806,330.24688556441487,26.129658054449727,10.39777531690036,71.98220198173516,0.0870813388748287,120.09159020540046,417.6764395600677,15.288,0,4.091103442809289,0.0767968119226711,3.8183117971468406e-08,1.7705096754558332e-05,0.004587496649031,-1.2708275551384345e-06,6.179311607539214,24.992503449993887,27.07916468765624,28.724132683940805
0.76,31.22219774189968,131.01042984524827,13.129126172718744,-1.1678401428581116,5.995639348462457,30.738022977642213,-0.7550335984024432,3.1506249084713853,349.27032420986166,26.40959388993151,10.515822679575823,71.98222154198366,0.0953586208646277,120.100294804615,426.66355266348575,15.288,0,4.104232666951305,0.0776197809784741,4.058128102660472e-08,6.695028406110019e-05,0.0048357807058329,-4.85689050922286e-06,6.107909612352975,24.74503801418845,27.349668839409496,30.908292894022107
0.77,31.222197283580307,131.01043081509923,13.381817633967872,-1.10668354063662,5.937349761424311,28.726835306117728,-0.7699920907663272,3.14800108593814,331.7687666960708,26.6840165207748,10.632103104620525,71.98226838610131,0.1040772448587878,120.1094635075114,435.5659905932672,15.288,0,4.117302164564055,0.0784265532995763,4.3085559497908295e-08,0.0001150376219489,0.0050888555126179,-8.43188595061085e-06,6.039245271352509,24.506780031328915,27.61498496371532,28.909061993806066
0.78,31.22219682043811,131.0104317961526,13.637165975762027,-1.0460298155206964,5.875865270701092,23.55656807506726,-0.7857027487308647,3.145328713384859,286.8734378128899,26.97651981223903,10.753952314969284,71.98234171301375,0.1132455776471568,120.11910511308768,445.1565355580521,15.288,0,4.130298880449818,0.0792864733213199,4.5698544532494096e-08,0.0001618851210811,0.005346690486435,-1.19954303559755e-05,5.967925300712216,24.25730576297983,27.89788156896164,23.778610577573378
0.79,31.222196352569167,131.0104327882225,13.89510875311732,-0.9862443723366706,5.813008710422961,33.56371689448332,-0.8019570363901661,3.1425627542368213,373.6203323159534,27.27953452921114,10.879012637563424,71.98244080020304,0.1228720840439331,120.1292285155811,455.2018981307884,15.288,0,4.143208714296125,0.08017729478087,4.842286052876853e-08,0.0002074116862314,0.0056092520477104,-1.5541123002617276e-05,5.895795832631114,24.00366826029852,28.19107412307556,33.72005230609166
0.8,31.222195879741108,131.01043379179762,14.15581155195882,-0.9290210783018016,5.758829566696765,34.00895890025626,-0.8173328909768564,3.139506049861703,377.42502064505743,27.54577991167085,10.99258584598716,71.9825647705114,0.1329655116848989,120.13984291443722,464.1190838199215,15.288,0,4.156063326964813,0.0809600548615522,5.12610854172188e-08,0.0002515982482516,0.0058768752922519,-1.903548878470712e-05,5.833034351651482,23.784804905420405,28.44885242217174,34.1633402461046
0.81,31.222195402065164,131.0104348066602,14.419201301650892,-0.8721547464009085,5.700547765023849,22.074806887067616,-0.8336301848546152,3.136407053767869,273.9374926939919,27.83500609367397,11.113247109035882,71.9827126928846,0.1435345716259459,120.15095747016176,473.9046129473453,15.288,0,4.1688561195053175,0.0818103653056107,5.421596692058923e-08,0.0002943490007078,0.0061494694875555,-2.250319833737906e-05,5.766661698224766,23.55108158866065,28.72896945862236,22.312083891769355
0.82,31.222194919744048,131.01043583240502,14.68514151899932,-0.8161630516981883,5.641121049029471,28.40134306614936,-0.850463143166714,3.1332012621194054,328.72500443277005,28.13382909203297,11.236831998761708,71.98288370981729,0.1545879774286192,120.1625813377818,484.12208246104,15.288,0,4.181581330305972,0.0826888894423432,5.729028531243962e-08,0.0003355621004412,0.0064268818647937,-2.592871647821885e-05,5.699667974476365,23.313944325766165,29.01850341484612,28.586299614814468
0.83,31.22219443276221,131.01043686907437,14.95364717237641,-0.7625766069041374,5.591590379407393,36.1368107595741,-0.8660990105857534,3.129678197232831,395.68750322465047,28.38669978105637,11.346076508906076,71.98307675211966,0.1661345609176052,120.17472380721895,492.8511946779527,15.288,0,4.194235292544334,0.0834323612002922,6.048677004595552e-08,0.0003751765110543,0.0067092191661052,-2.9249511424323982e-05,5.643186926710492,23.11649763674692,29.263631193829436,36.28242143225342
0.84,31.222193941008424,131.01043791690532,15.224799227459831,-0.7097037987800889,5.54090103704778,22.259373895901696,-0.8822042488667197,3.126042521439905,275.4593748256452,28.647786980107657,11.457815993670785,71.98329085555199,0.1781829455505095,120.18739393875552,501.94583215846006,15.288,0,4.206809885304289,0.0841999894883946,6.380807955137557e-08,0.0004131316260496,0.0069966297650186,-3.250396060659119e-05,5.586026549505717,22.91569839750408,29.51679367419593,22.495113967706825
0.85,31.22219344479957,131.01043897525756,15.498381956900952,-0.6569184814772135,5.48362040355019,24.284024325086097,-0.8997230510579736,3.122384611201252,292.96093233939376,28.94614957419116,11.581075581413412,71.98352483852982,0.1907417804401832,120.20060082956395,512.4422015572316,15.288,0,4.219312249963942,0.0850771829199695,6.72571198128113e-08,0.0004493061889531,0.00728880107284,-3.57172944474065e-05,5.522709134253388,22.69016346256133,29.806200255791104,24.50046172320523
0.86,31.22219294395157,131.0104400445174,15.774526892623788,-0.6058164401381764,5.432483633796739,30.442153906919724,-0.9165619815861812,3.118477049580976,346.2265619465587,29.215611931764208,11.695294533688676,71.98377760674494,0.2038200189380088,120.214353889086,522.0135081065353,15.288,0,4.231751056973565,0.0858694417505849,7.083658650591222e-08,0.0004836602716677,0.0075860396532764,-3.880513837734304e-05,5.4660581341541565,22.48970309809562,30.06766648735057,30.615187725497297
0.87,31.222192438491994,131.01044112463669,16.053218747977894,-0.5559259977582164,5.384514935687996,28.33628509313681,-0.9331644960062738,3.1143733602992048,327.964078366998,29.470631074596813,11.80496543833574,71.9840480043458,0.2174265645363278,120.22866247433736,531.1522367544889,15.288,0,4.244125703977094,0.0866192569153404,7.454931195642188e-08,0.0005161137206889,0.0078883677694375,-4.176928589936532e-05,5.413053152797736,22.302718325646595,30.315184270370825,28.522187333433514
0.88,31.222191928460656,131.0104422155418,16.334433664800287,-0.5065738781026013,5.333613714753911,24.46981471596088,-0.9506036903247528,3.1101689477990395,294.4828134710418,29.74421217739945,11.920338769231533,71.9843347009064,0.2315703213688844,120.2435359505034,541.0449587764674,15.288,0,4.256433244058761,0.087423636251827,7.839818203614919e-08,0.0005465806797633,0.0081957606687894,-4.464442436356239e-05,5.357547076234173,22.105255839920016,30.580804777296567,24.684987958136986
0.89,31.222191413946465,131.01044331705856,16.618113827999895,-0.4578379133748096,5.27993368085931,26.84905964217057,-0.968902625770408,3.105850665142375,315.028134248087,30.03646379988225,12.041444922898355,71.98463643626576,0.2462602606811582,120.2589837454112,551.7142297766529,15.288,0,4.268672684698246,0.0882828993682882,8.23861088130638e-08,0.0005749758521792,0.0085081892233382,-4.7423877053021805e-05,5.299690701957744,21.897846998155494,30.86466050173557,27.045463285387118
0.9,31.22219089487052,131.01044442935603,16.904317601057908,-0.4107341834915301,5.235528841780624,29.66957723747115,-0.9857883559889696,3.1012389372334006,339.37814235421445,30.278725537475204,12.1469630587281,71.9849518661741,0.26150563861117,120.2750155888582,560.6345097281501,15.288,0,4.280846811915497,0.0889952402381238,8.651597512397765e-08,0.0006012321726197,0.0088258279792676,-4.998808674378565e-05,5.251570718882435,21.72799196600917,31.099976490906545,29.847500315418078
0.91,31.22219037130968,131.0104455522834,17.19299526516316,-0.3641480418700309,5.188216585292635,22.54221929666348,-1.0035250715402029,3.0965081249167623,277.7421810230789,30.539647547229265,12.258209366403968,71.9852795697872,0.2773153772063868,120.29164085979812,570.3226834583368,15.288,0,4.292941801882948,0.0897624346704508,9.079073662332933e-08,0.0006252577369902,0.0091486143682474,-5.243216198402696e-05,5.20094534693526,21.54774340876822,31.353497435026547,22.776019756659693
0.92,31.222189843481164,131.0104466854039,17.484000250367806,-0.3181656351053807,5.138184367759972,26.86025415411543,-1.022131546706908,3.09164556097208,315.02813424806214,30.819163629789347,12.375160100195634,71.98561808239307,0.2936984776982174,120.30886901957264,580.7940564913607,15.288,0,4.304965298063891,0.0905842885413201,9.52134865384804e-08,0.0006469523255652,0.0094763207834284,-5.4746411807764125e-05,5.147999267076777,21.357714673913883,31.62518636430157,27.05690814555734
0.93,31.222189311289416,131.01044782891847,17.777402032689487,-0.2734469036564985,5.096399064798608,31.973355185421948,-1.0393672440468356,3.0865145881274,359.1625070654728,31.05147881279449,12.477391324247058,71.98596587977464,0.3106640065490898,120.32670959864753,589.5665082414919,15.288,0,4.316923539172775,0.0912674160157685,9.978706672226221e-08,0.0006662472787133,0.009809163109737,-5.680257598118188e-05,5.10371034960444,21.20131262483634,31.850964088740383,32.13879740102092
0.94,31.22218877461783,131.0104489830694,18.07328425442297,-0.2291119918390029,5.048233403079848,23.16629732644444,-1.0582406446346575,3.0812864131339723,283.0687504837787,31.324493945132726,12.592187184365647,71.98632137245443,0.3282208779802907,120.34517196773828,599.9623727506015,15.288,0,4.328816407738281,0.0920701774703226,1.0451435916770289e-07,0.0006830618493076,0.0101472780907746,-5.8746506699666135e-05,5.053416358508535,21.020609527232534,32.11644300544999,23.394262780411516
0.95,31.222188233777263,131.0104501472291,18.37143581719195,-0.1856031743257126,5.001598966668408,30.04403819437186,-1.077120567386321,3.0758614641087245,342.4218736174873,31.59053290891221,12.70474701271585,71.98668292635276,0.3463783458288928,120.36426585365764,610.17913807447,15.288,0,4.340639131083222,0.0928524419677616,1.0939863032824525e-07,0.0006972956623421,0.0104903646777402,-6.047828027573332e-05,5.005032788537847,20.846916426682668,32.375184802673566,30.220280334370674
0.96,31.22218768845466,131.01045132203916,18.67207578093805,-0.1429661468675994,4.959233055308482,29.4311364053862,-1.0953727800345987,3.070217847471734,337.09533515678345,31.831573238005767,12.809479752249048,71.98704883680986,0.3651456028283616,120.38400092031048,619.508283875003,15.288,0,4.352401044704301,0.0935612368976826,1.1444262729214829e-07,0.0007088797252559,0.0108388807315663,-6.195033174955239e-05,4.961288214600609,20.691167907918512,32.609595435867966,29.61111057138222
0.97,31.22218713867193,131.01045250745864,18.97519205598904,-0.1009710686677188,4.915534053601073,18.764035838523288,-1.1142273274534302,3.0644047989269616,245.02188719299323,32.08273614634696,12.917283142250056,71.98741730276555,0.3845320484421807,120.40438705107138,629.3048321675276,15.288,0,4.36410101841681,0.0942997922551616,1.1964948677180528e-07,0.0007177211276146,0.0111928405843186,-6.321606582158726e-05,4.9165684337104425,20.53108120333453,32.85391959195089,19.045238781866637
0.98,31.22218658473817,131.01045370286363,19.28057485852969,-0.0595808185271147,4.866018347816006,27.410363945057,-1.1347833016317894,3.058438327534269,319.5937466429581,32.37423072644682,13.037525552961908,71.98778658964704,0.4045470016420043,120.4254340362398,640.7733550825874,15.288,0,4.37573113151805,0.0951569011380261,1.2502263215221482e-07,0.0007237204429748,0.0115518646719932,-6.432175626549921e-05,4.866382218476109,20.348671258654043,33.13766458251569,27.603801001772812
0.99,31.22218602649544,131.01045490857877,19.588336070093007,-0.0190128902152845,4.827704486266796,29.97262493659643,-1.152976521467699,3.052210558988112,341.6609485517054,32.59332489531531,13.135235504464536,71.98815472645839,0.425200035349204,120.44715194486282,649.4564339814086,15.288,0,4.38730028265697,0.0958012127480711,1.3056502166969064e-07,0.000726794744965,0.0119162832843196,-6.503021699032002e-05,4.827741836596874,20.211982406568552,33.35076194521192,30.149686395472447
1.0,31.222185463942328,131.01045612460845,19.898479240883656,0.0209490994796409,4.783747587397272,26.79921157938395,-1.172844765465895,3.045817676831489,314.2672081822764,32.85169516905502,13.245055339869303,71.98851980710268,0.4465002192157864,120.46955030856988,659.7741927754904,15.288,0,4.398804988691749,0.0965609756672935,1.3627979241172264e-07,0.000726848158711,0.0122860711708735,-6.554858199295958e-05,4.783793350935846,20.05364142367849,33.60225175924052,26.997227847335857
1.01,31.222184897272008,131.0104573505641,20.210874472323408,0.0602624633365928,4.741307173192082,28.03832571748564,-1.1926453535254071,3.039216095759606,324.9203161036979,33.101431192793406,13.35212220117657,71.98887985809749,0.4684570143007305,120.4926390707432,669.8233265058582,15.288,0,4.410243644899448,0.0972953676412344,1.4217030804862857e-07,0.0007237889629934,0.0126610505690619,-6.576692239326608e-05,4.7416892540376745,19.90228845671017,33.8453442754787,28.227769066219647
1.02,31.22218432640285,131.01045858661269,20.52558049622521,0.0989783345965163,4.700897681952187,23.361220512653205,-1.2122173972580574,3.032406750296115,284.59063161540416,33.33838510825451,13.45515013070494,71.9892327179223,0.4910796965356568,120.51642798850612,679.4268652705799,15.288,0,4.421619094385283,0.0979921966379872,1.4823964186186857e-07,0.0007175227735571,0.0130413741901808,-6.56622730708188e-05,4.701937232100589,19.760023417278937,34.07597221923183,23.58837818838475
1.03,31.22218375140753,131.01045983260775,20.842549855798456,0.1369890055712381,4.656881671828534,19.03488703403016,-1.2330586894380575,3.025388059124212,247.30469339049705,33.60242811363627,13.566501550399735,71.98957628816082,0.5143774255875464,120.54092668870965,690.2107146317367,15.288,0,4.4329292967983855,0.0987686569059316,1.544910481796969e-07,0.0007079554905495,0.0134269647644244,-6.529787636947122e-05,4.658891665568457,19.604116006235994,34.333124246986074,19.313216486079668
1.04,31.22218317235165,131.01046108841848,21.161740231036525,0.1745075829391377,4.617183595122352,30.433917840589256,-1.2530401133061015,3.0181568497890217,345.46563688072297,33.836913362125735,13.668611285864223,71.9899083467995,0.5383596925951054,120.56614515049722,699.8557575751213,15.288,0,4.444175901827606,0.0994582448818014,1.609278218124914e-07,0.0006949940977035,0.0138178134248328,-6.454773146568345e-05,4.620473060098719,19.46652491019028,34.56139414696581,30.60886694118584
1.05,31.22218258893185,131.01046235465645,21.483361742069885,0.2113114243588204,4.574693353647083,18.241246874214,-1.274107279917199,3.0107004720957766,240.45625879819983,34.09312192992546,13.777378655170356,71.99022661349315,0.5630358189636736,120.592093174827,710.4723624122414,15.288,0,4.4553651552271765,0.1002116930603732,1.675528262277414e-07,0.0006785231824507,0.0142143725608533,-6.349319389404104e-05,4.579560772743615,19.318532971080547,34.81094982436469,18.53188479943251
1.06,31.222182001399727,131.01046363081443,21.80724443294743,0.247370099441452,4.529953983023051,26.109939013263872,-1.2961710473029149,3.003000839260075,308.17968365593924,34.368040229662334,13.89186626376916,71.99052869936038,0.5884155606206789,120.61878102143248,721.9542389802615,15.288,0,4.466492313586542,0.1010201439781926,1.7436977649601574e-07,0.0006584552373603,0.0146163237844456,-6.211024264289854e-05,4.53668904593754,19.162245886505268,35.07886265071149,26.314007461821962
1.07,31.222181409631848,131.01046491714135,22.13347522864021,0.2831892899797171,4.491896254045131,30.79936497978507,-1.3165922000819794,2.9951092126575087,348.5093681440308,34.59384550883109,13.991051695112,71.99081225320379,0.6145088468240046,120.6462191259138,731.449267499618,15.288,0,4.477563823608072,0.1016842419807204,1.8138185833772613e-07,0.0006346762683813,0.0150239496586852,-6.025869112671502e-05,4.500795902951825,19.033979598028623,35.29870835391409,30.97264885951916
1.08,31.2221808135202,131.0104662138525,22.46212988676914,0.3183967555725052,4.452910017965047,20.631440691683128,-1.337581499925626,2.9869835800282094,261.00157857466235,34.82749949929465,14.092591163118447,71.99107467687638,0.6413253558661768,120.67441767193968,741.3399523476174,15.288,0,4.488580414294048,0.102371418055235,1.8859236467269665e-07,0.000607069204891,0.0154374064598435,-5.8025030940089386e-05,4.464255809435047,18.902843364434855,35.52625704820938,20.889412155222075
1.09,31.222180213356264,131.01046752036018,22.793011174726693,0.3525604845240726,4.40775752000724,18.95137894923053,-1.3608200423694448,2.9785510475036863,246.54375332474407,35.110959619482024,14.209484243331593,71.99131348330562,0.668874791963551,120.70338685871448,753.432608539228,15.288,0,4.499535584351118,0.1032050017384594,1.960051989284184e-07,0.0005755564790192,0.015856276658604,-5.5458960759092e-05,4.421807316489525,18.747342511832368,35.802645823320155,19.232221962312046
1.1,31.22217960922016,131.01046883650247,23.12606655689326,0.3864116680956813,4.366423403368882,38.333704387323806,-1.3832128873625271,2.969904103465252,413.1890617385841,35.36609372820436,14.31751718157332,71.99152592028605,0.6971669491391458,120.73313699272208,764.3975871397713,15.288,0,4.510431505055306,0.1039553325329494,2.0362388161434682e-07,0.0005400393086117,0.0162805386842044,-5.241307662415787e-05,4.383455046358315,18.608246515912533,36.05130620799241,38.47345188997569
1.11,31.22217900068372,131.0104701631352,23.46158993153921,0.4203581056826729,4.3321635847842925,27.982019512751616,-1.4035792951610375,2.9611141999974366,324.1593910376397,35.56461810358806,14.40792958273054,71.99170932358267,0.7262117347460906,120.76367849005491,772.9785152548266,15.288,0,4.521278627365036,0.1045392722261831,2.114511923482724e-07,0.0005003486672333,0.0167109058946247,-4.883195228047306e-05,4.35247118342675,18.499086314852587,36.24446456112678,28.17324347950096
1.12,31.22217838781146,131.0104715001236,23.79953843637444,0.45256400464282,4.285843039778841,10.364154021659708,-1.428320396259967,2.951871707002825,172.73281794065943,35.86324859644959,14.52927395878878,71.99186087524426,0.7560187947067895,120.79502149758969,785.9886584882707,15.288,0,4.532072227099325,0.1054174740476102,2.1949085182356858e-07,0.0004563773401186,0.0171472448335903,-4.4913075216169205e-05,4.309626734813746,18.341144732262883,36.53583960681468,10.870571940503456
1.13,31.22217777123105,131.01047284621148,24.139486937679504,0.4849284567366599,4.246645690906507,33.036484633849746,-1.4509815703276008,2.942481791882688,367.5328077900705,36.10443583948541,14.632738406839495,71.99197764092699,0.7865986352804631,120.82717706735866,796.5700457052376,15.288,0,4.542805145519828,0.1061268339641465,2.2774758003137386e-07,0.000408108373936,0.0175886989651918,-4.043160492101812e-05,4.274192843756084,18.213317331035597,36.770886805321,33.198988893874194
1.14,31.222177150236234,131.0104742028043,24.48191714859191,0.5173632776667347,4.212452935415194,18.15722456810404,-1.472152846994247,2.932941785426687,239.69531773195544,36.303393987994966,14.723039819702576,71.99205660958532,0.8179607178021961,120.86015515722644,805.3469488753482,15.288,0,4.553491668723467,0.1067120719346838,2.362235606551016e-07,0.0003553034881735,0.0180364081383297,-3.5392995976423706e-05,4.244047836983948,18.10709649777463,36.96448859592267,18.45140063892647
1.15,31.22217652534209,131.01047556886795,24.826479847230253,0.5477819648628529,4.166288301787687,17.89123176844365,-1.4979839128606327,2.92284326109347,237.41251153546767,36.60667013246244,14.84556718094376,71.99209483179419,0.8501144358140273,120.8939656445678,818.8316808787798,15.288,0,4.56411517839594,0.107603955911403,2.4492341354148285e-07,0.0002979468941181,0.0184894984112607,-2.9926459568889103e-05,4.202082131104914,17.952015437102407,37.26053259262294,18.190193586772956
1.16,31.222175896694207,131.0104769441103,25.17307820799481,0.5794865133834985,4.133793843527784,47.319824916335605,-1.5190548548018612,2.9128155001130285,490.0437743845894,36.79118586056202,14.931228088197086,71.99208909668657,0.8830700236165127,120.92861930122722,827.0795815592786,15.288,0,4.574672542835041,0.1081467560916632,2.5385092268720023e-07,0.0002359435956722,0.0189479059338478,-2.3817368355118464e-05,4.1741434199443965,17.854613098952818,37.43995748669613,47.43372062048529
1.17,31.222175263362203,131.010478330373,25.52234361701086,0.6098571887582578,4.095191096624114,8.139333285632084,-1.542706646060222,2.9023476184366164,153.70937929486794,37.0297814076272,15.033553002284537,71.99203614466593,0.9168367387633044,120.96412587496675,837.8136909076107,15.288,0,4.585188168612668,0.1088485306716261,2.630078646828945e-07,0.0001689658986928,0.0194131058831541,-1.7166329092004344e-05,4.140275636501944,17.732671129267796,37.67250495676328,8.777944624377707
1.18,31.2221746265682,131.0104797252217,25.873448866465232,0.6384480794740791,4.048496688747687,22.857964826331468,-1.569904858668594,2.891308946243827,280.02501822196746,37.34358698064408,15.15907988451255,71.99193276327274,0.951424385503846,121.00049567707724,852.0450764067997,15.288,0,4.595639031940635,0.1097713927678923,2.724005744290213e-07,9.718858609081177e-05,0.0198830546605421,-9.957352249461504e-06,4.098446385977332,17.57753360777234,37.9789943039151,23.09352343601356
1.19,31.22217398575918,131.0104811297497,26.22676999170052,0.6695054485336677,4.020511583294593,40.15740335052568,-1.589904135306884,2.8806265178681576,428.4078130529292,37.48591466586552,15.231425794395909,71.9917754514996,0.9868430720952291,121.03773935337544,858.5231167519987,15.288,0,4.6060437616943775,0.1101902040590806,2.820312901585424e-07,2.033004242519948e-05,0.0203588959166736,-2.090760242740716e-06,4.075783971535724,17.50173964314313,38.11693699272051,40.29197002073394
1.2,31.22217334045653,131.01048254489243,26.58263003124995,0.697686009631896,3.978018730535621,3.872652328554484,-1.616108327374978,2.8691158939108745,117.1843741360236,37.763157456107805,15.345457720209934,71.99156078116754,1.0231016515804667,121.07586622541344,871.2394296860301,15.288,0,4.61640364798339,0.1110056076932414,2.919028060072031e-07,-6.18545102013672e-05,0.0208412824913454,6.408002340935265e-06,4.03864041287973,17.365794247200512,38.387521274825474,5.08341107882898
1.21,31.22217269188801,131.01048396821588,26.940200956292347,0.7255044297110412,3.936600117902376,32.18129941285448,-1.6422418419048688,2.8573149854017057,359.92343213200894,38.03221268433131,15.45686678973248,71.99128513456344,1.060210279412714,121.11488698532192,883.6681295528898,15.288,0,4.626701280548886,0.1117969524272182,3.020217389948831e-07,-0.0001491352123628,0.0213281864354602,1.5559651397088767e-05,4.002792607186669,17.235009211363735,38.650085994722254,32.34960956631304
1.22,31.22217203911445,131.0104854015669,27.300117066857915,0.7552195220085584,3.907857393203844,23.21865505673125,-1.663148104419498,2.8457823887863207,283.0687504825761,38.178846624421695,15.530291966935891,71.99094485051263,1.0981782626022425,121.15481143707088,890.4644772872895,15.288,0,4.6369577322224895,0.1122284436252888,3.123892554415289e-07,-0.0002419460098084,0.0218213704380751,2.533928322122291e-05,3.9800529179820434,17.15882025206261,38.79221561293977,23.451449457656818
1.23,31.222171382506485,131.01048684420144,27.662127832449222,0.7819202236131961,3.86581249692598,8.83456212220195,-1.6901796724337383,2.83331269766666,159.79687382222795,38.45521409486057,15.64378957450338,71.99053623069989,1.137014077455894,121.19564851165651,903.3714370054744,15.288,0,4.647161092136638,0.1130413001224899,3.230101266437492e-07,-0.0003402742677943,0.0223200355112478,3.5894036177552794e-05,3.94397989790754,17.02692708937564,39.061993877564376,9.430474858611987
