Time,Latitude,Longitude,Altitude,Angle of Attack,Angle of Sideslip,X-Acceleration,Y-Acceleration,Z-Acceleration,Thrust,True Velocity,Ground Velocity,Pitch,Roll,Yaw,Dynamic Pressure,cp,parachute_deploy_gain,Wind Speed,Mach,omega_x,omega_y,omega_z,Cmq,Angle of Attack(total),Angle of Attack(gust),True Velocity(gust),Acceleration
0.0,31.222186000000004,131.010384,3.000000003643237,0.0,0.0,0.0,0.0,0.0,2.2828121974499247,0.0,0.0,69.99999999623421,0.0,113.69999999388332,0.0,15.288,0.0,0.0,0.0,0.0,0.0,0.0,-0.0,0.0,90.0,0.0,0.0
0.01,31.22218600000153,131.01038399999584,2.99999882256592,0.0,0.0,0.0,0.0,0.0,34.24218696174923,7.502283530665459e-11,7.190531319924593e-11,69.99999999623329,-4.83564628150269e-13,113.69999999388072,3.446445726795683e-21,15.288,0.0,0.0,2.204725565824978e-13,-3.659182332138578e-19,7.589415207398531e-19,4.811147140404426e-19,-1.5108918610345807e-31,0.0,89.9999999995224,7.502283530665459e-11,0.0
0.02,31.22218600000288,131.01038399999217,2.999997775701936,0.0,0.0,0.0,0.0,0.0,25.871876237766408,1.5320717031631675e-10,1.4674636035870463e-10,69.99999999623222,-9.67129256300373e-13,113.69999999387804,1.4372842949972735e-20,15.288,0.0,0.0,4.5023593667086093e-13,-7.284483346386986e-19,1.5178830414797062e-18,9.757819552369542e-19,-6.170906918166791e-31,0.0,89.99999999902465,1.5320717031631675e-10,0.0
0.03,31.22218599928065,131.01038400193067,3.000201659671132,18.81500467334555,-0.00012974450181,11.96616230539064,-1.8916256735984712e-05,3.349833086198469,180.34219359854663,0.0882870268161719,0.0553390044312322,69.99999999799445,-4.212591857125379e-12,113.69999999488518,0.0047728553458352,15.288,0.0,0.0,0.0002594525584132,3.2187251995663407e-17,-7.20264389268894e-10,1.2365134327422308e-11,1.6874092354518158e-13,18.815004673776716,89.46786891739345,0.0882666465974854,12.426199017587786
0.04,31.22218599548236,131.0103840121632,3.001799604587872,9.46752327608497,-4.6177622759613696e-05,55.21900012092241,3.931876292165237e-06,3.349616504302861,548.6359724538078,0.3767519978512604,0.1853356633749705,70.00000000507204,-2.4624598767003407e-11,113.70000000019972,0.086915163246288,15.288,0.0,0.0,0.0011071759353184,1.6174128009138757e-15,-1.3693172015529268e-08,2.7753303060112748e-11,1.3689612277852356e-11,9.467523276196548,87.63554493451223,0.3767447442872393,55.32050167054111
0.05,31.222185984749512,131.01038404118162,3.00777936418888,5.376730308971262,-2.257790939128127e-06,80.28807156553681,5.266841443842784e-05,3.348887800834877,761.6984298824644,1.018787885905993,0.4366201147110198,70.00000000894464,-1.1355399380652658e-10,113.70000001523856,0.635552918586145,15.288,0.0,0.0,0.0029939522895272,1.6418815498809788e-14,-9.32122351075408e-08,4.303264669380585e-11,2.5199270302492604e-10,5.3767303089717045,83.57022052969386,1.0187875312530217,80.35788377762394
0.06,31.22218596447235,131.01038409608267,3.0201664202003013,4.296730121134882,2.4863835723705905e-05,60.21296515808257,0.0001057204249726,3.347700952379021,590.4875390737208,1.721098934225416,0.7081674028809783,69.99999995523842,-3.0560354507026086e-10,113.70000004366592,1.8138247671743823,15.288,0.0,0.0,0.0050578622752421,8.328976953118383e-14,-3.2824985336199985e-07,5.923438275930214e-11,1.4991363363716091e-09,4.296730121206683,79.20467073327266,1.7211028398275985,60.305955550063224
0.07,31.22218593493329,131.01038417609837,3.038741944736831,3.8204913578752526,4.8016684030909405e-05,91.4060317508128,0.0001597686613101,3.346072557365335,855.2937749779139,2.4375792548422868,0.9844712334613328,69.99999973536046,-5.939103491363046e-10,113.7000000850886,3.6383156301599167,15.288,0.0,0.0,0.007163413150771,2.709313825263564e-13,-7.906546256197275e-07,7.920022733617308e-11,5.114174483651565e-09,3.820491358176508,74.87999294483174,2.437586797285377,91.46725557277466
0.08,31.222185894468456,131.01038428575305,3.0647976109320942,3.588632851766762,7.220043782492885e-05,19.18449428359557,0.0002119618497595,3.3440615022685813,241.2171988638848,3.1292508166901074,1.2522236515868983,69.99999919480445,-9.914748373602156e-10,113.7000001418522,5.996012698481753,15.288,0.0,0.0,0.0091960591623389,6.80386533246681e-13,-1.5973238302190878e-06,1.0839624626357699e-10,1.3263625118823921e-08,3.58863285249208,70.86684630658345,3.1292621579083604,19.473766155861934
0.09,31.22218584634549,131.01038441616095,3.0957981580345013,3.551302481506045,9.685468678862004e-05,57.102946699906326,0.0002554087225869,3.341892818148368,563.0937377043176,3.701810007254615,1.479132491047967,69.99999812344194,-1.4359264356978275e-09,113.7000002093888,8.390904013834115,15.288,0.0,0.0,0.010878666406854,1.440096519545733e-12,-2.748643691533636e-06,1.5214952332699618e-10,2.6999776649034504e-08,3.5513024828250237,67.68737872952666,3.701825221153239,57.20065357568538
0.1,31.222185790329306,131.01038456796124,3.1319266121977414,3.608446747536112,0.0001234669721807,54.26147302645416,0.0002914860332524,3.3396271157106168,538.7437595981919,4.174070299823608,1.6716491241860567,69.9999963052332,-1.902380107712657e-09,113.70000028805804,10.668380938744466,15.288,0.0,0.0,0.0122665227999911,2.687800116751415e-12,-4.315796035622946e-06,2.1749089204950437e-10,4.7802076800548326e-08,3.608446749645647,65.17160335282355,4.174089693970246,54.36414778470795
0.11,31.222185727066616,131.0103847393952,3.172681775073216,3.633547373470009,0.0001485939126744,42.987553988990406,0.0003293995000288,3.337005588796181,442.8656393052949,4.672024955140527,1.8729475711242067,69.99999349387662,-2.3433348587116544e-09,113.70000037699285,13.365573690709628,15.288,0.0,0.0,0.0137298902182575,4.5789425819531184e-12,-6.340230783164189e-06,3.1157625832417107e-10,7.860218435507205e-08,3.6335473765043056,62.62546922225161,4.672048296217748,43.116880735560244
0.12,31.22218565692512,131.0103849294629,3.2177790417108385,3.650108937861461,0.0001727442530266,46.86777100765684,0.000367618259785,3.334068179146888,475.58594813540446,5.17479364099247,2.0758708919414386,69.99998941286465,-2.702771525550512e-09,113.70000047573096,16.396890189902592,15.288,0.0,0.0,0.0152074069417046,7.288473386564583e-12,-8.86736416607888e-06,4.42271554299792e-10,1.217615295152289e-07,3.6501089419435786,60.16906436414164,5.174820775596283,46.986210423745625
0.13,31.222185580265183,131.0103851371844,3.2669395832841857,3.7280113734654137,0.0001995014041665,51.64515456841877,0.0003986198234033,3.3311573548369657,515.9156326236895,5.579364582999854,2.2451120211463422,69.99998375846928,-2.9114380666036422e-09,113.70000058383452,19.060875702782603,15.288,0.0,0.0,0.0163963474924215,1.100846422415094e-11,-1.1941028436408576e-05,6.179653149059831e-10,1.7678562106638216e-07,3.728011378795934,58.279338776943774,5.579395920607139,51.75247433579817
0.14,31.22218549718016,131.01038536230575,3.320091807147376,3.768719651034081,0.0002242721760019,48.1660778383537,0.0004326225136175,3.32784677779744,486.2390860568404,6.025734265159953,2.428648685938864,69.99997621008868,-2.890941335368725e-09,113.70000070125378,22.232643351545065,15.288,0.0,0.0,0.0177081261985351,1.5941871344608664e-11,-1.560901486259027e-05,8.477542742712431e-10,2.495765160917323e-07,3.7687196576976176,56.27980129251342,6.025769493750979,48.280903250602165
0.15,31.22218540777004,131.01038560455507,3.377159065217065,3.821894709649632,0.000249725644238,46.56959330999435,0.0004643042952466,3.324387732286376,472.54218587214,6.441023336496372,2.6014999612196745,69.99996641132823,-2.546763407193136e-09,113.70000082794672,25.402620271850456,15.288,0.0,0.0,0.0189285691155931,2.2314099732464315e-11,-1.992367942778425e-05,1.1417519574710292e-09,3.4051816697623295e-07,3.821894717796148,54.501255563441134,6.441062563308839,46.68809885900716
0.16,31.22218531193176,131.01038586421257,3.4382223512025254,3.8463320955387794,0.0002733212404609,36.974247749122085,0.0004987816203583,3.3205066466509234,391.1218908297564,6.895451966878468,2.7877331692857847,69.99995397923414,-1.77088415515292e-09,113.70000096417354,29.113317717489338,15.288,0.0,0.0,0.0202640360420561,3.0367358387834494e-11,-2.4945905791363795e-05,1.5114297685186711e-09,4.5643121540033697e-07,3.846332105235269,52.641145594326446,6.895494900078523,37.12304892183151
0.17,31.222185210004127,131.010386140357,3.503019838429153,3.8860314262554336,0.000297865039677,46.520531453299206,0.0005306403365217,3.31650761597812,471.78125980632376,7.314788342774694,2.9619016331667103,69.99993849340957,-4.3039914767238207e-10,113.70000110959404,32.761746921137856,15.288,0.0,0.0,0.0214963781445172,4.0366633128431416e-11,-3.0713078585132897e-05,1.96747427715988e-09,5.961228045584824e-07,3.886031437653654,51.00464968745696,7.314835131305714,46.63860064094784
0.18,31.22218510147516,131.01038643438045,3.571950002194137,3.9107265153396016,0.0003214293682635,38.895647526122765,0.0005639254295027,3.312149448254175,407.10156721191447,7.754626295791602,3.1430587898572058,69.9999195084231,1.6149322372810674e-09,113.70000126508234,36.81988229018681,15.288,0.0,0.0,0.0227889722876034,5.2593391349219385e-11,-3.731786027786564e-05,2.525509173087448e-09,7.6786585232224e-07,3.9107265285284982,49.36615848311875,7.754676785798701,39.036415444581515
0.19,31.222184986476247,131.0103867459258,3.644912152926752,3.920599115663931,0.0003437679584038,43.86258669386953,0.0005989384366483,3.307389681300437,448.9531328318269,8.219206165926856,3.332657190859447,69.99989653019398,4.538529095696477e-09,113.70000143063515,41.36350714675367,15.288,0.0,0.0,0.02415428010977,6.735860419174937e-11,-4.481243905342629e-05,3.199401151670645e-09,9.773118416308382e-07,3.92059913071168,47.71893898797248,8.21926016487149,43.987104227715655
0.2,31.222184864792144,131.01038707557822,3.722074668489528,3.943376465171875,0.000367328732016,40.28070981710589,0.0006315894240138,3.30251450988504,418.51563019916136,8.65238089736321,3.511445117640573,69.99986902534273,8.534090245934178e-09,113.7000016067622,45.83799876721736,15.288,0.0,0.0,0.025427299120469,8.499785987217288e-11,-5.328041996372527e-05,4.006766070954748e-09,1.2232205148646746e-06,3.9433764822533854,46.2587826635041,8.652438597225508,40.41586552155969
0.21,31.22218473678744,131.01038742234647,3.803156063113743,3.9664546506877016,0.000390962054969,38.67679184347145,0.0006636984664108,3.297405915846789,404.8187610144644,9.079179692250786,3.688002035198235,69.99983642883521,1.3827831253856693e-08,113.70000179318536,50.47126980736161,15.288,0.0,0.0,0.0266815841422463,1.0586558589671407e-10,-6.275155280099118e-05,4.961340042512481e-09,1.5117124669161171e-06,3.9664546699249135,44.88773728276958,9.079241104426773,38.817098210937615
0.22,31.2221846022986,131.01038778667507,3.8882846911135607,3.956175711337521,0.0004112685792646,46.713636108302936,0.0007011135033803,3.291572407481395,472.5421858721365,9.580256326712124,3.889976788904857,69.99979815126248,2.0662823443484168e-08,113.70000199039316,56.195522894218605,15.288,0.0,0.0,0.0281541581291438,1.3033127211465288e-10,-7.330053770532661e-05,6.0817207473359025e-09,1.8632831045819008e-06,3.956175732680424,43.35679625546934,9.580320928629488,46.8294591882524
0.23,31.222184460898035,131.01038816972698,3.977794004014759,3.9879066397329104,0.0004360962274406,38.89105719050748,0.0007308686121188,3.286096544282012,406.3406421461021,9.977039034039262,4.056142701351626,69.99975353557706,2.9316661139418326e-08,113.70000219928508,60.9462612310605,15.288,0.0,0.0,0.0293202403623685,1.5880617816859538e-10,-8.505067486192354e-05,7.393319440773217e-09,2.2514912291167663e-06,3.987906663538912,42.20670487756048,9.97710753587448,39.0296395118868
0.24,31.222184313516166,131.01038856897196,4.070963590490852,4.003523997322975,0.000459165577055,40.0792299321398,0.0007630441688766,3.280134925833028,416.2328240017114,10.408422364424831,4.234121060914368,69.99970190737699,4.010976417051318e-08,113.70000241888,66.32994780718496,15.288,0.0,0.0,0.030588009649109,1.91711512587616e-10,-9.795845222523724e-05,8.904557280909524e-09,2.7052895870113487e-06,4.003524023611085,41.011349410369874,10.408494489985014,40.21323112692186
0.25,31.22218416001652,131.01038898478134,4.167901030441617,4.0261356185860135,0.0004830526730531,41.17760020658354,0.0007934613160587,3.2740610008587527,425.36408079150686,10.816813039390448,4.4041629376391525,69.99964258149416,5.3372865854010094e-08,113.70000264972064,71.63651430352668,15.288,0.0,0.0,0.0317882126436337,2.2947426169209347e-10,-0.0001121037688082,1.0637152702866709e-08,3.217380562698304e-06,4.026135647516394,39.93186687113378,10.816888917126896,41.30755663120434
0.26,31.222184000702686,131.0103894163294,4.26837241014618,4.053359329950934,0.000507503069958,44.80261175215926,0.0008224724146494,3.2678597736729302,455.8015834241788,11.207047269494833,4.567925492611352,69.99957484039399,6.947299261165984e-08,113.70000289176392,76.89781807056055,15.288,0.0,0.0,0.0329350617559806,2.7254099134167665e-10,-0.0001275114371842,1.260720913253598e-08,3.7915697709142366e-06,4.053359361668992,38.945390435244384,11.207126987890645,44.921630958721536
0.27,31.22218383516388,131.01038986473338,4.372698316214008,4.0614460923241,0.0005296455772492,41.029837477288126,0.0008548809954683,3.2610328932384265,423.84219965987256,11.645685385842508,4.748226940060522,69.99949794024376,8.879821051920497e-08,113.70000314600205,83.0342688744587,15.288,0.0,0.0,0.0342241635563461,3.2137296827284217e-10,-0.0001442952656441,1.4842505534226832e-08,4.458527942364847e-06,4.061446126801262,37.8838346421185,11.645768582375233,41.15922617924542
0.28,31.222183663504484,131.01039032970942,4.48079961904222,4.081133040992532,0.0005533279247169,47.27661484082626,0.0008845140695959,3.254218495915602,476.3468732012221,12.047344998676092,4.915789434712848,69.99941106884992,1.1178948978424788e-07,113.70000341275257,88.85982357848233,15.288,0.0,0.0,0.0354045979054623,3.764736350660473e-10,-0.0001625146963723,1.7365685655384934e-08,5.194620655212288e-06,4.081133078439725,36.956255322213885,12.047431915223257,47.38848224631549
0.29,31.22218348566054,131.0103908114315,4.592727908358551,4.1001100265020245,0.0005770279952742,37.989969791857405,0.0009138463939581,3.247164755122801,397.97031042211177,12.446314684600782,5.082367374004485,69.99931338876085,1.3891902435864665e-07,113.70000369260468,94.8417675268915,15.288,0.0,0.0,0.0365771315767517,4.3836067907166327e-10,-0.0001822432988888,2.0202163500922312e-08,6.018074062137429e-06,4.100110067036654,36.07377590258778,12.446405323946324,38.12849176886316
0.3,31.222183301933686,131.01039130907952,4.708251093558373,4.112858061667493,0.0005998635114143,35.655053282557844,0.000944131403186,3.2397207148238625,378.1859457108711,12.860033399289696,5.253940723820665,69.99920403105713,1.707002607527005e-07,113.7000039856728,101.2505662360602,15.288,0.0,0.0,0.03779301412572,5.075709863465428e-10,-0.0002035013069687,2.3370674033523645e-08,6.94335970778e-06,4.112858105337573,35.19685285507256,12.860127625629724,35.80193592228613
0.31,31.222183112488807,131.0103918222051,4.827243246502713,4.136140889545823,0.0006242383343011,37.56633644061071,0.0009716215464757,3.232339252743767,394.1656220930212,13.2364445751808,5.4126574282679245,69.99908210036875,2.0768081583188525e-07,113.7000042923011,107.26326115439352,15.288,0.0,0.0,0.0388992619788015,5.846561731689753e-10,-0.0002263323252403,2.6893437641668458e-08,7.948283231812338e-06,4.1361409365698805,34.43286455705216,13.236542630309057,37.70514091683033
0.32,31.22218291741533,131.01039235056504,4.949637017503345,4.1622282001352975,0.0006491019906456,40.83513712643371,0.0009979686925508,3.224840963348891,421.55939346242695,13.59846554462374,5.566374262777002,69.99894668612772,2.504388718903276e-07,113.70000461297312,113.2095365840355,15.288,0.0,0.0,0.0399632243410653,6.701756367872645e-10,-0.00025078340164,3.0793566854276295e-08,9.047716714467492e-06,4.16222825066026,33.72644865222576,13.598567505326,40.96227562489027
0.33,31.222182716732533,131.01039289410716,5.075419569102976,4.187801887681037,0.0006739743721461,40.48743503284469,0.0010239291638211,3.217136801802925,418.5156301991682,13.956637761217308,5.718704299733134,69.99879684673242,2.995902922462564e-07,113.70000494831164,119.25032483364384,15.288,0.0,0.0,0.0410158804634189,7.647061680070125e-10,-0.0002769136723495,3.509664608790402e-08,1.0253455741189656e-05,4.187801941818244,33.053267359159875,13.956743628864118,40.61505097607
0.34,31.222182510255863,131.01039345333336,5.204736257784645,4.19642921746386,0.0006961879027693,31.814592723444047,0.0010535137542081,3.208669900766693,345.46563688075645,14.367047160772364,5.88887983533068,69.99863160305904,3.557915789971256e-07,113.70000529927128,126.36523219087664,15.288,0.0,0.0,0.042222056531773,8.688448410811866e-10,-0.0003048202762282,3.9835373705550826e-08,1.1618525957862828e-05,4.196429275109305,32.30947868183619,14.367156517712404,31.97598901989736
0.35,31.222182298183583,131.0103940277045,5.337435501771672,4.210915783240843,0.0007193441544952,34.813487415034444,0.0010813034848195,3.200164272309822,370.5765700527033,14.754132934586384,6.050986755458457,69.99844991734221,4.1975736284587617e-07,113.70000566632532,133.26448209504355,15.288,0.0,0.0,0.0433596939127697,9.832256819293898e-10,-0.0003345386312107,4.503361101379695e-08,1.309465610343774e-05,4.210915844572415,31.63649055965014,14.75424592890194,34.96026256388454
0.36,31.222182080444604,131.0103946174141,5.4735747500461605,4.22903876037745,0.0007431682866607,39.2632255716727,0.0011077666085529,3.1915717453569297,407.8625232777193,15.124417129017054,6.2072589919251575,69.99825073022951,4.922382611919288e-07,113.70000605036684,140.03566173682628,15.288,0.0,0.0,0.0444479595865755,1.1084921261805627e-09,-0.0003661511460057,5.0723697896912267e-08,1.4691545926915382e-05,4.229038825557203,31.017264542603208,15.124533865618538,39.39272792946638
0.37,31.22218185710795,131.01039522227452,5.613102797925907,4.249164960780052,0.0007674149135003,37.28328237034959,0.001133274451316,3.1828514669894137,391.1218908297666,15.483077353331511,6.359470679857624,69.99803294268581,5.740349991123437e-07,113.70000645214331,146.75405277514704,15.288,0.0,0.0,0.0455020695186381,1.245311285088233e-09,-0.0003997125883071,5.6934243389647934e-08,1.641828325195534e-05,4.2491650299519,30.439178816713017,15.483197898584232,37.418894813348615
0.38,31.2221816281124,131.0103958424523,5.756069531572451,4.260095806433531,0.0007900626414612,38.9278000801764,0.0011607546399008,3.1735466295306622,404.8187610144602,15.87126705947922,6.521735074464384,69.99779542676283,6.659911329739736e-07,113.70000687263192,154.20298254405043,15.288,0.0,0.0,0.0466429667223463,1.3943646956867835e-09,-0.0004353006984059,6.369875435270817e-08,1.8328108041903096e-05,4.260095879559656,29.83470194713067,15.87139116222873,39.05694584372078
0.39,31.22218139339905,131.0103964781077,5.9025231349944285,4.274091258047817,0.0008133283308351,33.320076729592266,0.0011870382950339,3.164143363712209,357.64062493382744,16.24457853509073,6.678818328235205,69.9975369905506,7.690136753559805e-07,113.70000731287368,161.54010621938565,15.288,0.0,0.0,0.0477401448128051,1.5563705124515804e-09,-0.0004730068442167,7.105463478762673e-08,2.0383860516746246e-05,4.274091335289374,29.274934656826048,16.244706292406182,33.46997636540994
0.4,31.22218115316572,131.01039712870306,6.0523126585892895,4.286421841403391,0.0008363022448449,31.88018820767003,0.0012133780841982,3.1544430614236454,345.465636880754,16.62063299903514,6.836764518435374,69.99725641601981,8.840594270905819e-07,113.70000777359816,169.10340080049767,15.288,0.0,0.0,0.0488453895716005,1.7320643186450851e-09,-0.0005128553637434,7.9027539265021e-08,2.2612406375611563e-05,4.286421922834417,28.730746964325096,16.620764365084565,32.03586915718869
0.41,31.22218090752676,131.01039779392735,6.205351877049411,4.30025870409831,0.0008595777771371,35.882550741685804,0.0012389121673015,3.1445895889870297,378.94687077668647,16.987310563534386,6.99141560549392,69.9969524610574,1.0121301778427253e-06,113.70000825570062,176.64448930727934,15.288,0.0,0.0,0.0499230826371405,1.922193031274436e-09,-0.0005548883906878,8.764667734700782e-08,2.5005077415911235e-05,4.300258789847355,28.21875643368965,16.987445585695873,36.020076248499606
0.42,31.222180656535848,131.0103984736348,6.36160173428776,4.322008670726048,0.0008844838439129,40.34064925656127,0.001261804338223,3.134918999355981,416.2328240017114,17.318628721060172,7.133856886815013,69.99662385300175,1.154276942054023e-06,113.70000876021427,183.59942989625057,15.288,0.0,0.0,0.0508968652507098,2.1275184665783874e-09,-0.0005991661829955,9.694534598491077e-08,2.752657757470936e-05,4.322008761057615,27.772396468009568,17.318767655457478,40.462275036947325
0.43,31.222180400205527,131.0103991677914,6.521055075967404,4.339436441324956,0.0009085827200945,35.541853595187746,0.0012854696362701,3.124839917627212,375.9031395134336,17.662848429084132,7.280642039343927,69.99626930133451,1.3115939750280808e-06,113.70000928827632,190.96736675963504,15.288,0.0,0.0,0.0519085689713619,2.3488101247838237e-09,-0.0006457514522491,1.0695800287133593e-07,3.0255957891170616e-05,4.339436536261635,27.322335771349252,17.662991148924057,35.67895714766603
0.44,31.22218013836212,131.0103998768696,6.683849332059896,4.342209064313268,0.0009296474314902,32.82948243168077,0.0013129688908547,3.113754688841357,353.0750125389216,18.063580761318697,7.446730341918701,69.99588746395321,1.4852372182848018e-06,113.7000098413532,199.7278270846888,15.288,0.0,0.0,0.0530863610987301,2.586862292117705e-09,-0.0006947575786514,1.1773083546077225e-07,3.329010177793299e-05,4.342209163639375,26.81344244367223,18.06372678999575,32.9768158972058
0.45,31.22217987077456,131.0104006014978,6.850166573233225,4.3420317510315165,0.0009500780330031,38.11022602597878,0.001341042003417,3.1022288449712887,397.2093853562869,18.47486275310604,7.616350301328129,69.99547690348253,1.6764536248320808e-06,113.70001042108892,208.92306716049887,15.288,0.0,0.0,0.0542951637545535,2.842521175226318e-09,-0.0007463379956615,1.2932090054593452e-07,3.657529369088674e-05,4.342031854775571,26.30944884471334,18.47501199101448,38.23628058998621
0.46,31.22217959739673,131.01040134180155,7.020045503401754,4.351169003849846,0.0009725797783515,44.3937050866137,0.0013660055515545,3.09098240974522,449.7140588976434,18.844323061800488,7.771531995684422,69.99503610583268,1.8865779683531e-06,113.70001102895836,217.3591612614144,15.288,0.0,0.0,0.0553810645782081,3.1166808800591503e-09,-0.000800596194505,1.417768495237597e-07,4.001824400409673e-05,4.351169112337076,25.873596578896564,18.844475834274814,44.50118229261506
0.47,31.22217931813738,131.01040209802923,7.193559875579052,4.358630093683735,0.0009947969928181,30.22514089990685,0.0013910994973101,3.079396422776949,331.0078106302534,19.2180591098146,7.9280875671397615,69.99456352718363,2.1170044481277104e-06,113.70001166656292,226.0625808853568,15.288,0.0,0.0,0.0564795377574197,3.4102493884459798e-09,-0.0008576351980594,1.551487523304888e-07,4.3718862242359527e-05,4.35863020698899,25.44665981168229,19.218215372160817,30.381603425148434
0.48,31.22217903348153,131.01040286886197,7.370336324605091,4.365514409145237,0.001016880998596,29.779838936311712,0.001416009414045,3.067527859335786,327.2031223011574,19.5915905767454,8.084483592791102,69.99405758812365,2.369198154608765e-06,113.70001233476164,234.93171707892955,15.288,0.0,0.0,0.057577416115756,3.7241711041759195e-09,-0.0009173883913609,1.6944871263079066e-07,4.767297940601472e-05,4.365514527349481,25.03354780044292,19.59175030803913,29.937410312943754
0.49,31.22217874361868,131.01040365378466,7.5502307795521535,4.3786401372577615,0.0010404145545081,37.2489281064929,0.0014385799934191,3.0558405437943126,389.60000969812296,19.93403005898306,8.23012235628909,69.99351671352461,2.644660619562788e-06,113.700013034871,243.21198709852868,15.288,0.0,0.0,0.0585839249886784,4.059374595909599e-09,-0.0009798792959512,1.8470833984680338e-07,5.180951737438081e-05,4.378640260624215,24.667474291142685,19.934193486919103,37.37406598941686
0.5,31.22217844858332,131.0104044527036,7.733219389747018,7.54021434424536,0.0001697640654994,38.29691506206198,0.0014157280138259,2.8178670236792858,397.97031042210494,20.79881621453984,8.3664649573212,69.99293932307316,2.9449363413826395e-06,113.70001376847225,264.7673095526026,15.288,0.0,1.2525784889493092,0.0611255626993859,4.416769394513709e-09,-0.0010472760810716,5.18679161945689e-06,5.777421159627743e-05,7.540214346145357,24.5188448368206,20.79884288101689,38.40044374532948
0.51,31.222178148520783,131.01040526528848,7.919247251838666,7.506070667398541,0.0004918419086697,29.38717559647475,0.0014176383891741,2.800233909050762,323.3984349720841,21.14311225657556,8.509757826162582,69.99230874712984,1.1110054408281115e-05,113.70002287894208,273.6006981968428,15.288,0.0,1.2575492376890895,0.0621375434405331,4.809418035653742e-09,-0.0011694146101865,5.194645994571405e-06,6.557886548499545e-05,7.506070683420413,24.185905897867528,21.143189514921907,29.520287964265144
0.52,31.22217784343045,131.01040609147557,8.10833029652308,7.469641844833026,0.0005217825863226,35.224841363970604,0.0014398334582967,2.782009905776945,372.0984511843415,21.49611849583748,8.655989777450092,69.99160711480384,1.928835890460944e-05,113.70003201031376,282.8079280088031,15.288,0.0,1.2625026453756747,0.0631751290799974,5.2460039347631965e-09,-0.0012958227199929,5.203859152153322e-06,7.387954647296608e-05,7.469641862953906,23.85315371917133,21.496200457254474,35.3345302827964
0.53,31.222177533175618,131.01040693164256,8.300580338278131,7.435133956259442,0.0005514232492659,36.96676056960706,0.0014616139458495,2.763540625897357,386.5562464348624,21.84541960168342,8.8008111948096,69.990831915219,2.7481296189704656e-05,113.70004116429816,292.0681836698526,15.288,0.0,1.267439502411022,0.0642018323679311,5.7279569573860764e-09,-0.0014266947078107,5.2140135329336174e-06,8.266125737997859e-05,7.435133976592589,23.53326777442141,21.845506219044864,37.0699142963395
0.54,31.22217721766223,131.0104077860454,8.496074727749198,7.401873486960915,0.0005807579254264,32.51292712895446,0.0014830868206767,2.7447779803391903,349.2703242098436,22.192681970091733,8.944793618453897,69.9899805580152,3.569030548706556e-05,113.70005034253508,301.4219635926456,15.288,0.0,1.2723633997558164,0.0652225508075272,6.2567485984961835e-09,-0.0015621941963354,5.225160688156979e-06,9.194904503935232e-05,7.401873509617442,23.224018921743124,22.19277319533333,32.62858009251405
0.55,31.22217689716972,131.0104086539245,8.694601146869097,7.371765006086166,0.0006099299737271,34.4371692258025,0.0015038549147432,2.72589332850823,365.2500005919907,22.531891711648743,9.085867667519135,69.98905040912629,4.391689783952734e-05,113.70005954621016,310.7007826952303,15.288,0.0,1.2772685831167756,0.0662196099239907,6.8338911213458285e-09,-0.0017022377529967,5.237334263274136e-06,0.0001017213249131,7.371765031179186,22.9305020422305,22.531987519224973,34.544885598110525
0.56,31.22217657170333,131.0104095352658,8.89615987699349,7.346120111689216,0.000639102231489,32.16769303758682,0.0015236134770758,2.707030629298167,346.2265619465787,22.858425931072684,9.222437374413586,69.98803883489488,5.216263921976226e-05,113.70006877695556,319.76525532059327,15.288,0.0,1.28215497491741,0.0671794232731332,7.460869757835047e-09,-0.0018469279579294,5.2505820395846864e-06,0.0001119649280952,7.346120139337266,22.656039085326327,22.85852632101645,32.28139545480907
0.57,31.222176241338925,131.01041042986327,9.100696442106042,7.318123892214936,0.0006677127092043,31.812349971564306,0.0015437285041998,2.6875935640340427,343.1828296833023,23.192988085859184,9.361647562952852,69.98694317134665,6.0429160830016426e-05,113.70007803637176,329.1876331542534,15.288,0.0,1.2870204423613192,0.0681628369095143,8.139185479358946e-09,-0.0019963060113693,5.26494752963726e-06,0.0001227894400815,7.318123922510504,22.381226804886342,23.19309296992628,31.925675752626166
0.58,31.22217590605931,131.01041133776397,9.308228548140695,7.283429840492526,0.0006953306585488,41.76824013695752,0.0015651342499963,2.667134000554629,426.1250058573153,23.549932462066856,9.508449712505362,69.9857607061913,6.871816237152577e-05,113.7000873262634,339.3913574974164,15.288,0.0,1.2918649865487493,0.069212037616291,8.870352371808559e-09,-0.0021504802572531,5.280480846369873e-06,0.0001343054606497,7.283429873504298,22.09395338135195,23.55004168435129,41.85330919252514
0.59,31.222175565472632,131.01041226003366,9.51906465057152,7.2582464740117345,0.0007235367258735,33.93075006778421,0.0015844112081397,2.6471945638595704,360.68438819711065,23.87735174877809,9.644923136111844,69.9844885706129,7.70314382335153e-05,113.70009664906628,348.8871460308312,15.288,0.0,1.2966944695311111,0.0701744729325963,9.655932840665703e-09,-0.0023098611422008,5.297263396038718e-06,0.0001462620926476,7.258246509881438,21.839042702591755,23.877465401661212,34.03385728552855
0.6,31.22217521979169,131.01041319609396,9.733044260843991,7.220949186604908,0.0007501976650254,30.19743051573015,0.0016061708797214,2.6256404367943578,329.4859594986058,24.24564007763,9.795360886681353,69.98312383387528,8.537086969488645e-05,113.70010600645018,359.72534579755734,15.288,0.0,1.3015048936629314,0.0712570279342149,1.0497574951315444e-08,-0.0024743924848327,5.315334952639464e-06,0.0001590937324615,7.220949225368018,21.556616898312,24.24575791840365,30.31136420611031
0.61,31.22217486897318,131.01041414606289,9.950205608832547,7.182371068644068,0.0007763376352377,35.32173396858597,0.0016281379102745,2.603486689931796,372.0984511843297,24.620274844598445,9.947849398870842,69.9816634811311,9.373842256017274e-05,113.70011540053724,370.92018556163697,15.288,0.0,1.3062976389480188,0.0723582427489437,1.1396941323754022e-08,-0.0026442224521574,5.334755828591623e-06,0.0001726365140897,7.182371110380944,21.276575172615296,24.62039679142902,35.41755265603546
0.62,31.22217451313364,131.01041510962384,10.17046304433693,7.163722951137101,0.0008043013517472,43.82921113643207,0.0016455414346295,2.583051942457775,442.86563930529206,24.92792064895292,10.077086967566144,69.98010441280967,0.000102136155353,113.7001248333206,380.23982063296137,15.288,0.0,1.311074430166362,0.0732625865024049,1.2355748048172533e-08,-0.0028194080683415,5.3555782333642514e-06,0.0001863702462718,7.163722996052705,21.05628156566273,24.928046988313813,43.905260606072964
0.63,31.22217415209732,131.01041608725495,10.393957339423084,7.139463455186104,0.0008314082479475,25.01370353666073,0.0016640062386839,2.561650874628648,286.11251274707894,25.25492390651759,10.212861977054883,69.97844357767863,0.0001105661761392,113.70013430725965,390.2728119074303,15.288,0.0,1.3158270329878847,0.0742238287129417,1.3375643052096342e-08,-0.0030001707128371,5.377873908321128e-06,0.0002009163585879,7.139463503345026,20.82590421326507,25.25505450381978,25.14453066955826
0.64,31.222173786439527,131.01041707739205,10.62024704421268,7.106067958697604,0.0008571010046168,24.563402759950616,0.0016844123722048,2.5387986730801684,282.30782441796754,25.6150168773848,10.35992593474857,69.97667786781449,0.0001190306849801,113.70014382384564,401.4727053233661,15.288,0.0,1.3205598294054364,0.0752823285435005,1.4458397376054037e-08,-0.0031861426861282,5.401647190337744e-06,0.0002164081922415,7.106068010122119,20.5759991999184,25.61515151049577,24.69425554025122
0.65,31.22217341614536,131.01041808007602,10.849348249916025,7.087302725332234,0.0008842270015595,43.13608825474837,0.0017012598475018,2.5172608436135926,436.7781447787475,25.923189912346096,10.48894600888118,69.97480415848128,0.0001275396434431,113.70015339647668,411.1819675722418,15.288,0.0,1.3252649376496404,0.0761882435320898,1.56056782483551e-08,-0.0033774705851273,5.4269596198339455e-06,0.0002321583413186,7.087302780209684,20.37021777642209,25.9233288063987,43.20947482868214
0.66,31.22217304072446,131.01041909664048,11.08164545472322,7.06535466599394,0.0009107467859489,36.744370794168105,0.001718631266109,2.4949823676669127,383.51251517160017,26.242707834843,10.621737779484963,69.97281937937481,0.0001360799631928,113.70016300626196,421.37113346011216,15.288,0.0,1.329950397064751,0.0771275086905899,1.6819088080331958e-08,-0.0035746665717776,5.453921702538847e-06,0.0002487360721984,7.065354724395188,20.16059095579256,26.242850894613596,36.828979418767176
0.67,31.22217266036128,131.01042012658408,11.317000349926635,7.035407244200036,0.0009359672289557,25.40671531990076,0.001737714812831,2.471303364093421,289.1562440103425,26.592252175689527,10.7647522385543,69.97072015901175,0.0001446618244096,113.70017266654752,432.66116514712576,15.288,0.0,1.3346203708079154,0.0781550295613432,1.8100455955835536e-08,-0.0037776863366481,5.4825783211827646e-06,0.000266358026394,7.035407306145781,19.93438383162719,26.592399197078045,25.526623879461855
0.68,31.22217227522368,131.01042116945067,11.555287495372395,7.008072950768803,0.0009612285227907,31.638745612176265,0.0017559886324986,2.4475273102080632,340.8999924858462,26.932645248561432,10.904476017421576,69.96850313273423,0.0001532877790348,113.70018237977328,443.7984265164896,15.288,0.0,1.3392591652979349,0.0791556627219839,1.9451606993989333e-08,-0.0039865155799764,5.512977293478631e-06,0.0002846736771022,7.008073016360874,19.719688397696228,26.932796237984707,31.73327302579602
0.69,31.22217188539255,131.0104222250206,11.7964488129712,6.988864707154682,0.0009873308883063,38.88175259146242,0.0017720668033166,2.4244365476167498,401.0140726853634,27.242067059269267,11.033377932582855,69.96616493470309,0.0001619604491513,113.70019214857616,454.0438468078424,15.288,0.0,1.3438773178337666,0.0800652783641524,2.0874344904081658e-08,-0.0042011914171166,5.5451730178253766e-06,0.0003034431264672,6.988864776549534,19.53059524606467,27.24222214884253,38.95726607832402
0.7,31.222171490737622,131.0104232936483,12.04058969229782,6.969272263372937,0.0010131632372831,32.663268368490975,0.0017879960898071,2.4009300499693365,349.27032420985284,27.55258002118653,11.16251818194424,69.96370215330568,0.0001706903191644,113.70020198710203,464.44259408568433,15.288,0.0,1.3484779661674813,0.0809781086145802,2.2370427022325646e-08,-0.004421943766775,5.579247975194451e-06,0.0003230204985565,6.969272336654031,19.34457109163916,27.55273916849568,32.75139033405817
0.71,31.222171091313943,131.0104243751844,12.287672016725146,6.944528699806773,0.0010380155540776,26.89926400777089,0.0018049709975863,2.376313381782586,301.33126406340574,27.88314404967799,11.29844507354587,69.96111139148594,0.000179464605895,113.70021187594168,475.642526712466,15.288,0.0,1.3530464791384855,0.0819498776436883,2.394168034877968e-08,-0.0046488301775098,5.615262381517752e-06,0.0003436605768296,6.944528777003895,19.149271794179327,27.88330710077993,27.004023268878246
0.72,31.222170687126106,131.01042546961665,12.537696820350796,6.913679725946113,0.0010616819968334,32.86457311289683,0.0018232820339624,2.3503656091643785,350.79220534145287,28.23865481552116,11.442847992406923,69.95838905104105,0.0001882940111586,113.70022182927922,487.8370431836429,15.288,0.0,1.357595518478362,0.0829949746904163,2.5589974612716176e-08,-0.0048819777585486,5.65328762631176e-06,0.0003654884562262,6.913679807067356,18.94228275354549,28.238821584139234,32.9485111608103
0.73,31.22217027817369,131.0104265769465,12.79066912376034,6.897425501711445,0.0010873393344301,41.49221742270298,0.0018376180223287,2.3261784655393134,422.320318528234,28.534891560090667,11.566651854632031,69.95553143941358,0.0001971815710628,113.7002318503037,498.11390790648886,15.288,0.0,1.3621269148185935,0.0838658702910611,2.7317230608574293e-08,-0.0051215365056663,5.693400356149188e-06,0.0003874358570818,6.897425587003403,18.77664356084882,28.53506235895391,41.55737258638033
0.74,31.22216986439696,131.01042769733658,13.04663964759266,6.8764037146329,0.0011120629007471,26.094393902069985,0.0018529088826324,2.300900554294856,294.48281347105944,28.85005228264208,11.6968506706354,69.95253488144184,0.000206138246602,113.70024195359632,509.1652414815238,15.288,0.0,1.3666314186990742,0.0847923926714675,2.9125328967028548e-08,-0.0053676527365682,5.735678700067256e-06,0.0004105288221137,6.876403804123034,18.60249098724924,28.850226965074032,26.19563971179961
0.75,31.22216944615188,131.01042882981932,13.305337336676498,6.852343355060145,0.0011360473619073,30.41316861325044,0.0018687393491299,2.274731921346661,330.24688556441487,29.17769562585772,11.831232022256389,69.94939575297776,0.0002151514840622,113.7002521194979,520.782916377225,15.288,0.0,1.3711088608138269,0.0857556104745066,3.101627172361648e-08,-0.0056200800036618,5.780137883131408e-06,0.0004347057008645,6.852343448783152,18.424237978727643,29.177874075760023,30.498118530561555
0.76,31.222169023331595,131.01042997468545,13.566849368322428,6.833339609514041,0.0011606392596583,32.71532501128882,0.0018829666251119,2.248981388429665,349.27032420986166,29.483571607278137,11.957964774353991,69.94611026184789,0.0002242401898886,113.70026237394598,531.745750906269,15.288,0.0,1.375565527403958,0.0866548604265005,3.2991934836372304e-08,-0.005879066615802,5.826872432243915e-06,0.0004594935453325,6.83333970761325,18.262285429723335,29.483753920066704,32.79253591025442
0.77,31.22216859588149,131.01043113208388,13.8312224865489,6.8155191507905375,0.0011852407027152,30.612130051011007,0.0018965859190458,2.223050860822633,331.7687666960708,29.78360821199617,12.082546079539153,69.94267469457121,0.0002333922163391,113.70027269837256,542.6095562342565,15.288,0.0,1.3800018945229786,0.087536956009001,3.5054219352551144e-08,-0.0061447931441519,5.875968825394632e-06,0.0004851371061769,6.815519253362581,18.10665669611173,29.783794389170374,30.69274287167658
0.78,31.222168163866968,131.01043230183691,14.098410467407753,6.793216219594793,0.0012088639598954,25.20171431394376,0.0019111193984414,2.195965949685269,286.8734378128899,30.102461266450387,12.213496174779168,69.93908517500452,0.0002426188036768,113.70028310743558,554.275505121086,15.288,0.0,1.384406418861328,0.0884743632269971,3.720510708804509e-08,-0.0064172931392428,5.927489985767448e-06,0.0005120621274967,6.793216326649952,17.943124177037458,30.102651154357154,25.297206851077302
0.79,31.222167727376647,131.01043348370385,14.368349215208337,6.768394004033181,0.0012318042215184,35.68019607898689,0.0019260625088959,2.16800119654942,373.6203323159534,30.432219779785445,12.348085845582778,69.93533775190107,0.00025193125149,113.70029361580605,566.4709968310027,15.288,0.0,1.388787951440539,0.0894438312836922,3.9446615008434975e-08,-0.006696595655619,5.981498189187843e-06,0.0005401883603433,6.768394115601571,17.776590055539156,30.43241327114008,35.74600152650514
0.8,31.222167286194328,131.0104346782729,14.641210445129085,6.75203613573792,0.0012560903513108,36.14869334723871,0.0019383744311691,2.141159162713128,377.42502064505743,30.723477543696543,12.46923786231923,69.93142842538965,0.0002613256581143,113.70030421680376,577.3508078191717,15.288,0.0,1.3931506729857908,0.0903001497014798,4.178066945190588e-08,-0.0069831059873024,6.038125622334989e-06,0.0005686763119071,6.752036252032653,17.63423402474186,30.723674849907525,36.21205043946098
0.81,31.222166840422776,131.01043588526483,14.916919063011736,6.730205862021479,0.0012791824231487,23.65700723660233,0.001951889182426,2.1129152122842974,273.9374926939919,31.038679669722608,12.59853059511032,69.92735317189137,0.0002707979506216,113.7003149030124,589.2424327235832,15.288,0.0,1.3974923575307183,0.0912268520201515,4.420935550358024e-08,-0.0072767996801032,6.097429214837216e-06,0.000598657313662,6.730205983026297,17.48138229963121,31.03888060322775,23.751176937087322
0.82,31.22216639024961,131.01043710416982,15.195334397960844,6.70611572407956,0.0013016231260766,30.282634768325167,0.0019657347942372,2.0837993077294,328.72500443277005,31.363834982603294,12.731138850312528,69.92310780890475,0.0002803678248887,113.70032570084724,601.6365946588576,15.288,0.0,1.4018069448394272,0.0921828167654593,4.673481425730933e-08,-0.0075775845302037,6.159451963004186e-06,0.0006299164819793,6.706115849821475,17.32601139381706,31.364039441085808,30.354245039710396
0.83,31.222165935659948,131.01043833502857,15.476472381161912,6.692159171069832,0.0013258353243457,38.38364185823063,0.001976388788808,2.056268351205341,395.68750322465047,31.64090076473417,12.846998383882342,69.91868820115639,0.0002900312320057,113.70033660301377,612.2966391398705,15.288,0.0,1.406094947036349,0.0929974478909251,4.9359087878778296e-08,-0.0078856352171123,6.224287802292286e-06,0.0006612974043293,6.692159301807781,17.198370135735633,31.64110902645989,38.43868111342006
0.84,31.22216547655031,131.01043957812263,15.760417167903732,6.676090580307969,0.0013494894285719,23.85710727506272,0.0019872923955047,2.027965324473449,275.4593748256452,31.926483123913208,12.965669433255924,69.9140902342717,0.0002997845052584,113.70034760286084,623.3823732232373,15.288,0.0,1.410361795624241,0.093837118759316,5.208417222989456e-08,-0.008201175716907,6.292043103740019e-06,0.0006939475579825,6.676090716081454,17.068306206000234,31.92669510121693,23.94314546671862
0.85,31.222165013214312,131.01044083265404,16.04694610834628,6.651687719742017,0.0013712605338614,25.979133039467857,0.0020002571482709,1.9975298063039328,292.96093233939376,32.250942126672946,13.097663480596928,69.9093096450917,0.0003096478373788,113.70035872726493,636.0997378471859,15.288,0.0,1.4146040793773076,0.0947910629077067,5.4912292505970263e-08,-0.0085239447456716,6.362727613488179e-06,0.0007285687417407,6.651687860450664,16.92073869352181,32.25115752377389,26.055814760058293
0.86,31.222164545480897,131.01044209908804,16.336195639853504,6.633398598962144,0.001394092291397,32.42899721437776,0.0020111163027264,1.9679539358417788,346.2265619465587,32.545139944140566,13.219067919771756,69.90434213384617,0.0003196175913442,113.70036996961846,647.7398660893122,15.288,0.0,1.418824702726565,0.095656073048294,5.784544548442672e-08,-0.0088543316671086,6.436483005117992e-06,0.0007636904638224,6.633398744800087,16.790688676736433,32.545358927645594,32.48865505169927
0.87,31.222164073375428,131.01044337735595,16.62815035597337,6.617938851688952,0.0014173592877174,30.22670826130675,0.0020207878788223,1.9386107684834684,327.964078366998,32.824184316375565,13.33510455273818,69.89918334163012,0.0003296980847175,113.70038133437758,658.8765464698978,15.288,0.0,1.4230234550118632,0.0964765529095643,6.08857607952527e-08,-0.009192429724135,6.513393608896977e-06,0.0007996271331572,6.617939002790812,16.670029789335924,32.824406954651835,30.288811599490224
0.88,31.22216359693464,131.0104446673582,16.922785990447974,6.59829617392884,0.0014395744575986,26.18097879159604,0.0020313195454326,1.9079537235820327,294.4828134710418,33.122553942135404,13.457704422706968,69.89382887821422,0.0003398937267775,113.70039282607652,670.8902900735864,15.288,0.0,1.4271954968455616,0.0973538419240546,6.403539848093814e-08,-0.0095382826127225,6.593534133113017e-06,0.0008372303712591,6.598296330272624,16.541866654017724,33.1227800699624,26.250408416319758
0.89,31.222163116240807,131.01044596887127,17.22004315698852,6.574593174753045,0.0014607121118302,28.6745334786802,0.0020426978196789,1.875937429406333,315.028134248087,33.440361511996,13.586913895373009,69.88827428171294,0.0003502090451204,113.70040444930892,683.8067811888434,15.288,0.0,1.4313419809885823,0.0982882718935094,6.729654804929472e-08,-0.0098919281089564,6.676978352201159e-06,0.000876577842922,6.574593336307283,16.406538942138905,33.44059096011795,28.73583156325241
0.9,31.22216263122064,131.01044728209476,17.519982581543758,6.560971966335645,0.0014839168763243,31.6303391240848,0.0020506939524484,1.8458583983767312,339.37814235421445,33.705887474197375,13.69790539796598,69.88251494690991,0.0003606496831205,113.70041621042608,694.6891220040253,15.288,0.0,1.435467240593976,0.0990690439489891,7.06713450606871e-08,-0.0102536245978345,6.763850120655142e-06,0.0009158181430023,6.560972133412752,16.29765673813417,33.70612056731521,31.684152987523795
0.91,31.222162141945347,131.01044860683515,17.82255322858689,6.543231768207265,0.0015060533766321,24.17027283660956,0.0020595337950666,1.814430365973673,277.7421810230789,33.99084272037253,13.815502276650117,69.87654631540565,0.0003712278625923,113.70042812497717,706.4642813776376,15.288,0.0,1.4395700591781069,0.0999069314044036,7.416200895458441e-08,-0.0106233773251464,6.8542190081230365e-06,0.0009568370471026,6.543231940777002,16.18132088650321,33.99107929068369,24.23828068966099
0.92,31.22216164861617,131.01044994254568,18.127603916021776,6.5215215804621725,0.0015270937264746,28.69415422546419,0.0020691973120632,1.781626162724152,315.02813424806214,34.295158638425555,13.9396943724088,69.87036387210111,0.0003819321672036,113.70044017444532,719.1496167514582,15.288,0.0,1.443648508892739,0.1008017330799943,7.777086588502661e-08,-0.0110010044617895,6.948110597924536e-06,0.0009996912158485,6.521521758483199,16.057920697079638,34.295398513747145,28.74941186841924
0.93,31.22216115114457,131.0104512894672,18.43520683324291,6.508948235215635,0.0015501099422011,34.050793841100514,0.0020756872240193,1.7507147329528163,359.1625070654728,34.55011540362911,14.046674251868764,69.86396287721901,0.000392785089875,113.7004523892207,729.860390995927,15.288,0.0,1.4477046779568885,0.1015514649007098,8.150000955030579e-08,-0.0113868112142961,7.04566307096512e-06,0.0010424122622267,6.5089484190007045,15.958279233198407,34.55035889432941,34.09577052353831
0.94,31.222160649422698,131.01045264789323,18.74544877727752,6.488029065328884,0.0015710097061257,24.831851925469728,0.0020843179716504,1.7172910956104166,283.0687504837787,34.84752461591444,14.168245367990508,69.85733876664382,0.0004037753058804,113.70046475128105,742.4577028494288,15.288,0.0,1.4517385197371924,0.1024259838121659,8.535154825297492e-08,-0.0117810254188351,7.147000617619919e-06,0.0010877522111559,6.488029254717158,15.841244435094742,34.84777138954198,24.89116234931384
0.95,31.22216014373848,131.01045401704118,19.0581118645176,6.468252759524261,0.0015919986721927,32.036321633213134,0.0020922024305268,1.683734415106384,342.4218736174873,35.13758975072646,14.287168118834591,69.85048665843301,0.0004149231929244,113.70047728736274,754.8466716838462,15.288,0.0,1.4557484247172314,0.1032789254301849,8.932796231377545e-08,-0.0121833808817049,7.252129224488221e-06,0.001134231478185,6.468252954606584,15.72906234016151,35.137839821293085,32.08053724214425
0.96,31.222159633802228,131.01045539769888,19.373422870529765,6.452999809110464,0.0016139603482351,31.397488594281533,0.00209826410197,1.6509908925880608,337.09533515678345,35.40149087948224,14.39690422316892,69.84340179275026,0.0004262192548604,113.70048998221024,766.2046098851396,15.288,0.0,1.4597375212778014,0.1040549727812541,9.343120044324168e-08,-0.0125944673388581,7.361264282090352e-06,0.0011812725470391,6.4530000100902205,15.629544254380043,35.40174439978087,31.440866167428656
0.97,31.22215911963452,131.01045678981055,19.691369600703904,6.435476285699369,0.001635232215926,20.230608313184906,0.0021045975109531,1.617244733946388,245.02188719299323,35.675909683836664,14.510171760382253,69.83607914492825,0.0004376848103503,113.70050286419904,778.1055372610781,15.288,0.0,1.4637054233316562,0.1048619433014198,9.766358895326314e-08,-0.0130143800251084,7.474504822963946e-06,0.0012300819116304,6.435476492578425,15.526810808234174,35.67616654551245,20.295147146062142
0.98,31.222158601521585,131.01045819259826,20.01173552080364,6.410109760431067,0.0016543355786625,29.28728243732293,0.002112966386586,1.5808459069834224,319.5937466429581,35.99239412158773,14.63793387446109,69.82851378019559,0.0004493170592144,113.700515926747,791.9477014497977,15.288,0.0,1.4676494647217664,0.1057925661567014,1.0202772755129685e-07,-0.0134427619534773,7.591834566390373e-06,0.0012818032635955,6.410109973016948,15.407980274083942,35.99265398401272,29.329916310991706
0.99,31.222158079317545,131.0104596064589,20.33463658062689,6.397986965796431,0.001676695003854,31.973415922647494,0.0021167381321347,1.5478437789506625,341.6609485517054,36.233213751086176,14.739333895145895,69.82070058655123,0.0004611234177236,113.700529178456,802.5558674076416,15.288,0.0,1.4715721372802997,0.1065007961567464,1.0652572914769056e-07,-0.0138800648995164,7.713442988860799e-06,0.0013323152926966,6.397987184584835,15.321725731377343,36.23347712572146,32.01085988547051
1.0,31.22215755302156,131.01046103139487,20.660076707572195,6.378235607438286,0.0016969427803481,28.65334375830601,0.0021224642211349,1.5122263606134263,314.2672081822764,36.51499796125941,14.854845279016931,69.812634554246,0.0004731175364243,113.70054263666016,815.0618173351772,15.288,0.0,1.4754717280134315,0.1073294426027233,1.1115992027381377e-07,-0.0143263419065246,7.839420719981007e-06,0.0013858035750984,6.378235832242582,15.219842636769188,36.51526451640799,28.693221178568336
1.01,31.22215702281261,131.0104624669198,20.987921924769527,6.359775690257692,0.0017173754532833,29.95394924925707,0.0021273376718032,1.4765842143533034,324.9203161036979,36.787713184208734,14.967111052569356,69.80431060562415,0.0004852865378523,113.70055628034152,827.2559419798541,15.288,0.0,1.4793491318421073,0.1081314412730014,1.1593279899296637e-07,-0.0147814629060906,7.969809517051204e-06,0.0014404613810077,6.359775921182161,15.122835973019972,36.78798294891407,29.990321457008612
1.02,31.22215648861569,131.0104639132378,21.318233176309057,6.3432978810419804,0.0017382063835538,25.059218181014128,0.0021311218913313,1.4411628166471295,284.59063161540416,37.047029192063576,15.074621749817684,69.79572350854727,0.0004976562583873,113.70057014430336,838.9330584838998,15.288,0.0,1.483205285715799,0.1088940639709718,1.2084659717062136e-07,-0.0152456848115994,8.104754850449939e-06,0.0014961252606334,6.34329811822204,15.032227879213163,37.04730222888379,25.10062490555635
1.03,31.22215595049856,131.01046537016487,21.650961657859487,6.321651419008613,0.0017574780502649,20.5316594432502,0.0021360987019905,1.4037046401107156,247.30469339049705,37.33458357705696,15.191850841763292,69.78686819119062,0.0005102159881764,113.70058421073028,851.9797590203566,15.288,0.0,1.4870395080987335,0.1097396980396288,1.2590371041071362e-07,-0.0157189978646709,8.244332089655203e-06,0.0015544971078789,6.321651662314091,14.93167426785084,37.334859641063495,20.5795877211666
1.04,31.22215540852229,131.01046683753515,21.986063872860456,6.304946807890996,0.0017779671991341,32.47199384668975,0.0021390210933059,1.3674107131831372,345.46563688072297,37.59122174443912,15.298241886079984,69.77773923956136,0.0005229903528797,113.70059851239816,863.7052451910016,15.288,0.0,1.4908523408009984,0.1104944672541948,1.3110656621323358e-07,-0.0162014693547339,8.388637866822823e-06,0.0016131717864435,6.3049470575676905,14.844169520264469,37.59150102687363,32.50077231410657
1.05,31.222154862407457,131.01046831610856,22.323757155884664,6.2840828761806415,0.0017971664342662,19.706583993775126,0.0021427997839119,1.3293500789891344,240.45625879819983,37.87049674597092,15.412403698104145,69.76833140567588,0.0005359719796489,113.70061303666267,876.5578677531754,15.288,0.0,1.494645848822023,0.1113157836906812,1.3645715379251302e-07,-0.0166937235329883,8.537929097965923e-06,0.0016744797707047,6.284083132132559,14.749029235357998,37.87077904421423,19.75137030506525
1.06,31.222154312386987,131.01046980525194,22.663866093907583,6.259712162002905,0.0018152000833774,27.94991744252092,0.0021472343782427,1.2896291873713623,308.17968365593924,38.16926081194863,15.533262016750047,69.75863914457939,0.0005491695897955,113.70062779313568,890.4138364172438,15.288,0.0,1.4984184554693896,0.1121943954328033,1.4195826386255528e-07,-0.0171954674447927,8.692206564641593e-06,0.0017383580569516,6.259712424142072,14.647743622346717,38.16954594291092,27.97965391307174
1.07,31.22215375834763,131.0104713052734,23.00648071382267,6.243474682644113,0.0018354465111413,32.86410535267372,0.00214852949387,1.25227431332722,348.5093681440308,38.41669015247388,15.63616131459015,69.74865677372506,0.0005625926953247,113.70064279298931,901.965650420374,15.288,0.0,1.5021722926963377,0.1129221236861578,1.4761217113212218e-07,-0.0177071262347619,8.85167722658114e-06,0.001801628465996,6.243474951366235,14.56656222198743,38.41697846373761,32.88795548834916
1.08,31.22215320019064,131.0104728164415,23.35167943973945,6.225505316318992,0.0018550858338123,22.218755123279426,0.0021498737759416,1.2139281868145408,261.00157857466235,38.67226844680279,15.741797808801744,69.73837863252866,0.0005762576911396,113.70065805724047,913.9764473658144,15.288,0.0,1.50590737014892,0.113673814032864,1.5342124485406212e-07,-0.0182289818189558,9.01651221833368e-06,0.0018670023575858,6.225505591621167,14.483175436624428,38.6725598430041,22.251892177811662
1.09,31.22215263818581,131.01047433802313,23.69925865949656,6.198851921775385,0.0018719901261375,20.462205269690365,0.002153558076249,1.1720030254802825,246.54375332474407,38.97980941706126,15.865459176964327,69.72779910894215,0.0005901536124287,113.70067356706758,928.5400319781936,15.288,0.0,1.5096199700923427,0.1145782537368146,1.5938843836568392e-07,-0.0187606154928624,9.18667557698888e-06,0.001936667663456,6.198852203332638,14.381979902289345,38.980103468582605,20.49574200238897
1.1,31.22215207240785,131.01047586981528,24.049164267256725,6.176684198110278,0.0018900662073213,40.764301312380525,0.0021552648853493,1.1312211154279357,413.1890617385841,39.25772458717417,15.978726969430648,69.71691237987574,0.0006042966842034,113.70068934288886,941.7960409741077,15.288,0.0,1.5133122079163253,0.1153956203870872,1.6551631825093653e-07,-0.0193020846582092,9.362270087922352e-06,0.0020067027722003,6.17668448616944,14.292517770036325,39.2580214780797,40.77999420480225
1.11,31.222151502463017,131.01047741288846,24.4016999959746,6.163451848754203,0.0019107745781469,29.92634782784573,0.0021534876750609,1.0934237154068296,324.1593910376397,39.47647935039502,16.071268313587563,69.70571249148634,0.0006187054874106,113.7007054091168,952.2889256108796,15.288,0.0,1.5169875865626892,0.1160390979442964,1.7180674123029257e-07,-0.0198543618275792,9.543683112164738e-06,0.0020755507179823,6.163452143797056,14.224668652808148,39.47677949416383,29.946316540972617
1.12,31.222150928412088,131.01047896707755,24.756821649674222,6.133517664759713,0.0019262027145883,11.477835285804437,0.0021566818244673,1.048753191549949,172.73281794065943,39.7997267303448,16.200177141252237,69.69419369462501,0.000633366074561,113.70072174279647,967.9151153517996,15.288,0.0,1.5206445160638684,0.1169897359775796,1.7826244888553461e-07,-0.0204173863107495,9.73099345065738e-06,0.0021518124990972,6.133517966060937,14.121187768818572,39.80002929755962,11.525649255296646
1.13,31.222150350834145,131.0104805308087,25.114090270598616,6.1126428449835775,0.001944271177159,35.22640135585991,0.0021563557428681,1.00712523502887,367.5328077900705,40.06294395288455,16.308084144373083,69.68234965211091,0.000648301074385,113.70073837260156,980.7264910562312,15.288,0.0,1.5242805908153696,0.1177639274847575,1.8488711540362105e-07,-0.0209901740015711,9.923984703674452e-06,0.0022267331966634,6.112643153020315,14.039467557006738,40.06324935828683,35.24079537089126
1.14,31.22214976908,131.01048210584662,25.47400345337681,6.098092831169945,0.0019642621728054,19.64612028763352,0.0021533606753418,0.9676689297625584,239.69531773195544,40.28201910852684,16.400481256442188,69.67017447557474,0.0006635145996658,113.70075530244364,991.4473018234092,15.288,0.0,1.527900600171669,0.1184083738496145,1.916819994143963e-07,-0.0215742531073394,1.0123234286964572e-05,0.0023011306208936,6.098093146329656,13.973371687782755,40.28232765410737,19.66993721776344
1.15,31.22214918362531,131.01048369089855,25.836200581591545,6.066700725706111,0.0019786944953868,19.370499185293728,0.0021554238702574,0.9208301547339192,237.41251153546767,40.60998819360222,16.530867239957686,69.65766220945908,0.0006790145980472,113.70077254010098,1007.6223439131549,15.288,0.0,1.531500187026104,0.1193729218544762,1.986507289536561e-07,-0.0221686247872861,1.0328520186881427e-05,0.0023836955019183,6.066701047181415,13.871450095309902,40.61029900620668,19.392374055467894
1.16,31.222148594604946,131.01048528559795,26.20058178425541,6.053609913900052,0.0019989173858861,50.19657184462028,0.0021508249635385,0.8812150889271704,490.0437743845894,40.8138930209324,16.617828634984164,69.64480649073573,0.0006948094377916,113.70079009428676,1017.7307702533932,15.288,0.0,1.535080875588502,0.1199727927503052,2.057960495312982e-07,-0.0227732915569823,1.05399344194847e-05,0.0024609216539938,6.053610242694914,13.811552811698238,40.81420701014107,50.2043062855282
1.17,31.2221480011648,131.01048689226664,26.567799022767726,6.031640971957727,0.0020161681627035,9.163106360267728,0.0021485919951366,0.8374563964916866,153.70937929486794,41.0742316489718,16.72442655215313,69.63160129113226,0.0007109072756735,113.70080797489348,1030.7193711245304,15.288,0.0,1.538647357073404,0.1207385607752461,2.131188184803939e-07,-0.0233902516504438,1.0758237000995124e-05,0.0025436244000279,6.031641307679526,13.733564959538516,41.07454834792615,9.20129643050648
1.18,31.222147404430075,131.0104885078462,26.936998207513447,5.997904217121149,0.002029286111438,24.5822165684574,0.0021497467348045,0.7879722289386436,280.02501822196746,41.413072564912845,16.858479491063513,69.61804026822081,0.0007273166364385,113.70082618940462,1047.758146394263,15.288,0.0,1.5421920039036887,0.1217350979414676,2.206242697872527e-07,-0.0240169820557245,1.0982690172783291e-05,0.0026332320014461,5.99790455915303,13.631070422489238,41.41339132442977,24.594842473037534
1.19,31.22214680389357,131.0104901337154,27.30856765969689,5.989864137105307,0.002050947761093,42.70542530100206,0.0021416870060209,0.7495827502406429,428.4078130529292,41.57279532676867,16.92974279067557,69.60411688728419,0.0007440462785022,113.70084474787032,1055.818074208944,15.288,0.0,1.545720982722526,0.1222051207450743,2.28313636879077e-07,-0.0246550475412018,1.1213914941905848e-05,0.0027135186285414,5.989864486950537,13.586659054433014,41.57311748888956,42.71200333660022
1.2,31.22214619911768,131.01049177106373,27.682840776139457,5.961010150103808,0.0020654463742194,4.703392555517923,0.0021399919514392,0.7013285807245258,117.1843741360236,41.87337392318145,17.050275564751313,69.58982506071231,0.0007611046466776,113.7008636599114,1071.1022563702743,15.288,0.0,1.549234717356239,0.1230892051105118,2.361887688387213e-07,-0.0253054236749424,1.1452354732386292e-05,0.002805134500954,5.961010506642841,13.49792367083846,41.87369836273916,4.755393557741362
1.21,31.22214559123129,131.010493416823,28.05896282136161,5.933166335271955,0.0020800739492802,34.357861579643,0.0021373860312178,0.6529797034510235,359.92343213200894,42.16536261006826,17.16779518057172,69.57515806823511,0.0007785008384216,113.70088293362954,1086.0529780381703,15.288,0.0,1.5527234894711657,0.1239480488905972,2.442551081351608e-07,-0.0259655554470336,1.1697229985944233e-05,0.0028982769748107,5.933166698588179,13.412805609477164,42.16568934732008,34.36406610672617
1.22,31.222144979373784,131.0104950733325,28.43758851540944,5.922940351398084,0.0021007754763431,24.97371212093351,0.0021282316838697,0.6127038730954107,283.0687504825761,42.329459444479376,17.24037102276399,69.56010946753834,0.0007962437624398,113.70090257974874,1094.4828997264624,15.288,0.0,1.5561955521789674,0.1244309547893601,2.525128894301354e-07,-0.0266378604450415,1.1949484174622436e-05,0.002984782538483,5.922940722626334,13.36777211899431,42.329789433519466,24.981227104862914
