Time,Latitude,Longitude,Altitude,Angle of Attack,Angle of Sideslip,X-Acceleration,Y-Acceleration,Z-Acceleration,Thrust,True Velocity,Ground Velocity,Pitch,Roll,Yaw,Dynamic Pressure,cp,parachute_deploy_gain,Wind Speed,Mach,omega_x,omega_y,omega_z,Cmq
0,31.2221860000000042,131.010383999999988,3.00000000364323682,0,0,0,0,0,2.2828121974499247,0,0,69.9999999962342088,0,113.699999993883324,0,15.2880000000000003,0,0,0,0,0,0,-0
0.01,31.2221859999997946,131.010384000000556,3.00000016469923247,0,0,0,0,0,34.2421869617492334,9.11367326775851009e-12,8.66229497295429822e-12,69.9999999962370651,-4.92863947922479589e-13,113.699999993882884,5.08594204168408172e-23,15.2880000000000003,0,0,2.67827100510624443e-14,-3.65918233213857746e-19,7.58941520739853104e-19,4.81114714040442593e-19,-1.83541113936281872e-32
0.02,31.2221859999996028,131.010384000001039,3.00000030885429547,0,0,0,0,0,25.8718762377664078,1.96992978605390895e-11,1.88456988716431921e-11,69.9999999962400494,-1.04152381447771591e-12,113.699999993882386,2.37621641206600858e-22,15.2880000000000003,0,0,5.78911013494094702e-14,-7.28448334638698292e-19,1.51788304147970621e-18,9.75781955236953991e-19,-7.93451985123442364e-32
0.03,31.222185999409362,131.010384001586402,3.00018176030779937,18.6493779029494604,-0.000129237623237530007,10.7928899806483045,-1.97644583900689674e-05,3.34983967390763571,180.342193598546658,0.0785672533977095078,0.0490694047558625918,69.9999999976775626,-4.2497891361524094e-12,113.699999994705607,0.00377978965327356543,15.2880000000000003,0,0,0.000230888677896110966,2.88330015245363835e-17,-7.25223402354589416e-10,1.08188208080271277e-11,1.51197624781400831e-13
0.04,31.2221859959356287,131.010384010943454,3.00162780953569674,9.74253989061216075,-4.88763086122285772e-05,51.6475445943311158,1.54548216767323456e-06,3.34965665682309899,548.635972453807767,0.346420694310776434,0.171860503977579737,70.0000000036447574,-2.28205307288861013e-11,113.699999999565534,0.0734838809649275282,15.2880000000000003,0,0,0.00101804013696402693,1.80009747884589399e-15,-1.58734069119923437e-08,2.61929145365345784e-11,1.45916869803439425e-11
0.05,31.222185985910329,131.010384038045004,3.00715844163023283,5.5769968489095687,-4.21135943534799539e-06,75.3242160169835273,4.73080294831520123e-05,3.34902689347595528,761.698429882464552,0.947854334293939504,0.409211128642743283,70.0000000010935537,-1.04766136577077691e-10,113.700000013612069,0.55013262299765131,15.2880000000000003,0,0,0.00278549703395658196,1.95473045844392346e-14,-1.13584749331540247e-07,4.14067569904437612e-11,2.85688606727574374e-10
0.06,31.222185966868647,131.010384089593572,3.01868664272593046,4.48500474963244322,2.31139019787050305e-05,56.3605563030587007,9.71465785775115924e-05,3.34799244711343214,590.487539073720654,1.60618980149218604,0.665693519146445256,69.9999999197690244,-2.82941102348924619e-10,113.700000040305838,1.57971028663545732,15.2880000000000003,0,0,0.00472017413217633904,1.01936766184118274e-13,-4.07864410983111553e-07,5.76522069423461223e-11,1.73837509686130208e-09
0.07,31.2221859390775336,131.010384164863126,3.03600551209402658,4.00448286551149391,4.63712119495135773e-05,85.8192455386477917,0.000147926970097503541,3.34656708333141317,855.293774977913927,2.27788210706903049,0.926660947343454056,69.9999996219982279,-5.49831570978999292e-10,113.700000079276109,3.1772067926123353,15.2880000000000003,0,0,0.00669410445039518576,3.35900025920073467e-13,-9.92070622953462368e-07,7.83315922772719921e-11,5.99658406989250883e-09
0.08,31.2221859009658012,131.01038426812616,3.06033476575187802,3.77263127792190334,7.06371256062416025e-05,17.6076228145981588,0.000196957592070898702,3.34480227118667583,241.217198863884818,2.92612482887636283,1.17954495655796454,69.9999989088305909,-9.15694670892462832e-10,113.700000132739973,5.24285298735243899,15.2880000000000003,0,0,0.00859912396431777512,8.49635706706491564e-13,-2.01744800413265681e-06,1.10032289818440005e-10,1.56647792516492608e-08
0.09,31.2221858556197738,131.010384390989856,3.0892797608365723,3.74258231141200604,9.5325675231994802e-05,53.4176180048964397,0.000237730218002333866,3.34289666486112669,563.093737704317618,3.46187703891102627,1.39384941462988121,69.9999975134546446,-1.31671842773002699e-09,113.70000019638816,7.33844512707370811,15.2880000000000003,0,0,0.0101735644468633635,1.80613395740032365e-12,-3.4856561047658452e-06,1.59232278560273843e-10,3.20202005890100843e-08
0.1,31.2221858028175774,131.010384534057465,3.12301320909491364,3.81071421019783685,0.000121971080758598364,50.732831688561788,0.000271545837515448313,3.34090447591365036,538.7437595981919,3.9029133825176725,1.57567038389986336,69.999995157830341,-1.72222432289554893e-09,113.700000270567642,9.32732681847184431,15.2880000000000003,0,0,0.0114696609641860067,3.37914451533694905e-12,-5.48904943388414521e-06,2.34452541412924053e-10,5.68476506314615152e-08
0.11,31.2221857431700727,131.010384695667796,3.16106164078641116,3.84323765504598036,0.000147145408783231387,40.0848474374385688,0.000307099758177995722,3.33859717034531034,442.865639305294906,4.36819921201157246,1.76578242121538631,69.9999915253729768,-2.07703942468805025e-09,113.700000354470319,11.6837607126815346,15.2880000000000003,0,0,0.0128370221364947634,5.76365694334259916e-12,-8.08162139954488366e-06,3.4437809457680147e-10,9.36754562129998513e-08
0.12,31.2221856770245907,131.01038487487628,3.20315617196047642,3.86558564807459826,0.000171348089099210797,43.7480799143332604,0.000342946594964391399,3.33600966231316054,475.585948135404465,4.83801864946757032,1.95742650583495204,69.9999862600106582,-2.3147200577597177e-09,113.700000447673773,14.3321420062794882,15.2880000000000003,0,0,0.0142177082532951912,9.17772063248746377e-12,-1.13223702306849879e-05,4.98555567062495836e-10,1.45354343598177095e-07
0.13,31.2221856047215205,131.010385070757366,3.24903338361815308,3.95285669440916232,0.000198169826234992146,48.2585391180499741,0.000371981107240517913,3.33344523512332414,515.915632623689476,5.21512035057569623,2.1172615234944101,69.9999789703044399,-2.35265113573284059e-09,113.700000549782459,16.6533950244453948,15.2880000000000003,0,0,0.0153259223232261182,1.38588880633063252e-11,-1.52681962163171846e-05,7.07166414280215559e-10,2.11287244421402401e-07
0.14,31.2221855263490333,131.010385283071088,3.29862557546706325,3.99981420118284792,0.000223008237377726162,44.9721767850953427,0.000403855591455553264,3.33052592490198407,486.239086056840392,5.63167615200940475,2.29059513099545553,69.9999692426645623,-2.0964169591742506e-09,113.700000660771011,19.4199179783547713,15.2880000000000003,0,0,0.0165500839355928395,2.00553635588333716e-11,-1.99811439493909854e-05,9.81252131659242702e-10,2.9859131057555361e-07
0.15,31.2221854420015994,131.010385511560628,3.35186028506811029,4.05975476911301225,0.000248539990764711958,43.4637160193537753,0.000433543226731567866,3.32747422849243879,472.54218587214001,6.01888316560526437,2.45383766868271946,69.99995661705006,-1.43188768134039915e-09,113.700000780625842,22.182048585914238,15.2880000000000003,0,0,0.0176879988684610287,2.80404916713566325e-11,-2.55291719775422389e-05,1.33309260321839681e-09,4.07727088477750495e-07
0.16,31.2221853515819241,131.010385756490507,3.40881389436676407,4.08854462484130732,0.000272210944932510383,34.4023069357135967,0.000465877824565354701,3.32404684464906053,391.12189082975641,6.44303061809316624,2.62971580822363071,69.9999405987561403,-2.27841984783363582e-10,113.700000909623355,25.4183784408083007,15.2880000000000003,0,0,0.0189344747787753703,3.81042963600432359e-11,-3.19913711614788564e-05,1.77662362644707755e-09,5.46937370926295155e-07
0.17,31.2221852554099399,131.010386016990765,3.46923909377793649,4.13347468842419552,0.00029684158695823977,43.4155809381403728,0.000495744973995866601,3.3205135250562221,471.78125980632376,6.83404379119085981,2.79420112365087148,69.9999206448319882,1.67575894446247236e-09,113.700001047478835,28.5969980778046526,15.2880000000000003,0,0,0.0200835795555658371,5.05622819343119236e-11,-3.94162603380559734e-05,2.32482468580976756e-09,7.14768170397066036e-07
0.18,31.2221851530022434,131.010386294375877,3.53351204963262022,4.16207877285686756,0.000320492787063832857,36.2151660219171347,0.000526966735016640565,3.31665933612355879,407.101567211914528,7.2444022294323478,2.96528531587496236,69.9998961790314524,4.45070668055043651e-09,113.700001195059045,32.1341903991183955,15.2880000000000003,0,0,0.0212895378539265934,6.5741708189353534e-11,-4.79243856484647045e-05,2.99669991322666987e-09,9.21230820748327094e-07
0.19,31.2221850444828668,131.010386588308563,3.60153760019172342,4.17456309251139679,0.000342914278589344943,40.9041800427263027,0.00055982867240863632,3.31244583927210501,448.953132831826849,7.67810673790947895,3.14433961722118216,69.9998665624008964,8.30674092292676784e-09,113.700001352409558,36.0967170721845179,15.2880000000000003,0,0,0.0225641073333706747,8.40032927522686365e-11,-5.75836346763551867e-05,3.80911503044151526e-09,1.17316671380156179e-06
0.2,31.2221849296486234,131.01038689934137,3.67347464118590317,4.20078915399145636,0.000366573034254704516,37.5214898208491761,0.000590466919182690893,3.30812712915434881,418.515630199161365,8.08216006412957277,3.31318683933006453,69.9998311045104487,1.34800080829191884e-08,113.700001520067786,39.9955165273270055,15.2880000000000003,0,0,0.0237515420632470921,1.05728805481567758e-10,-6.85028882131185225e-05,4.78351733027568889e-09,1.4690610466811608e-06
0.21,31.2221848088436893,131.01038722653837,3.74905730552401684,4.22722562033261262,0.000390310433246848657,36.0064697775761644,0.000620601272787201603,3.30359776763142721,404.818761014464428,8.48018829437500621,3.47992805775657654,69.9997890742529592,2.02433263776548733e-08,113.700001697833756,44.0315784885794201,15.2880000000000003,0,0,0.0249212734096428447,1.31320595517854955e-10,-8.07208291683553139e-05,5.93661589182972911e-09,1.81631626331753899e-06
0.22,31.2221846819136672,131.010387570319409,3.82840670130281646,4.2176244726165093,0.000410696285369717819,43.5935627685881499,0.000655758920494764063,3.29841875767922987,472.542185872136486,8.94831461811120121,3.67066782999472752,69.9997397083127737,2.88926538075102191e-08,113.700001886238866,49.0266756129506618,15.2880000000000003,0,0,0.0262970098082033268,1.61186003536399267e-10,-9.43348117723774896e-05,7.29106197993283208e-09,2.23980539128825791e-06
0.23,31.2221845484548304,131.01038793178239,3.91183756115468473,4.25320537954326383,0.0004356497720089569,36.207459360748949,0.000683686922722525747,3.29355466128287455,406.340642146102141,9.31799902525197865,3.82760028360492655,69.9996821549030983,3.9766623706965518e-08,113.70000208621326,53.1608354775167555,15.2880000000000003,0,0,0.0273834518362109196,1.95767624418301473e-10,-0.000109505708778552874,8.87784718088286285e-09,2.70740355927931971e-06
0.24,31.2221844093456014,131.010388308538637,3.99866964940866776,4.27135264557773553,0.00045883378920767232,37.3286080087975947,0.000713911697673520317,3.2882529474867046,416.232824001711379,9.7203332459195213,3.9956861712714935,69.9996155408946805,5.32509871046438109e-08,113.700002296918697,57.8502398901668755,15.2880000000000003,0,0,0.0285658473732890855,2.35534745143307651e-10,-0.00012617657385590063,1.07071802425012536e-08,3.25424194465518317e-06
0.25,31.2221842644570167,131.010388700938847,4.08900446593793809,4.29698686981540234,0.000482848983334858658,38.3649566400252979,0.000742483922667206905,3.28284626589867479,425.364080791506922,10.1009615935159527,4.1562806652626314,69.9995389781877293,6.97479781374676735e-08,113.700002518962805,62.4689963611702623,15.2880000000000003,0,0,0.0296844577155840929,2.80933085873043406e-10,-0.000144451636124542286,1.28055329635332884e-08,3.87142965072796435e-06
0.26,31.2221841140756986,131.010389108203611,4.18262110402873155,4.32755423691547136,0.000507438991606541483,41.7865661614553829,0.000769736419800412888,3.27732087646770287,455.80158342417883,10.4644497354123782,4.31094871887776954,69.9994515368878751,8.97024502886333285e-08,113.700002752408935,67.0452443356678742,15.2880000000000003,0,0,0.0307527002093570291,3.32431765373287754e-10,-0.00016436315770221847,1.51925047864838523e-08,4.56355359993810651e-06
0.27,31.2221839578137299,131.010389531387915,4.27982215321117465,4.33742811840656994,0.000529702335486379188,38.2242911032538473,0.000800211178185602123,3.27123004841987974,423.842199659872563,10.8736118498261902,4.48123226393084195,69.9993522521519935,1.13587393208351198e-07,113.700002998306658,72.3900346549699947,15.2880000000000003,0,0,0.0319551720828357214,3.90484337603431509e-10,-0.000186059811616844751,1.79019946498730075e-08,5.36790267753501075e-06
0.28,31.2221837957695953,131.010389970223883,4.38053283172365671,4.35979025650862262,0.000553527510562852902,44.1207307275094038,0.000828072271385077072,3.26514386100193477,476.346873201222195,11.2478718916014184,4.63949182586423614,69.9992400702920463,1.41938296327408329e-07,113.700003257081931,77.4582454645660761,15.2880000000000003,0,0,0.0330550782151640757,4.55595825375374429e-10,-0.000209619220926101062,2.09616181379585756e-08,6.25569396794615011e-06
0.29,31.2221836278828384,131.010390424876022,4.48480177698289584,4.38135974025744623,0.00057737648726709299,35.3536197607625553,0.000855659611391794222,3.2588361863853601,397.970310422111766,11.6195889013503368,4.79682445966682813,69.9991139044831527,1.7532937395312496e-07,113.700003529427192,82.6616578528940948,15.2880000000000003,0,0,0.0341475147840558241,5.28268525040872464e-10,-0.000235137545717689308,2.44023887909330158e-08,7.24907222782668121e-06
0.3,31.2221834544381096,131.010390894570321,4.59240982688131272,4.39617507281761988,0.000600356665334356751,33.1490797613948018,0.000884158719714270942,3.25217107922164672,378.185945710871067,12.0052186882677852,4.95887519756831807,69.998972627127344,2.14383684192303281e-07,113.700003815596887,88.2385269149682756,15.2880000000000003,0,0,0.0352808420099011907,6.09029939588318471e-10,-0.000262641159892275291,2.82471356422800846e-08,8.36561857411674722e-06
0.31,31.2221832755909574,131.01039137888381,4.7032380575360353,4.42235615181669761,0.000624899913490765827,34.9528590290802086,0.000910025197609511073,3.24555398289468222,394.16562209302117,12.3556398803864607,5.10879227158949156,69.9988150759387651,2.59766173767152649e-07,113.700004116072961,93.4639131761651498,15.2880000000000003,0,0,0.0363107024397255479,6.98403788157463991e-10,-0.000292187019282257228,3.25229566712151178e-08,9.57826248689966157e-06
0.32,31.2221830914257232,131.010391877587324,4.81722282885169673,4.45155794779377789,0.000649944303128982049,38.0379859115142835,0.000934821026682707218,3.23882361682650144,421.559393462426954,12.6924793110791878,5.25399282922068878,69.9986400687318024,3.12179641788393281e-07,113.700004431478234,98.6283237403037703,15.2880000000000003,0,0,0.0373006526995305274,7.96905013945712519e-10,-0.000323836613651358495,3.72580440687311147e-08,1.09050644159405278e-05
0.33,31.22218290196043,131.01039239063175,4.9343519698327194,4.48019701204722054,0.000675004219851668761,37.7093551175013246,0.000959261610436717115,3.23189933669563656,418.515630199168186,13.0256844327599097,5.39788776638052958,69.9984463826819052,3.72372687880250348e-07,113.700004762578004,103.87354288045799,15.2880000000000003,0,0,0.0382799263433428877,9.05047894999210997e-10,-0.000357667290238851605,4.24836225249657193e-08,1.23603484615852587e-05
0.34,31.222182707020778,131.010392918491164,5.05476263450916541,4.49049305198152204,0.000697378143373914754,29.5227085089536203,0.000987142430045659337,3.22427911658814059,345.465636880756449,13.4081741031825317,5.55863100914667463,69.9982327456812641,4.41143957445642244e-07,113.700005110463266,110.062177258613033,15.2880000000000003,0,0,0.0394040418267209702,1.02333461745717641e-09,-0.000393806243978271305,4.82396483202145133e-08,1.40087103268591529e-05
0.35,31.2221825067937928,131.010393460657156,5.17831168393457641,4.50711781535187139,0.000720712543856854714,32.3530371383660977,0.00101333646443235357,3.21661305844837253,370.576570052703289,13.7686530554979374,5.71176159517965232,69.9979978091806316,5.19362042776584697e-07,113.700005475786654,116.058400304168075,15.2880000000000003,0,0,0.0404634764462946869,1.15232390415689195e-09,-0.000432299813734132244,5.45552399130644805e-08,1.57912776608867467e-05
0.36,31.2221823012122108,131.010394017312592,5.30505329869157727,4.52767240178778962,0.000744729708600240731,36.5526511043957356,0.00103828652712813154,3.20885713174522058,407.862523277719447,14.1132764952183631,5.85938873702120233,69.9977401961163537,6.07939829707116331e-07,113.700005859608282,121.939407863977465,15.2880000000000003,0,0,0.0414763190843316643,1.29254043868676357e-09,-0.000473255972436325862,6.14699225552327593e-08,1.77198251922661022e-05
0.37,31.222182090341061,131.010394588280832,5.43493909097431604,4.55039311415752579,0.00076918150115683735,34.6835787828593496,0.00106234372950533948,3.20097384516078431,391.121890829766642,14.446930470491731,6.00318739776240751,69.9974584775585669,7.0785096329375243e-07,113.700006262864989,127.771540530283914,15.2880000000000003,0,0,0.042456928843506235,1.4445318520011827e-09,-0.000516746496826029863,6.90186481791334769e-08,1.98053803654614999e-05
0.38,31.2221818741223878,131.010395173719473,5.56801609611825477,4.56315131642791805,0.000792019287104061913,36.2353933787001239,0.00108827974821363053,3.19255015153205646,404.818761014460279,14.8084413239345949,6.1564787166299757,69.9971511865591651,8.20121521966083772e-07,113.700006686723384,134.244380272309172,15.2880000000000003,0,0,0.0435194095147296359,1.60882660749176723e-09,-0.000562873331420229127,7.72423853301427293e-08,2.21128406351508731e-05
0.39,31.2221816525004634,131.010395773780147,5.704329739781131,4.57922628245169783,0.000815489716137310881,30.9425419640016202,0.00111309493143926189,3.18402316666385765,357.640624933827439,15.1559126959619999,6.30488433186772657,69.9968167722787769,9.45855271408966431e-07,113.700007132429306,140.616382889747683,15.2880000000000003,0,0,0.0445406353688629561,1.78596578656278109e-09,-0.000611756345505213715,8.61868943159197994e-08,2.45968452142520012e-05
0.4,31.2221814256617982,131.010396387955836,5.84373750626454935,4.59349479979191955,0.000838670682925170751,29.5834243852937959,0.00113797512888990423,3.17521289611434332,345.465636880754005,15.505969085398343,6.45410901523083158,69.9964536498379317,1.08621525395706341e-06,113.700007600947828,147.185065961143067,15.2880000000000003,0,0,0.045569462889951777,1.97653506559195414e-09,-0.000663427505461186432,9.58835144134294998e-08,2.72901174189528038e-05
0.41,31.2221811937141673,131.010397015953487,5.98615797249314241,4.60939449845229365,0.000862163931524819621,33.360545626359837,0.00116210409424792778,3.16624854525325983,378.946870776686467,15.8471768437686258,6.60022848408685459,69.9960602026584695,1.24241947051318175e-06,113.700008093413757,153.73182724817184,15.2880000000000003,0,0,0.0465722905345462151,2.18109996727848554e-09,-0.000717942131686907965,1.06367950505874699e-07,3.01820283711074823e-05
0.42,31.2221809567080335,131.010397657635991,6.13155423418529733,4.63387609959193458,0.000887317919769279608,37.5676427387571721,0.001183742077125155,3.15743374731593907,416.232824001711379,16.155026338188506,6.73482947265292431,69.9956347739890248,1.41574639558456e-06,113.700008611107208,159.760443802515937,15.2880000000000003,0,0,0.0474770882933877245,2.400206535531791e-09,-0.00077537935552726017,1.17680930846389008e-07,3.32294321368729263e-05
0.43,31.222180714655078,131.010398312971745,6.27991949833728835,4.65367427313455995,0.000911660169575580258,33.0386483003103493,0.00120612360190941372,3.14823214930187856,375.903139513433644,16.4750454055619109,6.87353555569934649,69.9951756835756242,1.60752723178871754e-06,113.700009155418982,166.15023929888028,15.2880000000000003,0,0,0.0484176551665520677,2.63438237315801404e-09,-0.000835821567166909188,1.29864614855892046e-07,3.65287677570896608e-05
0.44,31.2221804673911407,131.010398982407111,6.43138341412837455,4.65757387742934892,0.000932929976641759203,30.4788052564327749,0.00123214974254881528,3.13809943757763454,353.075012538921555,16.8483715860516412,7.03046484016701978,69.9946811832270441,1.81916859536649675e-06,113.700009728069276,173.762989227436179,15.2880000000000003,0,0,0.0495148886868988364,2.88411342836306464e-09,-0.000899417740154189794,1.42975581697416844e-07,4.01983191819108926e-05
0.45,31.2221802146980103,131.010399666535704,6.58611776122768511,4.65827001030579346,0.000953562143933252499,35.4620561517945134,0.00125873275223327787,3.12754579585638304,397.209385356286873,17.2316459864824161,7.19073264961644831,69.9941493995125938,2.05218870761162579e-06,113.700010330973456,181.755888424112015,15.2880000000000003,0,0,0.0506413642318551335,3.14987863732273609e-09,-0.000966369542842942814,1.57083782729145849e-07,4.41725079750487196e-05
0.46,31.2221799565319174,131.010400365476642,6.74415901717088939,4.66907507286434065,0.00097630283571516251,41.3913707355688842,0.0012823814722795761,3.11722412848720953,449.71405889764344,17.5754687869478978,7.33738035579407555,69.9935783582983362,2.30821229426708146e-06,113.700010965912341,189.078525726536213,15.2880000000000003,0,0,0.0516519027755614896,3.43223060675433133e-09,-0.00103681314204437207,1.7224885851047691e-07,4.83373548649469587e-05
0.47,31.2221796928065203,131.010401079464799,6.90557672428163105,4.67806301106434042,0.000998761260684927557,28.0209900204918974,0.00130616618884544979,3.10657060381263461,331.007810630253402,17.9233234115620377,7.48533101007974988,69.9929660462147325,2.5889364060732201e-06,113.700011634803886,196.634049649816575,15.2880000000000003,0,0,0.0526742959306323727,3.73170463860384924e-09,-0.0011108841623615434,1.88532207060213475e-07,5.28148505664365441e-05
0.48,31.2221794239793269,131.010401807256216,7.07001851744381948,4.68642527483421745,0.00102109091231145262,27.6007969606275125,0.00132978852885184593,3.09563681785184297,327.203122301157407,18.2709832353803314,7.63313726727991071,69.9923104035261474,2.89614261094227829e-06,113.700012338884164,204.33305198470137,15.2880000000000003,0,0,0.0536961221459722679,4.04904859899578719e-09,-0.00118849531779471017,2.05948560519311644e-07,5.75998398329450787e-05
0.49,31.2221791502289392,131.010402548365278,7.23734841566291642,4.70156796398202914,0.00104489945272251677,34.6487244505178253,0.00135120419031512233,3.08484494341801163,389.60000969812296,18.589315545984995,7.7707981814672209,69.9916093757078812,3.23165731652504743e-06,113.700013079832303,211.511801733856089,15.2880000000000003,0,0,0.0546317638991248022,4.38486615800834454e-09,-0.00126967773493266863,2.2453662401782158e-07,6.26054017926546362e-05
0.5,31.2221788715876762,131.010403302704333,7.40754387012007864,4.72212438923579736,0.00106996435823571525,35.6033845714535389,0.00137072557486675028,3.0741588573465477,397.970310422105001,18.8826594549893159,7.8998011517407587,69.9908609011483378,3.5973597360057951e-06,113.700013859590555,218.236320199079358,15.2880000000000003,0,0,0.0554939729313439212,4.73968531279909998e-09,-0.00135450679800636423,2.44344941868023912e-07,6.78409867869358833e-05
0.51,31.2221785881337617,131.010404070060673,7.5805467220577798,4.73558879650721298,0.00109346949398930206,27.1956639286467201,0.00139183542187690463,3.06284319292573448,323.39843497208409,19.200774511812984,8.03722958125224807,69.9900628955037689,3.99519228958782199e-06,113.700014680103109,225.647740475438098,15.2880000000000003,0,0,0.0564289867670437692,5.11403675587933804e-09,-0.00144303978709531136,2.65418546512062939e-07,7.34915902759761199e-05
0.52,31.2221782999013868,131.010404850474288,7.75637073941223498,-16.4950932937338131,21.74396126827925,33.3483725039644696,-1.10232499411125029,4.05984335689742437,372.098451184341457,19.1283777317605193,8.17882386360128777,69.9892118024353351,1.40010246503539477e-05,113.700025732485003,223.945551921948521,15.2880000000000003,0,10.0257722823219062,0.0562163320106509115,5.51004364666846645e-09,-0.00152439913421960251,9.98661893153249681e-05,7.73410551721241159e-05
0.53,31.2221780071308466,131.010405645366973,7.93514189614478749,-16.1614925397774876,21.4577492302753754,34.9903226414722255,-1.13082701045860579,4.07627574400581683,386.55624643486243,19.4144568173716792,8.32951517800544394,69.9884067634353215,0.00044779416129407673,113.700487809321714,230.690226654774023,15.2880000000000003,0,10.0639027763407611,0.0570572040451174795,6.02136840909323263e-09,-0.00126103075889866852,0.000492472039127656177,6.49346837023576941e-05
0.54,31.2221777098203468,131.010406455522286,8.11693522114401844,-15.8398033648500416,21.1802739126905131,30.7863130921172292,-1.15971757131255293,4.09277881600711968,349.270324209843579,19.6997035502986009,8.47967681478784208,69.9877541733990824,0.00150636126518442206,113.701614816486668,237.51470769242701,15.2880000000000003,0,10.1019567053202692,0.0578956352365395804,6.64361791321015256e-09,-0.000991660986580094857,0.000895257239782739451,5.18132867881272835e-05
0.55,31.2221774082313601,131.010407280262143,8.30154862464949339,-15.5339633811299667,20.9166907753714746,32.6001155174571196,-1.18864885230090955,4.10910402230171456,365.250000591990727,19.97891016387916,8.62734049795542468,69.9872573677489243,0.00320541736288503876,113.703423482849757,244.290745979860304,15.2880000000000003,0,10.1398714097930593,0.0587163203378119822,7.37688346358391094e-09,-0.000716669931946537593,0.00130781302653704243,3.79753253685883086e-05
0.56,31.2221771023767047,131.010408119603937,8.48898143018218398,-15.2463877144685735,20.6704595183069948,30.4570414875530773,-1.21734239133047262,4.12506108311371023,346.226561946578727,20.2480101867967051,8.770999882777053,69.9869195648734319,0.00556046955496613138,113.705930314479886,250.91135317449374,15.2880000000000003,0,10.177647182257239,0.0595073082768118183,8.22094234023633256e-09,-0.000436015292173924044,0.00173030342012322471,2.34146020662366889e-05
0.57,31.222176792335695,131.010408973383392,8.67918129568887586,-14.9606017710551118,20.422032754688729,30.119879599430412,-1.24697784971711156,4.14149120079576338,343.182829683302316,20.5247129789817251,8.91739124016368123,69.9867439349474552,0.00858707508253185245,113.709151868682937,257.811250155402547,15.2880000000000003,0,10.2152820389442862,0.0603206454317285687,9.17555011274546963e-09,-0.000149792424735279166,0.00216270377073335233,8.15383128668985239e-06
0.58,31.2221764780996764,131.010409841674658,8.87216401092580043,-14.6667126964948089,20.1592029380689901,39.5107892605715634,-1.27842455490586526,4.15899239874510407,426.12500585731533,20.8214491257340768,9.0711846993134202,69.9867336391762649,0.0123009942404737546,113.713104916804255,265.314836253227838,15.2880000000000003,0,10.2527726814814582,0.0611928647032430398,1.02403294738797755e-08,0.000142049206015072157,0.00260519109585366808,-7.84398026923394043e-06
0.59,31.222176159306894,131.010410725514561,9.0682196015061507,-14.4014938647537356,19.9274879104575753,32.1143546838738843,-1.30867193161424678,4.17545751986942282,360.68438819711065,21.0933961249849879,9.21549429632784189,69.9868920576589346,0.0167190770561811454,113.717807388104305,272.285474062086905,15.2880000000000003,0,10.2901743786825914,0.0619922360948438403,1.14145688562104644e-08,0.000440193916356019458,0.00305883615956500368,-2.46245951281950969e-05
0.6,31.2221758361660733,131.010411624388155,9.26719570459435538,-14.1160280725597325,19.6662652933319499,28.5900605585687231,-1.3418756278222721,4.193770192998163,329.48595949860578,21.4014487705286953,9.37322278528883857,69.9872225781255679,0.0218584657593800073,113.723277519482124,280.291227794238807,15.2880000000000003,0,10.3274485606563431,0.0628977256757963094,1.2698145387938809e-08,0.000744323894310767878,0.00352331141849939996,-4.22450074461248252e-05
0.61,31.2221755086443338,131.010412538437919,9.4691274101613363,-13.8347888788800155,19.4058846580446875,33.4220634917399693,-1.37604467634959682,4.21253197105227706,372.09845118432969,21.7158058102998801,9.53313070392304063,69.9877286416133302,0.0277367822991894664,113.729534056010621,288.580270330278893,15.2880000000000003,0,10.3645990549552582,0.0638217497728546801,1.40906332650533471e-08,0.00105455614613353421,0.00399889738112275094,-6.07305887871746584e-05
0.62,31.2221751768597287,131.010413467396489,9.67393294475681564,-13.6029630516881639,19.2044894873169198,41.4453343288588414,-1.40670941574641484,4.22870457785214793,442.86563930529212,21.9724654913959014,9.67135224704814433,69.9884137007071843,0.0343721293265795841,113.736596254023596,295.436247386224011,15.2880000000000003,0,10.4016234287360252,0.064576209916586122,1.5591750789359577e-08,0.00137082045146927518,0.00448560695758625297,-7.98753290586833812e-05
0.63,31.2221748406536932,131.010414411743682,9.88174419444412244,-13.3647086798524644,18.991416554972492,23.692700239007273,-1.43907314334522196,4.24584894745439989,286.112512747078938,22.246534113203019,9.81598942139781272,69.9892810985389957,0.0417820068304141159,113.744482717358181,302.846284361686401,15.2880000000000003,0,10.4385271320891615,0.0653818400726946664,1.72006632826006759e-08,0.00169336219775075253,0.00498391816031888354,-9.98980125610375081e-05
0.64,31.2221745005769051,131.010415370033627,10.0921437750504079,-13.1127956571223443,18.7570315457490864,23.2653843140240326,-1.47401995301225797,4.26453436400566854,282.307824417967538,22.5501385007567983,9.97148257314986886,69.9903340579716513,0.0499841865147705386,113.753212343110206,311.162450291134405,15.2880000000000003,0,10.4752043849472134,0.0662742808000379019,1.89177659361872998e-08,0.00202126729881003117,0.00549262024728081662,-0.000120867298939639895
0.65,31.2221741566223301,131.010416342332633,10.3051459859203813,-12.8966971817987712,18.565985327654591,40.7828117415404634,-1.50628120876117677,4.28123201620936022,436.778144778747503,22.8087851864707361,10.1101810841020328,69.9915756422905702,0.0589961031394383925,113.762803667188734,318.334847557469914,15.2880000000000003,0,10.5117534254983802,0.067034597882135491,2.07422737550951432e-08,0.00235465421993590182,0.006011989919092341,-0.000142415174320547429
0.66,31.2221738083336042,131.010417329924508,10.5211126893682625,-12.6789191694800234,18.3696405713468671,34.7502588125351863,-1.53978906882151012,4.29857864949943025,383.512515171600171,23.0778462051675568,10.2526772599163678,69.9930090202722681,0.0688354315929164823,113.773275469293381,325.882782391604849,15.2880000000000003,0,10.5481336330639337,0.0678255284926363722,2.26724099935916509e-08,0.00269432299466009547,0.00654332350474543748,-0.000164878070502539708
0.67,31.2221734558922179,131.010418332365276,10.7399124925332377,-12.4499988982359451,18.1552108592767532,24.0523557879096828,-1.57577694413760883,4.31737176084777996,289.156244010342505,23.3738442673791802,10.405032720919051,69.9946374508209175,0.0795211720392008659,113.784647946222734,334.28895958391189,15.2880000000000003,0,10.584358462342399,0.0686956330118300429,2.47079340476313468e-08,0.00303999578848846265,0.00708633519419770916,-0.000188413478390199159
0.68,31.2221730994639231,131.010419349253169,10.9614261553085566,-12.2313500529812735,17.9512230678983968,29.9277803715439177,-1.61177717207418625,4.33597637467691399,340.899992485846269,23.6623147183886822,10.5545020152647471,69.9964642327757929,0.0910723470516148492,113.796941306043479,342.583905451475175,15.2880000000000003,0,10.6204528903190987,0.0695436202829515238,2.68484851961414001e-08,0.00339146381928085838,0.00764083246904602876,-0.000212786472933167826
0.69,31.2221727391319703,131.010420380408021,11.1855980169607871,-12.0330516430406096,17.7718012861563004,36.7564001312187258,-1.64631278572376027,4.3534382090724435,401.014072685363431,23.9238681754902522,10.6939887509675682,69.9984925051731892,0.103507819066767578,113.81017558494473,350.191786528694195,15.2880000000000003,0,10.6563347570115621,0.0703125045706628343,2.90934884221556668e-08,0.0037486176760189718,0.00820676866791488976,-0.000237789570141958516
0.7,31.2221723747795785,131.010421426189083,11.4125266598815251,-11.8381490829635894,17.5942593950625294,30.8871575328755945,-1.68146837945758509,4.37112249321388102,349.270324209852845,24.1867793102054094,10.833917846461091,70.0007253034229677,0.116846347725655594,113.824370705116294,357.923138055735478,15.2880000000000003,0,10.6920473406456757,0.0710853851978767021,3.14416729667854058e-08,0.00411169260807196704,0.008784621770424288,-0.000263681384035514583
0.71,31.2221720064652324,131.010422486481218,11.6421752733849946,-11.6376758260094206,17.4062362751982498,25.4466812655646279,-1.71854302064701003,4.38985772396070573,301.331264063405797,24.4678896077705268,10.9804454365120971,70.0031657084415144,0.131107256953950507,113.839547184535363,366.283316593666996,15.2880000000000003,0,10.7276192871620424,0.0719117597978780609,3.38923543432548182e-08,0.0044806065983109258,0.0093743929616919644,-0.00029067289603393879
0.72,31.222171634199686,131.010423561298524,11.8745439835873956,-11.430036453581069,17.2053052200969461,31.0694966117826787,-1.75792164865169709,4.40986956704160882,350.79220534145287,24.7716234221297036,11.1351523251562217,70.0058168371267016,0.146310377753839094,113.85572607553479,375.425148079136932,15.2880000000000003,0,10.7630210732222853,0.0728046321873192098,3.6444670284823961e-08,0.00485540324636934972,0.00997627387871629148,-0.000318890288796039605
0.73,31.222171257989185,131.010424650668568,12.1096366605358252,-11.2533407174977356,17.0449036030545891,39.2029139976108638,-1.79386731727396809,4.42750693953938779,422.320318528233997,25.0230335890756734,11.2706847379103028,70.0086819068245489,0.162476353784337252,113.872929289872999,383.075639683153327,15.2880000000000003,0,10.7982206255975157,0.0735437301607437949,3.90977096907488308e-08,0.00523616662955486267,0.0105905174537839607,-0.000347380257802676123
0.74,31.2221708777830393,131.01042575476805,12.3475003413120508,-11.0715938277122721,16.8748913069226774,24.6756723460313694,-1.83168882858394344,4.44615194385352641,294.482813471059444,25.2916509698634719,11.4124406337158764,70.0117638622537584,0.179625269646707247,113.891178142350725,391.335329244360423,15.2880000000000003,0,10.833283022461659,0.0743334072261055273,4.18504134330142377e-08,0.00562295797332126,0.0112173536153346212,-0.000377036862599382087
0.75,31.2221704939243381,131.010426872711463,12.587878473719222,-10.8880358880326344,16.6997379510177346,28.7446963990649351,-1.87098830267323613,4.46553650445538963,330.246885564414924,25.5717877046111575,11.5583087078866917,70.0150657115366073,0.197777485263675723,113.910494227494695,400.043163590151892,15.2880000000000003,0,10.8681710929145989,0.075156946701590524,4.47033470004583918e-08,0.00601517338833390709,0.0118559717108302452,-0.000407794168682030535
0.76,31.2221701063175452,131.010428004794932,12.8308525234817026,-10.7169215118694527,16.5399317264897832,30.9113874044460708,-1.90935870640659622,4.48415120766243724,349.270324209861712,25.8328306556697775,11.6971742997499728,70.0185903147558122,0.216953359024123466,113.930899136443628,408.242799124953081,15.2880000000000003,0,10.9028599140322076,0.0759243749934999379,4.765496789304314e-08,0.00641305900123255446,0.0125068812112021401,-0.000439196499059236957
0.77,31.2221697149163226,131.010429151180517,13.0764658015921391,-10.5510786340251315,16.3854426163622904,28.9229991280970182,-1.94790568270675957,4.50269243573883671,331.76876669607077,26.0889617335307626,11.8342083792421882,70.0223405225138293,0.237173609243589878,113.952414836426058,416.368520328185923,15.2880000000000003,0,10.9373496943118678,0.0766773734211675523,5.0704016706203933e-08,0.00681673289378145406,0.0131704010182670979,-0.000471459581447989935
0.78,31.2221693197879659,131.010430311723155,13.3246739318681833,-10.3807340644013522,16.2220866071854104,23.8154686457223583,-1.9884133290260797,4.52225941968293554,286.873437812889904,26.3622796889168356,11.9774032106050186,70.0263190942876292,0.258459193275585419,113.975063545463172,425.128157448224158,15.2880000000000003,0,10.9716764057275373,0.07748089192543825,5.3849914042106671e-08,0.00722606558101323085,0.0138464616742038273,-0.000504993634541755641
0.79,31.222168921021872,131.010431486218664,13.575415659505234,-10.2093659182722423,16.0548252379603156,33.6926725260991375,-2.03036089290468835,4.54251617020962417,373.620332315953419,26.6457345174931,12.1241810265132095,70.0305288895785623,0.2808314460748631,113.998867867749311,434.309050180581266,15.2880000000000003,0,11.0058328737262965,0.0783142103503638998,5.70921605287944011e-08,0.00764092552626947225,0.0145349864212585903,-0.00053971470077326673
0.8,31.2221685184179982,131.01043267523994,13.8288522462227235,-10.0553492686994748,15.9109017155704553,34.1290602412592321,-2.07012964485183337,4.56125202138179464,377.42502064505743,26.8949204707042355,12.2585338808113757,70.0349726475535874,0.304312472122611422,114.023851232977506,442.459419395300984,15.2880000000000003,0,11.0398454732337168,0.0790468163022262221,6.0428386728101621e-08,0.00806178458338316362,0.0152368676746640515,-0.000574753292744969112
0.81,31.2221681120787729,131.01043387854557,14.084912083964511,-9.8950358017628286,15.7555120781173361,22.3430526660912001,-2.11228132061748708,4.58124721889590525,273.937492693991885,27.1659250519092907,12.4006947421297316,70.0396532215361987,0.328924370484622364,114.050037040587867,451.410059830472562,15.2880000000000003,0,11.0736356543785419,0.0798435560842463005,6.3858443270538572e-08,0.00848841089383430177,0.0159518784506560603,-0.000611251907066923898
0.82,31.2221677021873347,131.010435095678076,14.3434616880210513,-9.73397433516523236,15.5967657112737719,28.5857534430610229,-2.1558464120213312,4.60189884507554936,328.725004432770049,27.4462156282299361,12.5461152949168824,70.0445732350457746,0.354689466888129024,114.077448935407403,460.761725046535389,15.2880000000000003,0,11.1072429143574976,0.0806675953470636642,6.73825877499646913e-08,0.00892047703010506211,0.0166796278692196535,-0.000648976695598185065
0.83,31.2221672887342514,131.010436326695526,14.6045153649014772,-9.59206287660494539,15.4648633911666185,36.2192251366152576,-2.19641878306326133,4.62055929291060252,395.68750322465047,27.6834396159291174,12.6760012660202079,70.0497352663624326,0.381630427852001686,114.106110917267515,468.749334935581373,15.2880000000000003,0,11.1406851750233944,0.0813650636733129901,7.09995711538966413e-08,0.00935807796099626804,0.0174204083931795498,-0.000686679958210162302
0.84,31.2221668716250811,131.010437571878498,14.8681518407657105,-9.44924999545424349,15.3297101758793222,22.5142042493964567,-2.23824392966708263,4.63978764693223766,275.459374825645227,27.9285821130052057,12.8086859967693236,70.0551418684959089,0.409769611612265661,114.136046638040028,477.075754512389608,15.2880000000000003,0,11.1739647095195131,0.082085812050936402,7.47077808278901671e-08,0.00980136825566682059,0.0181746228206547712,-0.000725558213327940986
0.85,31.2221664511433623,131.010438830498572,15.1341603083631675,-9.29586071654654411,15.1763452783743951,24.5090867630969562,-2.28372346807746274,4.66099528529704799,292.960932339393764,28.2091185069365267,12.9539719090309742,70.0607953335884872,0.439129541551597113,114.167279929023238,486.69569649129204,15.2880000000000003,0,11.2070543699498675,0.0829105946089050139,7.85085867991787477e-08,0.0102497678068915778,0.0189414595914813126,-0.000766353448436996303
0.86,31.2221660271302781,131.010440103007994,15.4026688433052481,-9.15457444392693986,15.0396318395917064,30.5846576982343272,-2.32752186190880828,4.68100719824683331,346.226561946558718,28.4625707306295403,13.0894933839043457,70.0666981173165482,0.469733654199528117,114.199835577909766,495.467899157617978,15.2880000000000003,0,11.2399772086214238,0.0836557800269446261,8.2399392997834208e-08,0.0107036851758035133,0.0197217386671832036,-0.000807461499996713723
0.87,31.2221655996136676,131.010441389358988,15.6736622416814537,-9.01990604463636103,14.9114077632480804,28.5010828508530558,-2.37076133838525394,4.70049661500107607,327.964078366998024,28.7025380840446189,13.2201408117542272,70.0728525384640335,0.501605426728698012,114.233738407328545,503.844564329044374,15.2880000000000003,0,11.2726917629861489,0.0843613381422496644,8.63794527029849697e-08,0.0111630714450367836,0.020515531100966513,-0.000849194314815530688
0.88,31.2221651686319426,131.010442689473791,15.9471169596981017,-8.88116126658987781,14.7749863340840388,24.6791403867796539,-2.41618843369030012,4.7210742000315884,294.482813471041823,28.9602489992743415,13.3570538336364724,70.0792608096248699,0.534768445800946957,114.269013346689263,512.919430809081973,15.2880000000000003,0,11.3052235154919067,0.0851190542548864587,9.04484043504690405e-08,0.0116278025535878141,0.0213227834585607012,-0.000892465849430856654
0.89,31.2221647342670074,131.010444003159336,16.222976298877466,-8.73870451732007325,14.6307790460360732,27.0232716978848764,-2.46386740749923927,4.74275998576692714,315.028134248086985,29.2358527592497666,13.500253873090216,70.0859250918006751,0.569246683130912978,114.305685724929546,522.714556767523504,15.2880000000000003,0,11.3375792777634192,0.0859293676249035382,9.46059699008236293e-08,0.0120977496769796612,0.0221434312631922404,-0.000937347273876119316
0.9,31.2221642964522061,131.010445330616648,16.501296942887496,-8.61336122245726088,14.5119792836533978,29.8027848342325825,-2.50798599611697703,4.76217841609679571,339.378142354214447,29.464231733646475,13.6265835484438114,70.0928475839286591,0.605064948557613391,114.343781752285025,530.898743327322336,15.2880000000000003,0,11.369771504730716,0.086600885974412789,9.88503004061503309e-08,0.0125731012005394251,0.0229779487725018834,-0.000981761698520102269
0.91,31.2221638552582021,131.01044667167838,16.7820301245118344,-8.48401660320957873,14.3851131408189854,22.7608919346135039,-2.55434061923155076,4.78269390887421331,277.742181023078899,29.7104651385239968,13.7591939451031848,70.1000302170013185,0.642247432661218087,114.38332696948325,539.794738598825347,15.2880000000000003,0,11.401790505113528,0.0873248885935806046,1.0318140677557282e-07,0.0130536717726590281,0.0238261834091917264,-0.00102777720788963791
0.92,31.2221634108803769,131.010448025849485,17.0650325088483896,-8.35103316455363753,14.2506227682623798,27.0184583217797503,-2.60297596678927023,4.80431318572441857,315.028134248062145,29.9745356209648364,13.8980415323779187,70.1074748589036716,0.680818707215747887,114.424347311574152,549.41798050252055,15.2880000000000003,0,11.4336209286551416,0.0881013248940425708,1.07600711087949306e-07,0.0135390285675099937,0.0246875466155621996,-0.0010754370820881794
0.93,31.222162963236503,131.010449393366002,17.3503716674361819,-8.23300883293534902,14.1387937829063493,32.0606608640668256,-2.64815152396045805,4.82375058325416628,359.162507065472823,30.1938918352360552,14.020970410045253,70.1151832645951885,0.720803700033489481,114.466869084308527,557.473502486300958,15.2880000000000003,0,11.4652793613718007,0.0887463436439394626,1.12105798927925672e-07,0.0140294186713065001,0.0255626228612614234,-0.00112251436751928846
0.94,31.2221625122248163,131.010450774509764,17.6381290259562959,-8.10513959863350308,14.0092393749667732,23.3599110359519955,-2.69757987219442619,4.84540685599225984,283.068750483778672,30.452108103889902,14.1575781482540908,70.1231571209091271,0.762227149114975355,114.510918371433945,567.033559458917807,15.2880000000000003,0,11.4967654173785068,0.0895055874177150407,1.16695093800135241e-07,0.0145249583889006714,0.0264517867977125676,-0.00117206958188378896
0.95,31.2221620581240664,131.010452168567355,17.9280982519848742,-7.98079771456221909,13.8838114226739417,30.1438207158071734,-2.74707942529815741,4.86688854060979459,342.421873617487279,30.7038527247237916,14.291796682766833,70.1313980579172807,0.80511484037130876,114.556522367026261,576.431480915450265,15.2880000000000003,0,11.5280662766930977,0.0902458166863458061,1.21370902771160736e-07,0.0150251087697645582,0.0273542555612475008,-0.00122241744620481371
0.96,31.2221616006575395,131.010453576277257,18.2204929838765821,-7.86447250388876196,13.7701133148404846,29.5323085810890298,-2.79502236516432268,4.88728415136574945,337.095335156783449,30.9319211026099516,14.4175826317972113,70.1399075980351938,0.849492615953693408,114.603708310674847,585.010329123489669,15.2880000000000003,0,11.5592068075751477,0.0909164630352083392,1.26128560489174017e-07,0.0155304680855306992,0.0282712557242025507,-0.00127288240674166284
0.97,31.2221611398463672,131.010454997596383,18.515301192845584,-7.74680318613911822,13.6526427909252241,18.9946385824511381,-2.84456702841783482,4.90837134828616506,245.021887192993233,31.1697696246995015,14.5467410406476692,70.1486872419700376,0.895387020302274572,114.652504175638455,594.024879387084297,15.2880000000000003,0,11.5901839247160936,0.0916158626300738743,1.30967717092091742e-07,0.0160409628943785493,0.0292028396769522941,-0.00132479467736379658
0.98,31.222160675967622,131.010456431815243,18.8123178252274883,-7.62048473946603178,13.5189418237903514,27.5238363033838347,-2.89854013699351665,4.93170812694009886,319.593746642958081,31.4462649162702164,14.6893882842671335,70.1577383449608334,0.942824695072468577,114.702938025166532,604.593116948466331,15.2880000000000003,0,11.6209764041934474,0.0924288622227119189,1.35891960577102497e-07,0.0165559398675082202,0.0301480156039649894,-0.00137941539343213512
0.99,31.222160208882201,131.010457879308774,19.1116518958186319,-7.51334041083788762,13.4162588571311137,30.046233707439935,-2.9464945142274992,4.95148052645604952,341.660948551705417,31.6537717570482613,14.8076907450359005,70.1670622421768968,0.991833050921201997,114.75503872726307,612.580980167354369,15.2880000000000003,0,11.6516079555410244,0.0930390937759947995,1.40897518276247402e-07,0.0170757989836688266,0.0311076750829913894,-0.00143207635288484202
1,31.2221597385895144,131.010459340083855,19.4133066777154362,-7.39782813574693598,13.297830441157851,26.9059716617553519,-2.9988127405188183,4.97345432184758884,314.26720818227642,31.8989218128256127,14.9391235423730357,70.1766599235865698,1.04243858997943017,114.808834170227215,622.088253714165944,15.2880000000000003,0,11.6820679186649894,0.0937599759873158911,1.459845320095708e-07,0.0176004050464743309,0.032081765316217016,-0.00148746158150958943
1.01,31.2221592652633468,131.010460813700035,19.7171551127005138,-7.28558890978328666,13.183542475991386,28.1216453126107737,-3.05101291510179973,4.99513846021828734,324.920316103697928,32.1359541047312689,15.0676011752390018,70.1865324322699706,1.09466900957585689,114.864353498750191,631.349318041859192,15.2880000000000003,0,11.7123512011922521,0.0944570049542876461,1.51154585882037678e-07,0.0181294082738595978,0.0330698303721576742,-0.00154350927875246532
1.02,31.2221587888314218,131.010462300349445,20.0232543571905595,-7.17739703158950437,13.0748477433500092,23.4964029553322291,-3.10268160080695399,5.01630951054082797,284.590631615404163,32.3608792849397915,15.1917401716222056,70.1966805861965355,1.14855176202126819,114.92162558309343,640.199274235309758,15.2880000000000003,0,11.7424705021806801,0.0951184546395999753,1.56405742712553518e-07,0.0186629363480290168,0.0340722912305455455,-0.00160000719966722966
1.03,31.2221583093591448,131.010463799866557,20.3315578811272424,-7.06426417348164737,12.9560456837860194,19.2172621628452873,-3.15767829880827078,5.03906772185527885,247.30469339049705,32.6118674136318987,15.3248798026155626,70.2071050306983153,1.20411434378899962,114.98067932574844,650.149191021892989,15.2880000000000003,0,11.7724203889681007,0.0958565184670416987,1.61738682693745396e-07,0.0192007817807539512,0.0350889580706627499,-0.00165883568097281763
1.04,31.2221578269059705,131.010465312104145,20.6420241540471281,-6.95874056759100235,12.8492163878778136,30.4622051499409388,-3.2105152916188211,5.06042071274484417,345.465636880722968,32.8346692308634474,15.4480588957972991,70.2178064197944849,1.2613853052251458,115.041544734421464,659.043424663825135,15.2880000000000003,0,11.8022009634753964,0.0965117410781394097,1.67153252204438286e-07,0.0197428396002511559,0.0361198239478703262,-0.00171726809329941993
1.05,31.2221573411995585,131.010466837758145,20.9548582513443158,-6.84960000050677742,12.7345398682403381,18.4167458576410255,-3.26621724118119516,5.08309057741362835,240.456258798199826,33.0784115239454408,15.5784366156584078,70.2287851940468215,1.32039307159891739,115.104251669056111,668.844226503039067,15.2880000000000003,0,11.8318280359568551,0.0972285219442702159,1.72644228076847673e-07,0.0202896509724238457,0.0371661079334866112,-0.00177787822528693222
1.06,31.2221568524659148,131.010468376252561,21.2698939719774742,-6.73776118101252752,12.6135169761822254,26.1758309279872776,-3.32456653531378521,5.10693796332328009,308.179683655939243,33.3402421111284681,15.7149761740403218,70.2400418408965237,1.38116740879271549,115.168831397948907,679.453981853801679,15.2880000000000003,0,11.861290777018505,0.0979984780445345427,1.78215448973884994e-07,0.0208406688851009297,0.0382269871990371171,-0.00184056030067158744
1.07,31.2221563605942904,131.010469927870957,21.5872160392748853,-6.63703885992426557,12.5111100418187799,30.7959389789615763,-3.37873233183161981,5.1283022520009327,348.509368144030759,33.5550605137414166,15.8350440105300336,70.2515767858410811,1.44373887507429788,115.235316015649644,688.216951607681722,15.2880000000000003,0,11.8906063680020981,0.098630256638290309,1.83863481208899535e-07,0.0213961928423913803,0.0393032352949074237,-0.00190173912186683536
1.08,31.2221558654866449,131.010471492856482,21.906898314414029,-6.53558743810584719,12.4060669219453352,20.7485175228337688,-3.43442596951475654,5.15024574947181701,261.001578574662346,33.7775126267604122,15.9576611750190605,70.2633901791028563,1.50813764842732922,115.303737196104208,697.350806725052166,15.2880000000000003,0,11.9197767129303713,0.0992844806722304601,1.89586629588108044e-07,0.0219563315507827067,0.0403952863255970726,-0.00196440269298741536
1.09,31.2221553674049304,131.010473070541593,22.2287479310418696,-6.42547320318391968,12.2837126039911109,19.0801526356530715,-3.49599492698915615,5.17505289501664212,246.543753324744074,34.0479504548684631,16.0967767882207262,70.2754820431783713,1.57439438003564991,115.374127098819883,708.540208086676216,15.2880000000000003,0,11.9487843875846718,0.100079759975554877,1.9539048141482883e-07,0.0225203995520267021,0.0415020454603419603,-0.00203093823399131193
1.1,31.222154866421107,131.010474660742403,22.5527133816610927,-6.32193254746115674,12.1719920057006803,38.204244539675507,-3.55542043970213273,5.19846333350073575,413.189061738584087,34.291299635840268,16.2263466912943954,70.2878522642681247,1.64254018278634506,115.446518356989188,718.682265362813155,15.2880000000000003,0,11.9776351506745176,0.100795423430001307,2.01275139785883742e-07,0.0230882659802568724,0.0426234700648572759,-0.00209696604308467734
1.11,31.2221543621473359,131.010476264426217,22.8790817146283594,-6.22972310026825582,12.0800647629460407,27.9746629710142116,-3.60966678609001379,5.21890493309154113,324.159391037639693,34.4802861853364462,16.3370049065818286,70.300500624874644,1.71260685696714599,115.520944317186206,726.60293363894391,15.2880000000000003,0,12.0063569028606594,0.101351301433648011,2.07231450617907838e-07,0.0236607952173256142,0.043761476314913797,-0.00216074103580175597
1.12,31.2221538546396538,131.010477881436486,23.2078109437135822,-6.12018693595185059,11.95427216731653,10.571897416926797,-3.67529619371946792,5.2450447730720775,172.73281794065943,34.7657321743870469,16.4808473113295975,70.3134266253191527,1.78462586926062006,115.59743795332281,738.6598112063607,15.2880000000000003,0,12.0349369755757341,0.102190720031777385,2.13262074807601444e-07,0.0242376828327352349,0.0449157265173577708,-0.00223167673837836771
1.13,31.2221533444662711,131.010479510353321,23.5384854079660819,-6.02197889277110665,11.8484151539671227,32.9427287597161467,-3.73560371370458189,5.26813303708604685,367.532807790070478,34.9960055834232691,16.605470328020548,70.326629948708657,1.85863116621313784,115.676034854437916,748.453580628824284,15.2880000000000003,0,12.0633561833625862,0.102867971715203871,2.19378418011701153e-07,0.0248176721201243747,0.046083957643775382,-0.00230014139434917735
1.14,31.222152830984637,131.010481152759752,23.8715758144358539,-5.93178507075367367,11.7565886777779358,18.2428206649112568,-3.79211595168677285,5.28899803426226445,239.695317731955441,35.1856747101972545,16.7159943004581315,70.3401096696593413,1.93465447332101625,115.756768233746101,756.564201181673752,15.2880000000000003,0,12.0916526935464841,0.103425877774461189,2.25564883359064672e-07,0.0254021781205109563,0.0472692319884569917,-0.0023669983722568325
1.15,31.2221523146596383,131.010482807484209,24.2067407399840846,-5.82475935459254845,11.6310880548542634,17.9687393594641982,-3.86076645383563433,5.31585428379480707,237.412511535467729,35.4760214591148468,16.8609769660559152,70.3538646718601939,2.0127277894153961,115.839671575053231,769.077059293461502,15.2880000000000003,0,12.1197917738449217,0.104279726548855325,2.31834458327209996e-07,0.025989914308024907,0.0484692348942929244,-0.00244166958656391814
1.16,31.2221517956229704,131.010484474196119,24.543885363294315,-5.73828056694836963,11.5440289678028929,47.007886566508887,-3.91714683172185918,5.33612518605463393,490.043774384589426,35.6519389440012375,16.9664814301644604,70.3678939823913936,2.09288551595981076,115.924780895110345,776.698171771891452,15.2880000000000003,0,12.1477855585323162,0.104797224606586914,2.38187272139927402e-07,0.0265806971883723354,0.049683819182068413,-0.00250947338901924165
1.17,31.2221512730237087,131.010486154961541,24.8836268993847902,-5.64359508728128123,11.4397683724573671,8.31772975284900795,-3.9802873532769123,5.35959285574377642,153.709379294867944,35.8801090307153316,17.0898038225140638,70.3821960516651473,2.1751600248867824,116.012130037902864,786.645947982476855,15.2880000000000003,0,12.1756714547465084,0.105468324383848705,2.44603276218364861e-07,0.0271763338162080599,0.0509169463783928217,-0.00258204330808864358
1.18,31.2221507479733482,131.01048784703778,25.2251565020549045,-5.53804399455231788,11.3126743433323931,22.8350563370974697,-4.05269246338732803,5.38747394074833608,280.025018221967457,36.1810339333763338,17.2378138052675141,70.396769369432576,2.25958552903793164,116.101754780363194,799.870170424354228,15.2880000000000003,0,12.2033886259395032,0.10635329250913679,2.51112484604443546e-07,0.0277740364314856721,0.0521631751410355365,-0.00266087593860027437
1.19,31.2221502199657266,131.010489551650437,25.5688417036920832,-5.45964453341786893,11.2382275202095414,39.899371313470958,-4.10646912494464367,5.40562268347580588,428.407813052929214,36.3164237826433975,17.3290528888763511,70.4116123297861236,2.34619733041933953,116.193692038053527,805.841013455799157,15.2880000000000003,0,12.2309423581902728,0.10675168180950749,2.57696975290257674e-07,0.0283751858764467839,0.05342559015109654,-0.00272855118361388415
1.2,31.2221496885578098,131.010491269838724,25.9149984147272967,-5.36135936542130676,11.1228559950980266,4.06726397176069465,-4.17642245679492952,5.43165828898666891,117.184374136023607,36.5822541669220485,17.4647118289532735,70.4267226516235354,2.43502806723552556,116.287975879274541,817.6542552688162,15.2880000000000003,0,12.2583726069419559,0.107533507039426338,2.64348912433219797e-07,0.0289804770226360781,0.0547059575446317281,-0.00280706110219942082
1.21,31.2221491548716479,131.010492998870291,26.2628167401934824,-5.26526387691226194,11.0104692138360001,31.998826081979356,-4.24625555269099308,5.45731382636743678,359.923432132008998,36.8403118073326823,17.5974689910903912,70.4420983462001971,2.52611405770221609,116.384644256757312,829.202990948360025,15.2880000000000003,0,12.2856375208444888,0.108292492346431971,2.71098482901749619e-07,0.0295872051298092416,0.0559988742119997829,-0.0028859486762501268
1.22,31.2221486180428407,131.010494740806621,26.6129169771177878,-5.1873239676256393,10.9338579235941609,23.1372247790687382,-4.30257139401077815,5.4759226336605149,283.068750482576149,36.9800321027476642,17.6897909065843066,70.4577368906281549,2.61948993976924616,116.483733322300395,835.476478222789297,15.2880000000000003,0,12.3127934602609272,0.108703631150593005,2.7791780458934532e-07,0.030197491156431791,0.0573090861705542742,-0.00295654779615140599
1.23,31.2221480784061178,131.010496494804443,26.9650540993607741,-5.09161281593295278,10.8196512529840998,8.92374344062080738,-4.37487415743951047,5.50219455127306833,159.796873822227951,37.2453645576332875,17.8246452904952761,70.4736352458918702,2.71518871049024924,116.585277465420219,847.479941666156606,15.2880000000000003,0,12.3398085242015085,0.109484016932136816,2.84820701534969738e-07,0.0308101857636549244,0.0586344731874318612,-0.00303807585595675372
1.24,31.2221475364362426,131.010498259710289,27.3188873249199347,-5.00328922503942763,10.7193980468897205,38.7174445840511794,-4.44226379262190285,5.52570852424050862,418.515630199805003,37.4644494666162373,17.9435575519510095,70.4897905037876029,2.81324617196023263,116.6893140323849,857.450223010850664,15.2880000000000003,0,12.3666731029587549,0.11012846425041653,2.91819071149203735e-07,0.0314241378049906553,0.0599728266873965979,-0.00311673609896741862
1.25,31.2221469913226528,131.010500037418979,27.6749915667055113,-4.92520349214255937,10.6394377237205102,18.6246033097863588,-4.50158445095322879,5.54494896051928166,244.260946125734876,37.6126794145228658,18.0383116523500817,70.5061992635009318,2.91369671471744907,116.795878853550136,864.219170338096433,15.2880000000000003,0,12.393433187879733,0.110564637317746253,2.98886026837479827e-07,0.0320412591689975268,0.0613285810312243773,-0.00319040851797556266
1.26,31.2221464435897467,131.010501826645736,28.0329882164517485,-4.82935020815514182,10.5209242315661609,10.8894346616749953,-4.57848891134148328,5.57249756535831331,177.298446336408631,37.8958281783587339,18.1785132139647381,70.5228577476047036,3.01657407713585179,116.905007046490567,877.249684525113594,15.2880000000000003,0,12.4199962041978971,0.111397419495463806,3.06042123772796152e-07,0.0326599414719206116,0.0626985678550444486,-0.00327638039225657332
1.27,31.2221458934101825,131.010503626963384,28.3927535408523646,-4.74931315793325393,10.4347645877138593,37.1943523945455539,-4.64168919805220348,5.59301774195506241,405.579686079964688,38.0644527646266297,18.2797843087550689,70.5397624117836415,3.12191578711841977,117.016737729421408,885.043439385658189,15.2880000000000003,0,12.4464138643412312,0.11189355750197584,3.13288082448977224e-07,0.0332798848088084395,0.0640823998044716819,-0.00335331158216757618
1.28,31.2221453401277529,131.010505439864801,28.7547459805185994,-4.66666887881327153,10.3419604692478675,11.9078687323298809,-4.70850408348944516,5.61498725970242418,186.429688124688823,38.2560202268527547,18.388638936647336,70.5569088761345569,3.2297555079840139,117.131105902809466,893.943107869787013,15.2880000000000003,0,12.4727233271855678,0.112457145091282407,3.20604343662130026e-07,0.033902402089523595,0.065483328688842074,-0.00343310953784777342
1.29,31.2221447845342155,131.010507263462358,29.118402174671143,-4.57604026591004409,10.2306335848687855,19.7019118448050214,-4.78481815878366223,5.64121352228765982,254.153128984572163,38.5159424206714647,18.5202634673712261,70.574292690816236,3.34012857226888293,117.248148316838908,906.100122667224241,15.2880000000000003,0,12.498887043104201,0.113221675353219781,3.28018659242087206e-07,0.0345253716080960865,0.0668969468791883737,-0.00351982539329218211
