Time,Latitude,Longitude,Altitude,Angle of Attack,Angle of Sideslip,X-Acceleration,Y-Acceleration,Z-Acceleration,Thrust,True Velocity,Ground Velocity,Pitch,Roll,Yaw,Dynamic Pressure,cp,parachute_deploy_gain,Wind Speed,Mach,omega_x,omega_y,omega_z,Cmq,Angle of Attack(total),Angle of Attack(gust),True Velocity(gust),Acceleration
0.0,31.222186000000004,131.010384,3.000000003643237,0.0,0.0,0.0,0.0,0.0,2.2828121974499247,0.0,0.0,69.99999999623421,0.0,113.69999999388332,0.0,15.288,0.0,0.0,0.0,0.0,0.0,0.0,-0.0,0.0,90.0,0.0,0.0
0.01,31.22218600000153,131.01038399999584,2.99999882256592,0.0,0.0,0.0,0.0,0.0,34.24218696174923,7.502283530665459e-11,7.190531319924593e-11,69.99999999623329,-4.83564628150269e-13,113.69999999388072,3.446445726795683e-21,15.288,0.0,0.0,2.204725565824978e-13,-3.659182332138578e-19,7.589415207398531e-19,4.811147140404426e-19,-1.5108918610345807e-31,0.0,89.9999999995224,7.502283530665459e-11,0.0
0.02,31.22218600000288,131.01038399999217,2.999997775701936,0.0,0.0,0.0,0.0,0.0,25.871876237766408,1.5320717031631675e-10,1.4674636035870463e-10,69.99999999623222,-9.67129256300373e-13,113.69999999387804,1.4372842949972735e-20,15.288,0.0,0.0,4.5023593667086093e-13,-7.284483346386986e-19,1.5178830414797062e-18,9.757819552369542e-19,-6.170906918166791e-31,0.0,89.99999999902465,1.5320717031631675e-10,0.0
0.03,31.22218599928065,131.01038400193067,3.000201659671132,18.81500467334555,-0.00012974450181,11.96616230539064,-1.8916256735984712e-05,3.349833086198469,180.34219359854663,0.0882870268161719,0.0553390044312322,69.99999999799445,-4.212591857125379e-12,113.69999999488518,0.0047728553458352,15.288,0.0,0.0,0.0002594525584132,3.2187251995663407e-17,-7.20264389268894e-10,1.2365134327422308e-11,1.6874092354518158e-13,18.815004673776716,89.46786891739345,0.0882666465974854,12.426199017587786
0.04,31.22218599548236,131.0103840121632,3.001799604587872,9.46752327608497,-4.6177622759613696e-05,55.21900012092241,3.931876292165237e-06,3.349616504302861,548.6359724538078,0.3767519978512604,0.1853356633749705,70.00000000507204,-2.4624598767003407e-11,113.70000000019972,0.086915163246288,15.288,0.0,0.0,0.0011071759353184,1.6174128009138757e-15,-1.3693172015529268e-08,2.7753303060112748e-11,1.3689612277852356e-11,9.467523276196548,87.63554493451223,0.3767447442872393,55.32050167054111
0.05,31.222185984749512,131.01038404118162,3.00777936418888,5.376730308971262,-2.257790939128127e-06,80.28807156553681,5.266841443842784e-05,3.348887800834877,761.6984298824644,1.018787885905993,0.4366201147110198,70.00000000894464,-1.1355399380652658e-10,113.70000001523856,0.635552918586145,15.288,0.0,0.0,0.0029939522895272,1.6418815498809788e-14,-9.32122351075408e-08,4.303264669380585e-11,2.5199270302492604e-10,5.3767303089717045,83.57022052969386,1.0187875312530217,80.35788377762394
0.06,31.22218596447235,131.01038409608267,3.0201664202003013,4.296730121134882,2.4863835723705905e-05,60.21296515808257,0.0001057204249726,3.347700952379021,590.4875390737208,1.721098934225416,0.7081674028809783,69.99999995523842,-3.0560354507026086e-10,113.70000004366592,1.8138247671743823,15.288,0.0,0.0,0.0050578622752421,8.328976953118383e-14,-3.2824985336199985e-07,5.923438275930214e-11,1.4991363363716091e-09,4.296730121206683,79.20467073327266,1.7211028398275985,60.305955550063224
0.07,31.22218593493329,131.01038417609837,3.038741944736831,3.8204913578752526,4.8016684030909405e-05,91.4060317508128,0.0001597686613101,3.346072557365335,855.2937749779139,2.4375792548422868,0.9844712334613328,69.99999973536046,-5.939103491363046e-10,113.7000000850886,3.6383156301599167,15.288,0.0,0.0,0.007163413150771,2.709313825263564e-13,-7.906546256197275e-07,7.920022733617308e-11,5.114174483651565e-09,3.820491358176508,74.87999294483174,2.437586797285377,91.46725557277466
0.08,31.222185894468456,131.01038428575305,3.0647976109320942,3.588632851766762,7.220043782492885e-05,19.18449428359557,0.0002119618497595,3.3440615022685813,241.2171988638848,3.1292508166901074,1.2522236515868983,69.99999919480445,-9.914748373602156e-10,113.7000001418522,5.996012698481753,15.288,0.0,0.0,0.0091960591623389,6.80386533246681e-13,-1.5973238302190878e-06,1.0839624626357699e-10,1.3263625118823921e-08,3.58863285249208,70.86684630658345,3.1292621579083604,19.473766155861934
0.09,31.22218584634549,131.01038441616095,3.0957981580345013,3.551302481506045,9.685468678862004e-05,57.102946699906326,0.0002554087225869,3.341892818148368,563.0937377043176,3.701810007254615,1.479132491047967,69.99999812344194,-1.4359264356978275e-09,113.7000002093888,8.390904013834115,15.288,0.0,0.0,0.010878666406854,1.440096519545733e-12,-2.748643691533636e-06,1.5214952332699618e-10,2.6999776649034504e-08,3.5513024828250237,67.68737872952666,3.701825221153239,57.20065357568538
0.1,31.222185790329306,131.01038456796124,3.1319266121977414,3.608446747536112,0.0001234669721807,54.26147302645416,0.0002914860332524,3.3396271157106168,538.7437595981919,4.174070299823608,1.6716491241860567,69.9999963052332,-1.902380107712657e-09,113.70000028805804,10.668380938744466,15.288,0.0,0.0,0.0122665227999911,2.687800116751415e-12,-4.315796035622946e-06,2.1749089204950437e-10,4.7802076800548326e-08,3.608446749645647,65.17160335282355,4.174089693970246,54.36414778470795
0.11,31.222185727066616,131.0103847393952,3.172681775073216,3.633547373470009,0.0001485939126744,42.987553988990406,0.0003293995000288,3.337005588796181,442.8656393052949,4.672024955140527,1.8729475711242067,69.99999349387662,-2.3433348587116544e-09,113.70000037699285,13.365573690709628,15.288,0.0,0.0,0.0137298902182575,4.5789425819531184e-12,-6.340230783164189e-06,3.1157625832417107e-10,7.860218435507205e-08,3.6335473765043056,62.62546922225161,4.672048296217748,43.116880735560244
0.12,31.22218565692512,131.0103849294629,3.2177790417108385,3.650108937861461,0.0001727442530266,46.86777100765684,0.000367618259785,3.334068179146888,475.58594813540446,5.17479364099247,2.0758708919414386,69.99998941286465,-2.702771525550512e-09,113.70000047573096,16.396890189902592,15.288,0.0,0.0,0.0152074069417046,7.288473386564583e-12,-8.86736416607888e-06,4.42271554299792e-10,1.217615295152289e-07,3.6501089419435786,60.16906436414164,5.174820775596283,46.986210423745625
0.13,31.222185580265183,131.0103851371844,3.2669395832841857,3.7280113734654137,0.0001995014041665,51.64515456841877,0.0003986198234033,3.3311573548369657,515.9156326236895,5.579364582999854,2.2451120211463422,69.99998375846928,-2.9114380666036422e-09,113.70000058383452,19.060875702782603,15.288,0.0,0.0,0.0163963474924215,1.100846422415094e-11,-1.1941028436408576e-05,6.179653149059831e-10,1.7678562106638216e-07,3.728011378795934,58.279338776943774,5.579395920607139,51.75247433579817
0.14,31.22218549718016,131.01038536230575,3.320091807147376,3.768719651034081,0.0002242721760019,48.1660778383537,0.0004326225136175,3.32784677779744,486.2390860568404,6.025734265159953,2.428648685938864,69.99997621008868,-2.890941335368725e-09,113.70000070125378,22.232643351545065,15.288,0.0,0.0,0.0177081261985351,1.5941871344608664e-11,-1.560901486259027e-05,8.477542742712431e-10,2.495765160917323e-07,3.7687196576976176,56.27980129251342,6.025769493750979,48.280903250602165
0.15,31.22218540777004,131.01038560455507,3.377159065217065,3.821894709649632,0.000249725644238,46.56959330999435,0.0004643042952466,3.324387732286376,472.54218587214,6.441023336496372,2.6014999612196745,69.99996641132823,-2.546763407193136e-09,113.70000082794672,25.402620271850456,15.288,0.0,0.0,0.0189285691155931,2.2314099732464315e-11,-1.992367942778425e-05,1.1417519574710292e-09,3.4051816697623295e-07,3.821894717796148,54.501255563441134,6.441062563308839,46.68809885900716
0.16,31.22218531193176,131.01038586421257,3.4382223512025254,3.8463320955387794,0.0002733212404609,36.974247749122085,0.0004987816203583,3.3205066466509234,391.1218908297564,6.895451966878468,2.7877331692857847,69.99995397923414,-1.77088415515292e-09,113.70000096417354,29.113317717489338,15.288,0.0,0.0,0.0202640360420561,3.0367358387834494e-11,-2.4945905791363795e-05,1.5114297685186711e-09,4.5643121540033697e-07,3.846332105235269,52.641145594326446,6.895494900078523,37.12304892183151
0.17,31.222185210004127,131.010386140357,3.503019838429153,3.8860314262554336,0.000297865039677,46.520531453299206,0.0005306403365217,3.31650761597812,471.78125980632376,7.314788342774694,2.9619016331667103,69.99993849340957,-4.3039914767238207e-10,113.70000110959404,32.761746921137856,15.288,0.0,0.0,0.0214963781445172,4.0366633128431416e-11,-3.0713078585132897e-05,1.96747427715988e-09,5.961228045584824e-07,3.886031437653654,51.00464968745696,7.314835131305714,46.63860064094784
0.18,31.22218510147516,131.01038643438045,3.571950002194137,3.9107265153396016,0.0003214293682635,38.895647526122765,0.0005639254295027,3.312149448254175,407.10156721191447,7.754626295791602,3.1430587898572058,69.9999195084231,1.6149322372810674e-09,113.70000126508234,36.81988229018681,15.288,0.0,0.0,0.0227889722876034,5.2593391349219385e-11,-3.731786027786564e-05,2.525509173087448e-09,7.6786585232224e-07,3.9107265285284982,49.36615848311875,7.754676785798701,39.036415444581515
0.19,31.222184986476247,131.0103867459258,3.644912152926752,3.920599115663931,0.0003437679584038,43.86258669386953,0.0005989384366483,3.307389681300437,448.9531328318269,8.219206165926856,3.332657190859447,69.99989653019398,4.538529095696477e-09,113.70000143063515,41.36350714675367,15.288,0.0,0.0,0.02415428010977,6.735860419174937e-11,-4.481243905342629e-05,3.199401151670645e-09,9.773118416308382e-07,3.92059913071168,47.71893898797248,8.21926016487149,43.987104227715655
0.2,31.222184864792144,131.01038707557822,3.722074668489528,3.943376465171875,0.000367328732016,40.28070981710589,0.0006315894240138,3.30251450988504,418.51563019916136,8.65238089736321,3.511445117640573,69.99986902534273,8.534090245934178e-09,113.7000016067622,45.83799876721736,15.288,0.0,0.0,0.025427299120469,8.499785987217288e-11,-5.328041996372527e-05,4.006766070954748e-09,1.2232205148646746e-06,3.9433764822533854,46.2587826635041,8.652438597225508,40.41586552155969
0.21,31.22218473678744,131.01038742234647,3.803156063113743,3.9664546506877016,0.000390962054969,38.67679184347145,0.0006636984664108,3.297405915846789,404.8187610144644,9.079179692250786,3.688002035198235,69.99983642883521,1.3827831253856693e-08,113.70000179318536,50.47126980736161,15.288,0.0,0.0,0.0266815841422463,1.0586558589671407e-10,-6.275155280099118e-05,4.961340042512481e-09,1.5117124669161171e-06,3.9664546699249135,44.88773728276958,9.079241104426773,38.817098210937615
0.22,31.2221846022986,131.01038778667507,3.8882846911135607,3.956175711337521,0.0004112685792646,46.713636108302936,0.0007011135033803,3.291572407481395,472.5421858721365,9.580256326712124,3.889976788904857,69.99979815126248,2.0662823443484168e-08,113.70000199039316,56.195522894218605,15.288,0.0,0.0,0.0281541581291438,1.3033127211465288e-10,-7.330053770532661e-05,6.0817207473359025e-09,1.8632831045819008e-06,3.956175732680424,43.35679625546934,9.580320928629488,46.8294591882524
0.23,31.222184460898035,131.01038816972698,3.977794004014759,3.9879066397329104,0.0004360962274406,38.89105719050748,0.0007308686121188,3.286096544282012,406.3406421461021,9.977039034039262,4.056142701351626,69.99975353557706,2.9316661139418326e-08,113.70000219928508,60.9462612310605,15.288,0.0,0.0,0.0293202403623685,1.5880617816859538e-10,-8.505067486192354e-05,7.393319440773217e-09,2.2514912291167663e-06,3.987906663538912,42.20670487756048,9.97710753587448,39.0296395118868
0.24,31.222184313516166,131.01038856897196,4.070963590490852,4.003523997322975,0.000459165577055,40.0792299321398,0.0007630441688766,3.280134925833028,416.2328240017114,10.408422364424831,4.234121060914368,69.99970190737699,4.010976417051318e-08,113.70000241888,66.32994780718496,15.288,0.0,0.0,0.030588009649109,1.91711512587616e-10,-9.795845222523724e-05,8.904557280909524e-09,2.7052895870113487e-06,4.003524023611085,41.011349410369874,10.408494489985014,40.21323112692186
0.25,31.22218416001652,131.01038898478134,4.167901030441617,4.0261356185860135,0.0004830526730531,41.17760020658354,0.0007934613160587,3.2740610008587527,425.36408079150686,10.816813039390448,4.4041629376391525,69.99964258149416,5.3372865854010094e-08,113.70000264972064,71.63651430352668,15.288,0.0,0.0,0.0317882126436337,2.2947426169209347e-10,-0.0001121037688082,1.0637152702866709e-08,3.217380562698304e-06,4.026135647516394,39.93186687113378,10.816888917126896,41.30755663120434
0.26,31.222184000702686,131.0103894163294,4.26837241014618,4.053359329950934,0.000507503069958,44.80261175215926,0.0008224724146494,3.2678597736729302,455.8015834241788,11.207047269494833,4.567925492611352,69.99957484039399,6.947299261165984e-08,113.70000289176392,76.89781807056055,15.288,0.0,0.0,0.0329350617559806,2.7254099134167665e-10,-0.0001275114371842,1.260720913253598e-08,3.7915697709142366e-06,4.053359361668992,38.945390435244384,11.207126987890645,44.921630958721536
0.27,31.22218383516388,131.01038986473338,4.372698316214008,4.0614460923241,0.0005296455772492,41.029837477288126,0.0008548809954683,3.2610328932384265,423.84219965987256,11.645685385842508,4.748226940060522,69.99949794024376,8.879821051920497e-08,113.70000314600205,83.0342688744587,15.288,0.0,0.0,0.0342241635563461,3.2137296827284217e-10,-0.0001442952656441,1.4842505534226832e-08,4.458527942364847e-06,4.061446126801262,37.8838346421185,11.645768582375233,41.15922617924542
0.28,31.222183663504484,131.01039032970942,4.48079961904222,4.081133040992532,0.0005533279247169,47.27661484082626,0.0008845140695959,3.254218495915602,476.3468732012221,12.047344998676092,4.915789434712848,69.99941106884992,1.1178948978424788e-07,113.70000341275257,88.85982357848233,15.288,0.0,0.0,0.0354045979054623,3.764736350660473e-10,-0.0001625146963723,1.7365685655384934e-08,5.194620655212288e-06,4.081133078439725,36.956255322213885,12.047431915223257,47.38848224631549
0.29,31.22218348566054,131.0103908114315,4.592727908358551,4.1001100265020245,0.0005770279952742,37.989969791857405,0.0009138463939581,3.247164755122801,397.97031042211177,12.446314684600782,5.082367374004485,69.99931338876085,1.3891902435864665e-07,113.70000369260468,94.8417675268915,15.288,0.0,0.0,0.0365771315767517,4.3836067907166327e-10,-0.0001822432988888,2.0202163500922312e-08,6.018074062137429e-06,4.100110067036654,36.07377590258778,12.446405323946324,38.12849176886316
0.3,31.222183301933686,131.01039130907952,4.708251093558373,4.112858061667493,0.0005998635114143,35.655053282557844,0.000944131403186,3.2397207148238625,378.1859457108711,12.860033399289696,5.253940723820665,69.99920403105713,1.707002607527005e-07,113.7000039856728,101.2505662360602,15.288,0.0,0.0,0.03779301412572,5.075709863465428e-10,-0.0002035013069687,2.3370674033523645e-08,6.94335970778e-06,4.112858105337573,35.19685285507256,12.860127625629724,35.80193592228613
0.31,31.222183112488807,131.0103918222051,4.827243246502713,4.136140889545823,0.0006242383343011,37.56633644061071,0.0009716215464757,3.232339252743767,394.1656220930212,13.2364445751808,5.4126574282679245,69.99908210036875,2.0768081583188525e-07,113.7000042923011,107.26326115439352,15.288,0.0,0.0,0.0388992619788015,5.846561731689753e-10,-0.0002263323252403,2.6893437641668458e-08,7.948283231812338e-06,4.1361409365698805,34.43286455705216,13.236542630309057,37.70514091683033
0.32,31.22218291741533,131.01039235056504,4.949637017503345,4.1622282001352975,0.0006491019906456,40.83513712643371,0.0009979686925508,3.224840963348891,421.55939346242695,13.59846554462374,5.566374262777002,69.99894668612772,2.504388718903276e-07,113.70000461297312,113.2095365840355,15.288,0.0,0.0,0.0399632243410653,6.701756367872645e-10,-0.00025078340164,3.0793566854276295e-08,9.047716714467492e-06,4.16222825066026,33.72644865222576,13.598567505326,40.96227562489027
0.33,31.222182716732533,131.01039289410716,5.075419569102976,4.187801887681037,0.0006739743721461,40.48743503284469,0.0010239291638211,3.217136801802925,418.5156301991682,13.956637761217308,5.718704299733134,69.99879684673242,2.995902922462564e-07,113.70000494831164,119.25032483364384,15.288,0.0,0.0,0.0410158804634189,7.647061680070125e-10,-0.0002769136723495,3.509664608790402e-08,1.0253455741189656e-05,4.187801941818244,33.053267359159875,13.956743628864118,40.61505097607
0.34,31.222182510255863,131.01039345333336,5.204736257784645,4.19642921746386,0.0006961879027693,31.814592723444047,0.0010535137542081,3.208669900766693,345.46563688075645,14.367047160772364,5.88887983533068,69.99863160305904,3.557915789971256e-07,113.70000529927128,126.36523219087664,15.288,0.0,0.0,0.042222056531773,8.688448410811866e-10,-0.0003048202762282,3.9835373705550826e-08,1.1618525957862828e-05,4.196429275109305,32.30947868183619,14.367156517712404,31.97598901989736
0.35,31.222182298183583,131.0103940277045,5.337435501771672,4.210915783240843,0.0007193441544952,34.813487415034444,0.0010813034848195,3.200164272309822,370.5765700527033,14.754132934586384,6.050986755458457,69.99844991734221,4.1975736284587617e-07,113.70000566632532,133.26448209504355,15.288,0.0,0.0,0.0433596939127697,9.832256819293898e-10,-0.0003345386312107,4.503361101379695e-08,1.309465610343774e-05,4.210915844572415,31.63649055965014,14.75424592890194,34.96026256388454
0.36,31.222182080444604,131.0103946174141,5.4735747500461605,4.22903876037745,0.0007431682866607,39.2632255716727,0.0011077666085529,3.1915717453569297,407.8625232777193,15.124417129017054,6.2072589919251575,69.99825073022951,4.922382611919288e-07,113.70000605036684,140.03566173682628,15.288,0.0,0.0,0.0444479595865755,1.1084921261805627e-09,-0.0003661511460057,5.0723697896912267e-08,1.4691545926915382e-05,4.229038825557203,31.017264542603208,15.124533865618538,39.39272792946638
0.37,31.22218185710795,131.01039522227452,5.613102797925907,4.249164960780052,0.0007674149135003,37.28328237034959,0.001133274451316,3.1828514669894137,391.1218908297666,15.483077353331511,6.359470679857624,69.99803294268581,5.740349991123437e-07,113.70000645214331,146.75405277514704,15.288,0.0,0.0,0.0455020695186381,1.245311285088233e-09,-0.0003997125883071,5.6934243389647934e-08,1.641828325195534e-05,4.2491650299519,30.439178816713017,15.483197898584232,37.418894813348615
0.38,31.2221816281124,131.0103958424523,5.756069531572451,4.260095806433531,0.0007900626414612,38.9278000801764,0.0011607546399008,3.1735466295306622,404.8187610144602,15.87126705947922,6.521735074464384,69.99779542676283,6.659911329739736e-07,113.70000687263192,154.20298254405043,15.288,0.0,0.0,0.0466429667223463,1.3943646956867835e-09,-0.0004353006984059,6.369875435270817e-08,1.8328108041903096e-05,4.260095879559656,29.83470194713067,15.87139116222873,39.05694584372078
0.39,31.22218139339905,131.0103964781077,5.9025231349944285,4.274091258047817,0.0008133283308351,33.320076729592266,0.0011870382950339,3.164143363712209,357.64062493382744,16.24457853509073,6.678818328235205,69.9975369905506,7.690136753559805e-07,113.70000731287368,161.54010621938565,15.288,0.0,0.0,0.0477401448128051,1.5563705124515804e-09,-0.0004730068442167,7.105463478762673e-08,2.0383860516746246e-05,4.274091335289374,29.274934656826048,16.244706292406182,33.46997636540994
0.4,31.22218115316572,131.01039712870306,6.0523126585892895,4.286421841403391,0.0008363022448449,31.88018820767003,0.0012133780841982,3.1544430614236454,345.465636880754,16.62063299903514,6.836764518435374,69.99725641601981,8.840594270905819e-07,113.70000777359816,169.10340080049767,15.288,0.0,0.0,0.0488453895716005,1.7320643186450851e-09,-0.0005128553637434,7.9027539265021e-08,2.2612406375611563e-05,4.286421922834417,28.730746964325096,16.620764365084565,32.03586915718869
0.41,31.22218090752676,131.01039779392735,6.205351877049411,4.30025870409831,0.0008595777771371,35.882550741685804,0.0012389121673015,3.1445895889870297,378.94687077668647,16.987310563534386,6.99141560549392,69.9969524610574,1.0121301778427253e-06,113.70000825570062,176.64448930727934,15.288,0.0,0.0,0.0499230826371405,1.922193031274436e-09,-0.0005548883906878,8.764667734700782e-08,2.5005077415911235e-05,4.300258789847355,28.21875643368965,16.987445585695873,36.020076248499606
0.42,31.222180656535848,131.0103984736348,6.36160173428776,4.322008670726048,0.0008844838439129,40.34064925656127,0.001261804338223,3.134918999355981,416.2328240017114,17.318628721060172,7.133856886815013,69.99662385300175,1.154276942054023e-06,113.70000876021427,183.59942989625057,15.288,0.0,0.0,0.0508968652507098,2.1275184665783874e-09,-0.0005991661829955,9.694534598491077e-08,2.752657757470936e-05,4.322008761057615,27.772396468009568,17.318767655457478,40.462275036947325
0.43,31.222180400205527,131.0103991677914,6.521055075967404,4.339436441324956,0.0009085827200945,35.541853595187746,0.0012854696362701,3.124839917627212,375.9031395134336,17.662848429084132,7.280642039343927,69.99626930133451,1.3115939750280808e-06,113.70000928827632,190.96736675963504,15.288,0.0,0.0,0.0519085689713619,2.3488101247838237e-09,-0.0006457514522491,1.0695800287133593e-07,3.0255957891170616e-05,4.339436536261635,27.322335771349252,17.662991148924057,35.67895714766603
0.44,31.22218013836212,131.0103998768696,6.683849332059896,4.342209064313268,0.0009296474314902,32.82948243168077,0.0013129688908547,3.113754688841357,353.0750125389216,18.063580761318697,7.446730341918701,69.99588746395321,1.4852372182848018e-06,113.7000098413532,199.7278270846888,15.288,0.0,0.0,0.0530863610987301,2.586862292117705e-09,-0.0006947575786514,1.1773083546077225e-07,3.329010177793299e-05,4.342209163639375,26.81344244367223,18.06372678999575,32.9768158972058
0.45,31.22217987077456,131.0104006014978,6.850166573233225,4.3420317510315165,0.0009500780330031,38.11022602597878,0.001341042003417,3.1022288449712887,397.2093853562869,18.47486275310604,7.616350301328129,69.99547690348253,1.6764536248320808e-06,113.70001042108892,208.92306716049887,15.288,0.0,0.0,0.0542951637545535,2.842521175226318e-09,-0.0007463379956615,1.2932090054593452e-07,3.657529369088674e-05,4.342031854775571,26.30944884471334,18.47501199101448,38.23628058998621
0.46,31.22217959739673,131.01040134180155,7.020045503401754,4.351169003849846,0.0009725797783515,44.3937050866137,0.0013660055515545,3.09098240974522,449.7140588976434,18.844323061800488,7.771531995684422,69.99503610583268,1.8865779683531e-06,113.70001102895836,217.3591612614144,15.288,0.0,0.0,0.0553810645782081,3.1166808800591503e-09,-0.000800596194505,1.417768495237597e-07,4.001824400409673e-05,4.351169112337076,25.873596578896564,18.844475834274814,44.50118229261506
0.47,31.22217931813738,131.01040209802923,7.193559875579052,4.358630093683735,0.0009947969928181,30.22514089990685,0.0013910994973101,3.079396422776949,331.0078106302534,19.2180591098146,7.9280875671397615,69.99456352718363,2.1170044481277104e-06,113.70001166656292,226.0625808853568,15.288,0.0,0.0,0.0564795377574197,3.4102493884459798e-09,-0.0008576351980594,1.551487523304888e-07,4.3718862242359527e-05,4.35863020698899,25.44665981168229,19.218215372160817,30.381603425148434
0.48,31.22217903348153,131.01040286886197,7.370336324605091,4.365514409145237,0.001016880998596,29.779838936311712,0.001416009414045,3.067527859335786,327.2031223011574,19.5915905767454,8.084483592791102,69.99405758812365,2.369198154608765e-06,113.70001233476164,234.93171707892955,15.288,0.0,0.0,0.057577416115756,3.7241711041759195e-09,-0.0009173883913609,1.6944871263079066e-07,4.767297940601472e-05,4.365514527349481,25.03354780044292,19.59175030803913,29.937410312943754
0.49,31.22217874361868,131.01040365378466,7.5502307795521535,4.3786401372577615,0.0010404145545081,37.2489281064929,0.0014385799934191,3.0558405437943126,389.60000969812296,19.93403005898306,8.23012235628909,69.99351671352461,2.644660619562788e-06,113.700013034871,243.21198709852868,15.288,0.0,0.0,0.0585839249886784,4.059374595909599e-09,-0.0009798792959512,1.8470833984680338e-07,5.180951737438081e-05,4.378640260624215,24.667474291142685,19.934193486919103,37.37406598941686
0.5,31.22217844858332,131.0104044527036,7.733219389747018,-2.8051628796530226,7.835281963571553,38.321496912281695,-0.4633704293024296,3.4920546631058063,397.97031042210494,19.48656518233012,8.366269437912349,69.99293932307316,2.9449363413826395e-06,113.70001376847225,232.41155514405483,15.288,0.0,3.7577354668479273,0.0572689930793036,4.41672905964163e-09,-0.0010516197388721,1.555754818850547e-05,5.435359191071647e-05,8.31934257658895,32.53667510379121,20.713495904000503,38.483064892532745
0.51,31.22217814864837,131.01040526574295,7.9192377943746655,-2.6829938364841923,7.719818850375571,29.410275869146624,-0.474868098324546,3.490976137520764,323.3984349720841,19.820486828098847,8.516431346949183,69.99234755329424,0.0001055785503861,113.7001234151124,240.4407119090799,15.288,0.0,3.7726471166408393,0.0582504763828742,4.8196491123105975e-09,-0.0010128378530263,0.0001264565474893,5.32452302932287e-05,8.170094242701168,32.05277680595388,21.029447491856505,29.620545923443984
0.52,31.222177843835208,131.01040609321657,8.108289804317968,-2.564765402618652,7.604127726066871,35.246441430989776,-0.4867122865878897,3.4898871361710624,372.0984511843415,20.163317894221567,8.669267915256416,69.9917779772413,0.0003847002670342,113.70042089346008,248.8258413641645,15.288,0.0,3.7875050837179054,0.0592581498056616,5.271062769300767e-09,-0.0009742058254328,0.0002402055906262,5.2099229934874814e-05,8.02259983502453,31.569671311536855,21.35426808945769,35.42213763483679
0.53,31.222177534013884,131.0104069355156,8.300486902032487,-2.4509373537019767,7.493202259790643,36.98683114897563,-0.4986110295789664,3.4886305679848766,386.5562464348624,20.502610199796656,8.820818515229712,69.99123051216617,0.0008449118839513,113.70091110239582,257.26563715865615,15.288,0.0,3.802311819347537,0.06025542954842,5.7725180278500785e-09,-0.0009357295456782,0.0003569373901767,5.088269050170549e-05,7.881680209683307,31.10519137820569,21.676287270038426,37.154338032611086
0.54,31.222177219093616,131.01040779291182,8.495905865555791,-2.341063297794067,7.38617315712658,32.53144068808866,-0.5106089141501583,3.487220541306169,349.2703242098436,20.84001639999847,8.971656866866223,69.99070505898223,0.0014909403924074,113.70159907394526,265.79783266222387,15.288,0.0,3.8170781403489857,0.0612471727266277,6.325608296489464e-09,-0.0008974307470718,0.0004767530503909,4.960225513269204e-05,7.746336839016085,30.656162582379824,21.99702290959529,32.72179796113819
0.55,31.222176899357045,131.010408664661,8.69433380322063,-2.235541868705686,7.284882282818271,34.45409155700458,-0.5225523769844576,3.4856151665660926,365.2500005919907,21.1695228606489,9.119705575105042,69.99020148938736,0.002327543141207,113.70248987187996,274.26424075062323,15.288,0.0,3.831786829181292,0.0622157056238921,6.931968344561794e-09,-0.0008594050381545,0.0005995244943942,4.8250643602956215e-05,7.618411582656135,30.22966849986591,22.310748860968424,34.633899565231495
0.56,31.222176574812508,131.01040955076408,8.895770443661874,-2.134520200809656,7.190504493864813,32.18298463072071,-0.5343183289009431,3.4837873117457674,346.2265619465787,21.48649737180637,9.26336856348547,69.98971963456057,0.0033593990259077,113.7035884768313,282.5334656181311,15.288,0.0,3.8464376965282496,0.0631474144199076,7.593202083288166e-09,-0.0008216920062683,0.000725296529436,4.682312895375164e-05,7.499038903002377,29.830284402132463,22.61301666910752,32.37540377896909
0.57,31.22217624553893,131.01041045102963,9.100160759138337,-2.0356498018932245,7.095788565969576,31.82599297644872,-0.5464322926377955,3.481870873900057,343.1828296833023,21.81162930195796,9.409787436443342,69.98925929389091,0.0045911861985133,113.70489986849996,291.142991470581,15.288,0.0,3.8610243833042976,0.0641031037635896,8.310928466676433e-09,-0.0007843491208301,0.0008540572531797,4.537062313424112e-05,7.380574260060998,29.430752300473163,22.923386131764435,32.02055343010039
0.58,31.222175911522086,131.0104113655192,9.307521911814405,-1.937672889859904,6.996292106504704,41.780232055455535,-0.5592752003682098,3.4799472030595178,426.1250058573153,22.15927419189554,9.563912438752572,69.98882024006505,0.0060276274162982,113.70642907414776,300.4917404564248,15.288,0.0,3.8755469295370233,0.0651249641230777,9.086780325268649e-09,-0.0007474160815724,0.0009858554418976,4.3922448650897165e-05,7.258374382205952,29.014194153779652,23.25552018707605,41.92863713374837
0.59,31.22217557237332,131.01041229531378,9.518161791525657,-1.8451910304964945,6.908542544714599,33.94103262227244,-0.5715101276085635,3.477701224253043,360.68438819711065,22.477515774211327,9.707836053100232,69.98840224578457,0.0076737546565021,113.70818145061276,309.178520383242,15.288,0.0,3.890023481708312,0.0660604167002807,9.922448422855586e-09,-0.000710860614207,0.001121007341731,4.2373325949601134e-05,7.149557516754635,28.64324487275399,23.56007945285492,34.1235215811219
0.6,31.22217522830854,131.01041323984995,9.73191935501628,-1.7520914592587689,6.810523632792987,30.206020684997288,-0.5849692587161807,3.4755439137941257,329.4859594986058,22.83676042305181,9.865840015766748,69.98800505576213,0.0095346693348223,113.710162427731,319.13377506655235,15.288,0.0,3.904441127308692,0.067116382555017,1.0819712222661564e-08,-0.0006747700823746,0.0012594099439656,4.0864029635772894e-05,7.031257647441556,28.23435313072197,23.90403753984445,30.410940139246573
0.61,31.222174879287625,131.01041419926085,9.94883226950856,-1.661418556607838,6.713259981595151,35.328611857930326,-0.5987693229870445,3.473263391363383,372.0984511843297,23.202480873093247,10.026012449177944,69.98762839254745,0.0116155969928796,113.7123775677576,329.4303280328071,15.288,0.0,3.918804461451275,0.0681913881131977,1.1780368797776686e-08,-0.0006391816065357,0.0014011425459996,3.93278787571052e-05,6.914877245025783,27.82929731274974,24.25458612721716,35.50398427072982
0.62,31.222174525430304,131.01041517324526,10.168814319169426,-1.5781277642598863,6.637564703052697,43.83427745402431,-0.6109610313158517,3.4704698377432863,442.86563930529206,23.50128464451936,10.163056669255626,69.98727195415361,0.0139218842288507,113.71483256150908,337.96269403617333,15.288,0.0,3.9331193981021726,0.0690697347527941,1.2806272657998908e-08,-0.0006041535118803,0.0015462044313426,3.76505706583657e-05,6.821774006675495,27.507639869472328,24.54158032097878,43.97569003657426
0.63,31.222174166563764,131.01041616229534,10.392005748212965,-1.495660234781888,6.557936372253746,25.016950907119195,-0.6238148475755912,3.4676318867174825,286.11251274707894,23.819567942582367,10.3067570522876,69.98693538667399,0.0164586840049886,113.71753289408694,347.1714549969957,15.288,0.0,3.9473595314070873,0.0700053383096849,1.389920095214682e-08,-0.0005697135698474,0.0016947334512809,3.598436073472539e-05,6.725604164902153,27.172266173835943,24.847438468030987,25.263836774232207
0.64,31.222173803266404,131.0104171648615,10.61796455803126,-1.413402742098941,6.471078251398088,24.564840384171927,-0.6377191479581257,3.4648052060325853,282.30782441796754,24.171077582549383,10.461843188168192,69.98661830490359,0.019231202836973,113.72048410647088,357.4858462098884,15.288,0.0,3.9615389639746734,0.071038600742454,1.5061059101485936e-08,-0.0005360043918151,0.0018463649167221,3.43540770554125e-05,6.622994741529665,26.810259692372743,25.18539256237837,24.816183105531497
0.65,31.222173435526148,131.0104181809982,10.84670631795078,-1.3363434246464931,6.39988526999622,43.13563177956573,-0.650382427601162,3.4615710128528256,436.7781447787475,24.470723262723403,10.59899655299268,69.98632027983155,0.0222445254034969,113.72369161075758,366.39614774008606,15.288,0.0,3.975636126911265,0.0719194425563507,1.62936347025458e-08,-0.0005030624298333,0.0020011778858487,3.264172302668683e-05,6.537347455491664,26.50956818985687,25.47392574314445,43.279188996577055
0.66,31.222173062855266,131.01041921205135,11.078615043054512,-1.2605592650093245,6.32706414377942,36.742004403040646,-0.6635086338588291,3.458241703216418,383.51251517160017,24.781821721450047,10.740036273206783,69.98604085353561,0.0255037924007398,113.7271608792812,375.7630504418789,15.288,0.0,3.9896713394923697,0.0728339513160387,1.7598664576533687e-08,-0.0004708668786718,0.0021595527475636,3.094041147978378e-05,6.450913569947658,26.20385770653151,25.77365596335536,36.910358531693085
0.67,31.22217268544121,131.01042025753395,11.313551891819412,-1.1852406890255855,6.248131358534896,25.40244458146749,-0.6776247111202787,3.4548899602532424,289.1562440103425,25.123077863109067,10.891400736334436,69.98577955867788,0.0290145049355941,113.7308977669408,386.17442349197137,15.288,0.0,4.00365890792436,0.0738371012617431,1.8978112799961165e-08,-0.000439497743387,0.0023214005450592,2.927618009042537e-05,6.35911690213579,25.87568956196205,26.102587955357144,25.645265266733084
0.68,31.222172303454816,131.0104213170037,11.551390893266364,-1.1123089453681143,6.173081383885982,31.632532024679648,-0.6916604886814683,3.451331863244377,340.8999924858462,25.45527638767,11.039579289318697,69.9855358902196,0.0327821528438179,113.73490811661074,396.4455368681839,15.288,0.0,4.01755465538377,0.0748136384326101,2.043394356581699e-08,-0.000409026642079,0.0024866601474831,2.760605894274504e-05,6.2721107976912585,25.56370411491415,26.423066847440584,31.82777353435569
0.69,31.22217191697976,131.01042239025423,11.792073460354768,-1.042530062140026,6.106926127870781,38.87353398061697,-0.7049968155548658,3.447489509635884,401.0140726853634,25.75654791389229,11.17704526570802,69.98530930142661,0.036812150685535,113.7391976911222,405.8758134231375,15.288,0.0,4.031384777095202,0.0756992878750339,2.1968095543317372e-08,-0.0003795162535924,0.0026553135187211,2.591689654002449e-05,6.194941213132081,25.28720151121749,26.714006342495694,39.03247171998174
0.7,31.222171525888367,131.01042347765213,12.03570450850707,-0.9743457704704264,6.0416463245936605,32.653018037120084,-0.7185233890619427,3.443498062351481,349.27032420985284,26.058994681605128,11.314853481351689,69.98509920599547,0.0411098566236302,113.74377219353168,415.4540677471919,15.288,0.0,4.045161292509476,0.0765883987557077,2.3582450047847776e-08,-0.000351003534574,0.0028274984289393,2.4250681404105686e-05,6.119421435895096,25.01520968508325,27.00625655468764,32.841947897445685
0.71,31.222171130238376,131.01042457906058,12.282245428055932,-0.9069942111928668,5.972836233386604,26.886975489823943,-0.7327809354942287,3.43941423688701,301.33126406340574,26.38162188846276,11.459541350736576,69.98490498944403,0.0456807681621546,113.74863747488044,425.7948478878967,15.288,0.0,4.058844149588354,0.0775368283285425,2.5278980902704172e-08,-0.0003235512265066,0.0030032111926278,2.2630234750542286e-05,6.041061913706261,24.730799931731266,27.31813445220765,27.11597295290579
0.72,31.222170730037057,131.01042569447995,12.531696767020469,-0.840491139908738,5.899739220027611,32.85024627464131,-0.7479318485985239,3.4352441002877177,350.79220534145287,26.72932743693671,11.612792146152827,69.98472597036125,0.0505305116953502,113.75379952620472,437.08215728634326,15.288,0.0,4.072464082552325,0.0785589723888403,2.705969607078785e-08,-0.0002972132753665,0.0031825041613027,2.1061550925905936e-05,5.959098062949712,24.430805755500632,27.65441952177976,33.037841702860895
0.73,31.22217032528676,131.01042682392452,12.78406304996854,-0.7774522571333465,5.8409838567249,41.47575777181397,-0.7615578746720632,3.430716980002677,422.320318528234,27.01772695030244,11.74556862460809,69.98456154973773,0.0556649000133987,113.7592645284926,446.5541265647348,15.288,0.0,4.0860300864628805,0.0794068206050772,2.892664981522373e-08,-0.0002720413858899,0.0033654482265468,1.948531250435995e-05,5.892319497720714,24.187573047454794,27.93363816427436,41.62437113206085
0.74,31.222169915930195,131.01042796756835,13.039394548249584,-0.7152428132397924,5.779011138244903,26.0757940455011,-0.7758903629106431,3.4260823715368103,294.48281347105944,27.325170037481943,11.884830618006392,69.9844109701823,0.0610895707084586,113.76503848470122,456.76370595550287,15.288,0.0,4.099519284478657,0.0803106467726193,3.088185865562641e-08,-0.0002480922496306,0.0035521072693912,1.7971693777639014e-05,5.82295509424534,23.933010297158777,28.23139660638913,26.311348908317182
0.75,31.222169502326167,131.01042912445715,13.297419690791717,-0.654110676811244,5.715395449170318,30.3924142012853,-0.7907614427194544,3.421308573800778,330.24688556441487,27.6452054986684,12.028353912479124,69.98427347433075,0.0668102083703599,113.7711274443838,467.5141130492694,15.288,0.0,4.112921889497021,0.0812514906199803,3.2927480021358665e-08,-0.0002254601471432,0.0037422382552428,1.6523109734374047e-05,5.752580795830574,23.67317204806955,28.541489568391626,30.5945991475447
0.76,31.222169084370204,131.01043029489247,13.558225225503644,-0.5948737150036864,5.6572689281800095,32.69236339591185,-0.8051664980599078,3.416306792508951,349.27032420986166,27.94350296284355,12.164330178979068,69.98414826514883,0.0728324611029495,113.77753741888304,477.645729131284,15.288,0.0,4.126261261248361,0.082128452608108,3.5065511669343895e-08,-0.0002041893246574,0.0039359874762231,1.5125341250171948e-05,5.688357909733217,23.435787713442476,28.83070146940579,32.88023828381567
0.77,31.22216866200993,131.0104314790338,13.821857459050436,-0.537031332352533,5.601139925784377,30.58692643501689,-0.8195690315002084,3.411123298930701,331.7687666960708,28.23602001332536,12.298249185343977,69.98403450960195,0.0791620489444805,113.78427449599718,487.6858671143577,15.288,0.0,4.139538855950093,0.0829884332020478,3.7298001204214884e-08,-0.0001843343857837,0.0041334451818799,1.3797174060956898e-05,5.626744334321893,23.20726575133914,29.11444431552979,30.787457256146325
0.78,31.22216823531321,131.01043267671454,14.088269727148909,-0.480050455222114,5.54205358574733,25.17426158665813,-0.8347021193698824,3.4058023766787806,286.8734378128899,28.54747717320957,12.438609358018576,69.9839312999319,0.0858047317789906,113.79134480852802,498.4912798639372,15.288,0.0,4.1527264367737216,0.0839040885496837,3.96270690072551e-08,-0.0001659631736356,0.004334587180768,1.2558814919274945e-05,5.56274098202289,22.968315675066687,29.41666406313442,25.41731031975182
0.79,31.222167804371093,131.0104338877053,14.35739748582157,-0.4241564062256427,5.481754608987377,35.650478493600964,-0.8503484876581193,3.4003181134151665,373.6203323159534,28.86994019381532,12.582680136244832,69.98383780054051,0.0927663272837402,113.79875454236677,509.8032980997367,15.288,0.0,4.165838274724958,0.0848520995012087,4.205485667028992e-08,-0.0001491425442128,0.0045393869836382,1.1413146762747584e-05,5.498089938607059,22.725635913541897,29.72969913789072,35.82236553670886
0.8,31.22216736896941,131.01043511260315,14.62941206857605,-0.3700368535289521,5.429599512714077,36.116638661566526,-0.8650107091154798,3.394589013554204,377.42502064505743,29.153878189710653,12.71343275733086,69.98375303133822,0.1000528518161063,113.80651010364802,519.8669363832619,15.288,0.0,4.178892895401055,0.0856868891460638,4.458343806608362e-08,-0.000133917513538,0.0047481027408142,1.0348569896561908e-05,5.442156558986484,22.51589731940726,30.00548174237424,36.28612773923375
0.81,31.22216692921328,131.0104363511399,14.904237941919195,-0.3167399005776873,5.373662679544911,23.6226150340956,-0.8805766695248682,3.3887164679901742,273.9374926939919,29.46188643705836,12.852387241606948,69.98367600602367,0.1076702858854708,113.81461785711087,530.895650581801,15.288,0.0,4.191883646665576,0.0865924323546785,4.7215049218671735e-08,-0.0001203625157427,0.0049606640117358,9.399115159608613e-06,5.382962049603607,22.292311632498052,30.304742471368357,23.88067745312973
0.82,31.22216648529284,131.01043760281706,15.181733984685131,-0.2644865447897788,5.316698952586102,30.245888771654684,-0.8966403487541724,3.3826655648859223,328.72500443277005,29.77994470263721,12.9947200063619,69.98360565995563,0.1156246330682811,113.82308419474536,542.4057255924222,15.288,0.0,4.204800387871222,0.0875275222587375,4.99519722852411e-08,-0.0001085518719492,0.0051769525845809,8.56810526385316e-06,5.32325464233696,22.065661282586685,30.61389180525313,30.44766292880598
0.83,31.222166037195336,131.01043886768508,15.461915731479012,-0.2136982273584876,5.26898697747252,38.3444580607987,-0.9113917845325656,3.376375263204237,395.68750322465047,30.049862110631263,13.120428720094996,69.98354099796569,0.1239219304425554,113.83191553605872,552.2678636443046,15.288,0.0,4.217629110471632,0.0883211273776501,5.279638455372339e-08,-9.854714980791824e-05,0.0053970504065081,7.848713113226796e-06,5.273306542909306,21.876517835881977,30.87634658911004,38.50361033564569
0.84,31.22216558481908,131.01044014603326,15.744866987738764,-0.1638149161576973,5.220261256762993,23.815467883107587,-0.9265744668481056,3.3699134890725846,275.4593748256452,30.32838017477872,13.249018326258383,69.98348087037371,0.1325681140076414,113.84111820157445,562.5374432056628,15.288,0.0,4.23039370511176,0.0891400190203745,5.575042623068933e-08,-9.04130403469191e-05,0.0056210715936461,7.267422198162896e-06,5.222823816633743,21.68437855204841,31.14724287782137,24.070549799657197
0.85,31.2221651284602,131.01044143707523,16.03036465435109,-0.1147301547094047,5.165437469164892,25.93505595726817,-0.94316589489259,3.36328125821056,292.96093233939376,30.64594347237908,13.390947575247704,69.98342408412253,0.1415691127961258,113.85069850393056,574.3638377307353,15.288,0.0,4.243083961262383,0.0900736791088139,5.88164637099596e-08,-8.422668440123666e-05,0.0058487750558706,6.840863037815301e-06,5.166708001729762,21.46909422829642,31.456229820315688,26.1692252509269
0.86,31.22216466794927,131.01044274128333,16.318544840706117,-0.0667706906178439,5.11638271499368,32.38241982858564,-0.9589889909874314,3.356440134077321,346.2265619465587,30.933227030294848,13.5223927270198,69.98336951827145,0.1509310561088366,113.86066296102166,585.1666069062034,15.288,0.0,4.255708622873533,0.0909183503349878,6.199662144958722e-08,-8.004848055629313e-05,0.0060803970441634,6.562276063215447e-06,5.116817228976844,21.27754598948907,31.73583887232043,32.570024013089956
0.87,31.222164203313586,131.01044405859727,16.609391780563058,-0.0197574718061089,5.070321542152948,30.177585645020265,-0.9745062885867892,3.3494064490542184,327.964078366998,31.205375939777127,13.64855885972234,69.98331585853556,0.1606600667230977,113.87101809498132,595.4917974646454,15.288,0.0,4.268267085409352,0.0917185462004314,6.529318017198016e-08,-7.79490053107699e-05,0.0063159546503765,6.446203925842795e-06,5.0703599358424825,21.09880418299255,32.000781079277935,30.378526320906257
0.88,31.222163734591724,131.01044538892555,16.902880855829835,0.0263744318779112,5.021570683992263,26.12930679483492,-0.9908262143971804,3.3421756547606,294.4828134710418,31.49696578234808,13.781324170335258,69.9832618937686,0.1707622186910096,113.88177036488436,606.6555033482523,15.288,0.0,4.280755589544184,0.0925758908730183,6.870842947037333e-08,-7.799968083280854e-05,0.0065554288232292,6.510485060259697e-06,5.021639768343966,20.910329378842164,32.28474283296415,26.360814635989865
0.89,31.22216326186796,131.01044673205362,17.198952308501145,0.0715814674085081,4.970253609370609,28.62030782033796,-1.0079651469735595,3.3347272225605544,315.028134248087,31.80811315472648,13.920724911111128,69.98320622094519,0.1812436769575573,113.89292633784169,618.6829829269489,15.288,0.0,4.293156649409378,0.093490727636438,7.224471155472273e-08,-8.027108062573504e-05,0.0067987972045138,6.766069751844347e-06,4.970767746421209,20.71260334331641,32.58785996230856,28.831552492318167
0.9,31.222162785070584,131.01044808818756,17.49766656041836,0.1160379928871556,4.927617493437699,31.57347142809416,-1.0235885636047983,3.327105993950205,339.37814235421445,32.066887979295295,14.042053019144472,69.98314753995672,0.1921107642278105,113.90449273779176,628.7724800439636,15.288,0.0,4.30549353731303,0.0942516388876677,7.590428815832303e-08,-8.483559259281681e-05,0.0070461943643116,7.208782236188403e-06,4.928980195065202,20.55031320294692,32.83996248914544,31.764783422261832
0.91,31.22216230427256,131.01044945714153,17.798972235161212,0.1596226272002883,4.882333777501081,24.11075986126304,-1.0400270253747224,3.3192704566964726,277.7421810230789,32.34520432038353,14.170011074943645,69.98308435720996,0.2033696008767875,113.9164760846606,639.7158721771399,15.288,0.0,4.31776262869205,0.0950699950590927,7.968952372058159e-08,-9.176653078878332e-05,0.0072975723790503,7.865179507226314e-06,4.884936109884834,20.37838262049212,33.1111917301969,24.360376714363444
0.92,31.22216181967733,131.01045083837877,18.10271775406449,0.2022829425711391,4.834561598871868,28.63188491676829,-1.0572951611572896,3.311201881734268,315.02813424806214,32.64299523761085,14.304573165373796,69.98301524103734,0.215026338593134,113.92888292337514,651.5303670541388,15.288,0.0,4.329958162363411,0.0959455998904993,8.36028988166783e-08,-0.0001011302142058,0.0075527563013031,8.747273100053737e-06,4.838781570336978,20.1973740354204,33.401505573517106,28.842100562311174
0.93,31.22216133119761,131.01045223214496,18.40897504119344,0.24447191563889,4.794502747814493,33.985687598016824,-1.0731012040193717,3.3029896052203447,359.1625070654728,32.89133629865532,14.422067960194852,69.98293871927987,0.2270871703668214,113.94171984291243,661.4620330248271,15.288,0.0,4.342086433105856,0.0966758679675643,8.764661644984174e-08,-0.0001130037549292,0.0078119129217157,9.848347758763346e-06,4.800716982868158,20.048074093160395,33.64357640726543,34.162673315129425
0.94,31.22216083872648,131.0104536387367,18.717830678950914,0.2855866667610329,4.748550339442021,24.763912793954564,-1.0905156164447387,3.294502296267584,283.0687504837787,33.1823084177812,14.554117551863024,69.98285315838517,0.2395582065097597,113.9549933534094,673.1970333601681,15.288,0.0,4.354147327172808,0.0975314477329062,9.182293601330933e-08,-0.0001274678677815,0.0080751481821674,1.120684633435972e-05,4.757110808791427,19.87604716867258,33.92735535508136,25.005886238172177
0.95,31.222160342554417,131.010455057383,19.029066329501024,0.3259891130713569,4.704063844711006,31.965515050306102,-1.107875241715162,3.285805092699291,342.4218736174873,33.46596874905475,14.683569102278824,69.9827569848182,0.2524457669851955,113.968710179154,684.7354655105294,15.288,0.0,4.366136036981116,0.0983655447804862,9.613447767420204e-08,-0.0001445828337302,0.0083422307258765,1.2819859091574475e-05,4.715320421307154,19.710712065113047,34.20405152558929,32.15304114838533
0.96,31.22215984239189,131.01045648887063,19.34290866613645,0.3659148084772467,4.663586782191488,31.32376604770575,-1.1245342090997488,3.2769446481220745,337.09533515678345,33.723436967554726,14.80394043296958,69.98264854192294,0.2657561346893176,113.98287700881248,695.2909699775563,15.288,0.0,4.378061980791951,0.0991226646206212,1.0058331430085568e-07,-0.0001644465345391,0.0086135140909248,1.46928682042746e-05,4.677888359366242,19.5623318818024,34.45518285519421,31.514778482891085
0.97,31.222159338260767,131.01045793314896,19.659345238864205,0.4050234309698869,4.621910887646299,20.153949550834888,-1.141741569348554,3.2678433241624805,245.02188719299323,33.99150443957028,14.927863459946495,69.98252611974776,0.2794957285225248,113.99750067562763,706.3671651477213,15.288,0.0,4.38992402443168,0.0999109470461026,1.051719017737738e-07,-0.0001871396534202,0.0088890101529468,1.6852837588345108e-05,4.639584922378534,19.409975310238536,34.716725373542666,20.44906003463361
0.98,31.2221588304498,131.0104593894514,19.978159059224566,0.4428923742936089,4.574870639689117,29.207802205658627,-1.1605994164788358,3.2583992071152816,319.5937466429581,34.30181789350892,15.066200459364207,69.98238795899658,0.2936709278214895,114.01258797065464,719.3010687524975,15.288,0.0,4.401714186741398,0.1008234115143319,1.0990300728436677e-07,-0.0002127148413479,0.0091684264058861,1.933029397234972e-05,4.596213440294792,19.23675927489965,35.019673547252935,29.411900076046386
0.99,31.222158318813644,131.01046085817595,20.299465935970165,0.4810514015908508,4.5382806852768445,31.89101662461138,-1.1770091066928592,3.2489395131538057,341.6609485517054,34.53628468613692,15.178410096929731,69.98223224054203,0.3082882604125437,114.02814584422217,729.145601571147,15.288,0.0,4.413441446561484,0.1015129483382294,1.1477886353155749e-07,-0.000241270853997,0.0094520164886205,2.2074486215937523e-05,4.563651813626085,19.106559123066123,35.24841096918877,32.0776853863961
1.0,31.22215780335236,131.01046233932803,20.62326959977688,0.5179888204151645,4.496487781764378,28.56804832898817,-1.1950451530668025,3.2391288430833,314.2672081822764,34.81189180949866,15.304652366293729,69.98205711397421,0.3233539224149453,114.0441808931952,740.8064801223034,15.288,0.0,4.4251022980199535,0.1023234177910488,1.1980192244486772e-07,-0.0002728874460115,0.009739762223023,2.516562971915472e-05,4.526164350295839,18.956125948561805,35.51747367247323,28.775918298246648
1.01,31.22215728424688,131.0104638324299,20.94943572593432,0.5543987768410664,4.456144447792477,29.86572463685228,-1.212951969689864,3.229111351620304,324.9203161036979,35.07845098580403,15.427697643445336,69.98186065819422,0.3388743796835614,114.0607000022638,752.1712535622991,15.288,0.0,4.436695129535821,0.1031073009743432,1.2497484329373917e-07,-0.0003076279025232,0.0100315280159478,2.858572073605947e-05,4.490429975847632,18.81234170126562,35.777715063056164,30.06426318216069
1.02,31.22215676142268,131.01046533768647,21.27802512842481,0.5903872308939933,4.417727788540385,24.96802674562153,-1.2305685923650505,3.2189076352516475,284.59063161540416,35.33161690322217,15.54605437597087,69.98164091453062,0.3548559529536292,114.07770990179486,763.0433924588631,15.288,0.0,4.448222814530095,0.103851825356287,1.3029996331827032e-07,-0.000345585788918,0.0103274328684547,3.2343625249055606e-05,4.456925497700822,18.677172408243067,36.024864590655014,25.204722275694067
1.03,31.222156234948635,131.01046685491792,21.60898877140038,0.6252643146780615,4.376002457968605,20.437511589528214,-1.2493946003122876,3.2083507039865693,247.30469339049705,35.613156840924326,15.674056964678284,69.98139586575,0.3713049021654845,114.09521725838836,775.2278197114749,15.288,0.0,4.459683302503152,0.1046797594204382,1.3577982363795706e-07,-0.0003868349435681,0.0106274189446171,3.649149640682071e-05,4.42036112716147,18.52929058041661,36.29986961824999,20.72550074374949
1.04,31.22215570488705,131.01046838396317,21.942282927779782,0.6600647165416175,4.338327188627221,32.374832725507545,-1.267301923941452,3.197674751585501,345.46563688072297,35.86373027761942,15.791338811977834,69.9811233970021,0.3882277151139061,114.11322898413552,786.1500038725784,15.288,0.0,4.471078263804078,0.1054166805205645,1.4141697697538956e-07,-0.0004314540717019,0.01093148107609,4.098563150630964e-05,4.388158528542069,18.398676031513503,36.54454214165948,32.557041818751706
1.05,31.22215517095725,131.01046992557403,22.27812505654713,0.6938290371568587,4.298100077129048,19.606414628223025,-1.2862294290749423,3.1866510499370126,240.45625879819983,36.13705615701323,15.91633506487016,69.98082145924474,0.405630741482043,114.13175183642495,798.1527850458086,15.288,0.0,4.48241400402715,0.1062204882598744,1.4721350699413858e-07,-0.0004795801080811,0.0112399695629105,4.590304778677702e-05,4.3536375193983,18.25838888576176,36.811567098959,19.905291397818846
1.06,31.222154633394435,131.01047147912732,22.61633936701716,0.7265829830690586,4.2558262078939055,27.846741651018075,-1.3060922588728607,3.175268702506549,308.17968365593924,36.429977447591085,16.047960644154113,69.98048777093143,0.4235206603130761,114.1507929351868,811.1182787448269,15.288,0.0,4.493685746922917,0.1070819035096163,1.531723749078995e-07,-0.0005312611426486,0.0115526433095803,5.126021649345163e-05,4.317291776294534,18.11040635663922,37.09786651792394,28.057605544670952
1.07,31.222154092085223,131.0104730449289,22.957015853413857,0.7597639748755605,4.219795245652698,32.7578442267185,-1.3242588632033918,3.1638830795385524,348.5093681440308,36.671445293632296,16.161835060055644,69.98012015219766,0.4419042545710194,114.1703594991574,821.8796470352077,15.288,0.0,4.504900000766208,0.1077920860248354,1.592959569610458e-07,-0.0005866186780585,0.0118697229361566,5.697484914041935e-05,4.287524825333335,17.98878113398411,37.33369010785105,32.936912060175246
1.08,31.222153546930542,131.01047462324382,23.30023294694429,0.7922082454235948,4.1829428194991145,22.10939856039733,-1.342927347854542,3.152201835519752,261.00157857466235,36.921129991272174,16.278433553535308,69.97971620513086,0.4607881491641208,114.19045859264804,833.0821394970594,15.288,0.0,4.516057508059624,0.1085264298289112,1.655867479017293e-07,-0.0006457660596701,0.0121913313460685,6.314444534935263e-05,4.257169144124401,17.86454225497829,37.57760159602043,22.373317478102557
1.09,31.222152998202606,131.01047621334985,23.6457866229922,0.8229356293476267,4.140408928703148,20.34979515624524,-1.3637600367886535,3.139955620226368,246.54375332474407,37.222985165078,16.412835927992507,69.97927358875168,0.4801789889881822,114.21109729226664,846.731737427198,15.288,0.0,4.527151719917974,0.1094141333500745,1.7204787569794448e-07,-0.0007087342539127,0.0125171496008221,6.986588430566261e-05,4.221259277605139,17.717539737287627,37.87279317876613,20.635729345871813
1.1,31.22215244597721,131.010477815048,23.993622576025988,0.8537227580540458,4.101459613229685,40.64878565185869,-1.3836945172996502,3.1275956297560623,413.1890617385841,37.49516284029089,16.536958695607243,69.97878987043136,0.5000834648698593,114.23228272668491,859.1310550713602,15.288,0.0,4.538184833486696,0.1102146115449912,1.786820306937055e-07,-0.0007756059172882,0.0128471637651102,7.701447965322098e-05,4.189220468669666,17.585994312631875,38.13886852782041,40.792404193810725
1.11,31.222151889857628,131.01047942939152,24.344044944775167,0.8853221313203489,4.069115215764896,29.80764072595436,-1.4015668584754437,3.115337494794533,324.1593910376397,37.70803263424645,16.640636502005815,69.97826254177849,0.520508372504566,114.25402213813494,868.8845199124064,15.288,0.0,4.549167395756808,0.1108407668869834,1.854911322548288e-07,-0.0008465859752749,0.0131819264595069,8.453690683824052e-05,4.164153658522988,17.482582745985752,38.34667058513621,30.002752590601123
1.12,31.22215132990504,131.01048105621567,24.69700943398292,0.913887181208736,4.025621585730715,11.35604129219541,-1.423680940615029,3.1021188287204504,172.73281794065943,38.02576475755431,16.78019141279852,69.9776890380258,0.5414603224583333,114.27632257268816,883.558890505574,15.288,0.0,4.560094650477431,0.1117751688776391,1.9247808005966538e-07,-0.0009217548787972,0.013521338444638,9.281540989959088e-05,4.127886159548518,17.33352429029055,38.65758778382656,11.857895364617603
1.13,31.22215076670427,131.0104826939746,25.052076201200222,0.9433361426352171,3.988778075794076,35.10143554638219,-1.4436919343587895,3.089003397987584,367.5328077900705,38.283317315067855,16.89900290922872,69.97706668590838,0.562946518809772,114.29919170778072,895.5377565801354,15.288,0.0,4.570959385939395,0.1125326849248031,1.996467541014658e-07,-0.0010010547300926,0.0138647428268043,0.0001014797194053,4.098633369601008,17.212762810595958,38.90936712493799,35.26665515484754
1.14,31.22215019959997,131.01048434439917,25.40974372603231,0.9733606473398924,3.956618559364214,19.517916053881315,-1.4621791486103783,3.075926409645195,239.69531773195544,38.496625993678286,17.002537554021192,69.97639280908163,0.5849734485059463,114.32263646028822,905.5140416470527,15.288,0.0,4.581776017456212,0.1131601562642814,2.069984277923716e-07,-0.0010847857767186,0.0142130217683698,0.0001105766940876,4.074402391852101,17.11231873378521,39.11763633670309,19.812832665384867
1.15,31.22214962907208,131.01048600621743,25.76965071415967,1.000077510368854,3.913397541957623,19.239170226233945,-1.4851684296938892,3.061743365453936,237.41251153546767,38.819210223431845,17.143459153264505,69.97566468722242,0.6075475715793799,114.34666371645316,920.7213844095947,15.288,0.0,4.592531468544685,0.1141088504155869,2.1453693044492454e-07,-0.0011728878708716,0.0145655058972606,0.0001205549723513,4.03897011032801,16.966165180237468,39.4334474302434,19.537801019932292
1.16,31.222149055257223,131.01048767906985,26.13169701636556,1.0294956217760296,3.882911220206163,50.06196002953133,-1.5034542511806313,3.048213662886832,490.0437743845894,39.0173775014383,17.241603208023815,69.97487940200837,0.6306759297401408,114.3712809891084,930.1133684124636,15.288,0.0,4.60323033790792,0.114691830628059,2.2226514685504245e-07,-0.0012654370754042,0.0149221495313778,0.000130727050737,4.016869141494381,16.874135918706997,39.62683700707412,50.17720421883223
1.17,31.222148477291626,131.01048936522648,26.49653599799109,1.0569108625595556,3.846800842922736,9.025265513288884,-1.5241896248579,3.033950046296934,153.70937929486794,39.27219061816522,17.35907685672405,69.9740341689987,0.6543648713217112,114.39649504519046,942.268708644345,15.288,0.0,4.613886748967875,0.1154413307301511,2.3018389222252106e-07,-0.0013628385290352,0.0152840948162889,0.0001417036846297,3.989142551878927,16.759182549991092,39.87599081876522,9.642791322086739
1.18,31.22214789631246,131.01049106168924,26.86331176410874,1.0816650082907988,3.80322592277554,24.44122860905289,-1.548321391657162,3.018695146478432,280.02501822196746,39.60578862720953,17.50347590251866,69.97312593083323,0.678621181672958,114.42231312767916,958.3111567560412,15.288,0.0,4.624477787021918,0.116422430152701,2.3829874155101483e-07,-0.0014647705111922,0.0156497707499418,0.0001535905745701,3.9538345524197873,16.613198901352042,40.20275934257363,24.67556433881951
1.19,31.222147311806907,131.01049276980595,27.232413453295,1.1108596086080855,3.7770470982721225,42.56106863087344,-1.5654021045554165,3.0046848972806264,428.4078130529292,39.75974394350044,17.586155520757814,69.97215170724887,0.703451805487138,114.44874263973745,965.7416742174048,15.288,0.0,4.635019158610208,0.1168754733775151,2.4661091147311256e-07,-0.0015715706539123,0.016020063546091,0.0001654239559969,3.936788760677566,16.54160745045184,40.35261149262256,42.69570444532813
1.2,31.222146723331075,131.01049449073167,27.604175385117927,1.1356271459371348,3.7374362739639353,4.555823847291797,-1.5884321551506384,2.9891063667742777,117.1843741360236,40.05503102676902,17.717209264911958,69.97110837260384,0.7288628793306868,114.47579013841576,980.1046515885575,15.288,0.0,4.645499585079576,0.1177439764377791,2.551223038727722e-07,-0.0016835037368643,0.0163954830419627,0.0001785157589334,3.905924882246338,16.413718300424357,40.641689895660456,5.675685378080753
1.21,31.22214613202736,131.0104962214666,27.97774078118347,1.160129137496828,3.698862752383429,34.20706383858169,-1.6113422526929506,2.9732567880845835,359.92343213200894,40.34173767824815,17.845221339312587,69.9699927630841,0.7548614137180841,114.50346309971872,994.1500129843656,15.288,0.0,4.655915957100366,0.1185872664425732,2.638386893878233e-07,-0.0018002024416584,0.0167744699917301,0.0001922497420882,3.876288812768785,16.290727114420648,40.92235018632319,34.37382574343461
1.22,31.22214553702385,131.01049796428947,28.35376603788332,1.1878674797019837,3.672091996024636,24.81952683653584,-1.6291438357607757,2.9583370058861864,283.0687504825761,40.50019016132438,17.92914081844144,69.96880158332247,0.781453872110294,114.53176843108405,1001.9387133124856,15.288,0.0,4.666289536471625,0.1190535534732152,2.727602137942388e-07,-0.0019221869789977,0.0171583899208671,0.0002060757190932,3.859191137916077,16.218935902524382,41.07660622533233,25.04824903795704
